[{"id":"E-1903-1","year":"1903","leg":"1","title":"Montgeron - Lyon","start":{"city":"Montgeron","country":"France","lng":"2.460453","lat":"48.703859"},"finish":{"city":"48.703859,2.460453","country":"Lyon","lng":"4.835659,45.764043","lat":"4.835659"},"length":"45.764043","type":"467","winner":{"name":"45.764043,4.835659","nationality":"plaine"},"leader":{"name":"Maurice Garin","nationality":"France"}},{"id":"E-1903-2","year":"1903","leg":"2","title":"Lyon - Marseille","start":{"city":"Lyon","country":"France","lng":"4.835659","lat":"45.764043"},"finish":{"city":"45.764043,4.835659","country":"Marseille","lng":"5.36978,43.296482","lat":"5.36978"},"length":"43.296482","type":"374","winner":{"name":"43.296482,5.36978","nationality":"plaine"},"leader":{"name":"Hippolyte Aucouturier","nationality":"France"}},{"id":"E-1903-3","year":"1903","leg":"3","title":"Marseille - Toulouse","start":{"city":"Marseille","country":"France","lng":"5.36978","lat":"43.296482"},"finish":{"city":"43.296482,5.36978","country":"Toulouse","lng":"1.444209,43.604652","lat":"1.444209"},"length":"43.604652","type":"423","winner":{"name":"43.604652,1.444209","nationality":"plaine"},"leader":{"name":"Hippolyte Aucouturier","nationality":"France"}},{"id":"E-1903-4","year":"1903","leg":"4","title":"Toulouse - Bordeaux","start":{"city":"Toulouse","country":"France","lng":"1.444209","lat":"43.604652"},"finish":{"city":"43.604652,1.444209","country":"Bordeaux","lng":"-0.57918,44.837789","lat":"-0.57918"},"length":"44.837789","type":"268","winner":{"name":"44.837789,-0.57918","nationality":"plaine"},"leader":{"name":"Charles Laeser","nationality":"Suisse"}},{"id":"E-1903-5","year":"1903","leg":"5","title":"Bordeaux - Nantes","start":{"city":"Bordeaux","country":"France","lng":"-0.57918","lat":"44.837789"},"finish":{"city":"44.837789,-0.57918","country":"Nantes","lng":"-1.553621,47.218371","lat":"-1.553621"},"length":"47.218371","type":"425","winner":{"name":"47.218371,-1.553621","nationality":"plaine"},"leader":{"name":"Maurice Garin","nationality":"France"}},{"id":"E-1903-6","year":"1903","leg":"6","title":"Nantes - Paris","start":{"city":"Nantes","country":"France","lng":"-1.553621","lat":"47.218371"},"finish":{"city":"47.218371,-1.553621","country":"Paris","lng":"2.352222,48.856614","lat":"2.352222"},"length":"48.856614","type":"471","winner":{"name":"48.856614,2.352222","nationality":"plaine"},"leader":{"name":"Maurice Garin","nationality":"France"}},{"id":"E-1904-1","year":"1904","leg":"1","title":"Montgeron - Lyon","start":{"city":"Montgeron","country":"France","lng":"2.460453","lat":"48.703859"},"finish":{"city":"48.703859,2.460453","country":"Lyon","lng":"4.835659,45.764043","lat":"4.835659"},"length":"45.764043","type":"467","winner":{"name":"45.764043,4.835659","nationality":"plaine"},"leader":{"name":"Maurice Garin","nationality":"France"}},{"id":"E-1904-2","year":"1904","leg":"2","title":"Lyon - Marseille","start":{"city":"Lyon","country":"France","lng":"4.835659","lat":"45.764043"},"finish":{"city":"45.764043,4.835659","country":"Marseille","lng":"5.36978,43.296482","lat":"5.36978"},"length":"43.296482","type":"374","winner":{"name":"43.296482,5.36978","nationality":"plaine"},"leader":{"name":"Hippolyte Aucouturier","nationality":"France"}},{"id":"E-1904-3","year":"1904","leg":"3","title":"Marseille - Toulouse","start":{"city":"Marseille","country":"France","lng":"5.36978","lat":"43.296482"},"finish":{"city":"43.296482,5.36978","country":"Toulouse","lng":"1.444209,43.604652","lat":"1.444209"},"length":"43.604652","type":"424","winner":{"name":"43.604652,1.444209","nationality":"plaine"},"leader":{"name":"Hippolyte Aucouturier","nationality":"France"}},{"id":"E-1904-4","year":"1904","leg":"4","title":"Toulouse - Bordeaux","start":{"city":"Toulouse","country":"France","lng":"1.444209","lat":"43.604652"},"finish":{"city":"43.604652,1.444209","country":"Bordeaux","lng":"-0.57918,44.837789","lat":"-0.57918"},"length":"44.837789","type":"268","winner":{"name":"44.837789,-0.57918","nationality":"plaine"},"leader":{"name":"Lucien Pothier","nationality":"France"}},{"id":"E-1904-5","year":"1904","leg":"5","title":"Bordeaux - Nantes","start":{"city":"Bordeaux","country":"France","lng":"-0.57918","lat":"44.837789"},"finish":{"city":"44.837789,-0.57918","country":"Nantes","lng":"-1.553621,47.218371","lat":"-1.553621"},"length":"47.218371","type":"425","winner":{"name":"47.218371,-1.553621","nationality":"plaine"},"leader":{"name":"Hippolyte Aucouturier","nationality":"France"}},{"id":"E-1904-6","year":"1904","leg":"6","title":"Nantes - Paris","start":{"city":"Nantes","country":"France","lng":"-1.553621","lat":"47.218371"},"finish":{"city":"47.218371,-1.553621","country":"Paris","lng":"2.352222,48.856614","lat":"2.352222"},"length":"48.856614","type":"471","winner":{"name":"48.856614,2.352222","nationality":"plaine"},"leader":{"name":"Hippolyte Aucouturier","nationality":"France"}},{"id":"E-1905-1","year":"1905","leg":"1","title":"Paris - Nancy","start":{"city":"Paris","country":"France","lng":"2.352222","lat":"48.856614"},"finish":{"city":"48.856614,2.352222","country":"Nancy","lng":"6.184417,48.692054","lat":"6.184417"},"length":"48.692054","type":"340","winner":{"name":"48.692054,6.184417","nationality":"plaine"},"leader":{"name":"Louis Trousselier","nationality":"France"}},{"id":"E-1905-10","year":"1905","leg":"10","title":"Rennes - Caen","start":{"city":"Rennes","country":"France","lng":"-1.675708","lat":"48.113475"},"finish":{"city":"48.113475,-1.675708","country":"Besançon","lng":"6.024054,47.237829","lat":"6.024054"},"length":"47.237829","type":"348","winner":{"name":"47.237829,6.024054","nationality":"plaine"},"leader":{"name":"Hippolyte Aucouturier","nationality":"France"}},{"id":"E-1905-11","year":"1905","leg":"11","title":"Caen - Paris","start":{"city":"Caen","country":"France","lng":"-0.370679","lat":"49.182863"},"finish":{"city":"49.182863,-0.370679","country":"Grenoble","lng":"5.724524,45.188529","lat":"5.724524"},"length":"45.188529","type":"192","winner":{"name":"45.188529,5.724524","nationality":"plaine"},"leader":{"name":"Louis Trousselier","nationality":"France"}},{"id":"E-1905-2","year":"1905","leg":"2","title":"Nancy - Besançon","start":{"city":"Nancy","country":"France","lng":"6.184417","lat":"48.692054"},"finish":{"city":"48.692054,6.184417","country":"Toulon","lng":"5.928,43.124228","lat":"5.928"},"length":"43.124228","type":"307","winner":{"name":"43.124228,5.928","nationality":"plaine"},"leader":{"name":"Jean-Baptiste Dortignacq","nationality":"France"}},{"id":"E-1905-3","year":"1905","leg":"3","title":"Besançon - Grenoble","start":{"city":"Besançon","country":"France","lng":"6.024054","lat":"47.237829"},"finish":{"city":"47.237829,6.024054","country":"Nîmes","lng":"4.360054,43.836699","lat":"4.360054"},"length":"43.836699","type":"268","winner":{"name":"43.836699,4.360054","nationality":"plaine"},"leader":{"name":"Louis Trousselier","nationality":"France"}},{"id":"E-1905-4","year":"1905","leg":"4","title":"Grenoble - Toulon","start":{"city":"Grenoble","country":"France","lng":"5.724524","lat":"45.188529"},"finish":{"city":"45.188529,5.724524","country":"Toulouse","lng":"1.444209,43.604652","lat":"1.444209"},"length":"43.604652","type":"257","winner":{"name":"43.604652,1.444209","nationality":"plaine"},"leader":{"name":"Hippolyte Aucouturier","nationality":"France"}},{"id":"E-1905-5","year":"1905","leg":"5","title":"Toulon - Nîmes","start":{"city":"Toulon","country":"France","lng":"5.928","lat":"43.124228"},"finish":{"city":"43.124228,5.928","country":"Bordeaux","lng":"-0.57918,44.837789","lat":"-0.57918"},"length":"44.837789","type":"263","winner":{"name":"44.837789,-0.57918","nationality":"plaine"},"leader":{"name":"Louis Trousselier","nationality":"France"}},{"id":"E-1905-6","year":"1905","leg":"6","title":"Nîmes - Toulouse","start":{"city":"Nîmes","country":"France","lng":"4.360054","lat":"43.836699"},"finish":{"city":"43.836699,4.360054","country":"La Rochelle","lng":"-1.151139,46.160329","lat":"-1.151139"},"length":"46.160329","type":"167","winner":{"name":"46.160329,-1.151139","nationality":"plaine"},"leader":{"name":"Jean-Baptiste Dortignacq","nationality":"France"}},{"id":"E-1905-7","year":"1905","leg":"7","title":"Toulouse - Bordeaux","start":{"city":"Toulouse","country":"France","lng":"1.444209","lat":"43.604652"},"finish":{"city":"43.604652,1.444209","country":"Rennes","lng":"-1.675708,48.113475","lat":"-1.675708"},"length":"48.113475","type":"253","winner":{"name":"48.113475,-1.675708","nationality":"plaine"},"leader":{"name":"Jean-Baptiste Dortignacq","nationality":"France"}},{"id":"E-1905-8","year":"1905","leg":"8","title":"Bordeaux - La Rochelle","start":{"city":"Bordeaux","country":"France","lng":"-0.57918","lat":"44.837789"},"finish":{"city":"44.837789,-0.57918","country":"Caen","lng":"-0.370679,49.182863","lat":"-0.370679"},"length":"49.182863","type":"299","winner":{"name":"49.182863,-0.370679","nationality":"montagne"},"leader":{"name":"Hippolyte Aucouturier","nationality":"France"}},{"id":"E-1905-9","year":"1905","leg":"9","title":"La Rochelle - Rennes","start":{"city":"La Rochelle","country":"France","lng":"-1.151139","lat":"46.160329"},"finish":{"city":"46.160329,-1.151139","country":"Paris","lng":"2.352222,48.856614","lat":"2.352222"},"length":"48.856614","type":"327","winner":{"name":"48.856614,2.352222","nationality":"plaine"},"leader":{"name":"Louis Trousselier","nationality":"France"}},{"id":"E-1906-1","year":"1906","leg":"1","title":"Paris - Lille","start":{"city":"Paris","country":"France","lng":"2.352222","lat":"48.856614"},"finish":{"city":"48.856614,2.352222","country":"Lille","lng":"3.057256,50.62925","lat":"3.057256"},"length":"50.62925","type":"275","winner":{"name":"50.62925,3.057256","nationality":"plaine"},"leader":{"name":"Émile Georget","nationality":"France"}},{"id":"E-1906-10","year":"1906","leg":"10","title":"Bordeaux - Nantes","start":{"city":"Bordeaux","country":"France","lng":"-0.57918","lat":"44.837789"},"finish":{"city":"44.837789,-0.57918","country":"Nancy","lng":"6.184417,48.692054","lat":"6.184417"},"length":"48.692054","type":"292","winner":{"name":"48.692054,6.184417","nationality":"plaine"},"leader":{"name":"Georges Passerieu","nationality":"France"}},{"id":"E-1906-11","year":"1906","leg":"11","title":"Nantes - Brest","start":{"city":"Nantes","country":"France","lng":"-1.553621","lat":"47.218371"},"finish":{"city":"47.218371,-1.553621","country":"Dijon","lng":"5.04148,47.322047","lat":"5.04148"},"length":"47.322047","type":"480","winner":{"name":"47.322047,5.04148","nationality":"montagne"},"leader":{"name":"Louis Trousselier","nationality":"France"}},{"id":"E-1906-12","year":"1906","leg":"12","title":"Brest - Caen","start":{"city":"Brest","country":"France","lng":"-4.486076","lat":"48.390394"},"finish":{"city":"48.390394,-4.486076","country":"Grenoble","lng":"5.724524,45.188529","lat":"5.724524"},"length":"45.188529","type":"300","winner":{"name":"45.188529,5.724524","nationality":"plaine"},"leader":{"name":"Jean-Baptiste Dortignacq","nationality":"France"}},{"id":"E-1906-13","year":"1906","leg":"13","title":"Caen - Paris","start":{"city":"Caen","country":"France","lng":"-0.370679","lat":"49.182863"},"finish":{"city":"49.182863,-0.370679","country":"Nice","lng":"7.265592,43.696036","lat":"7.265592"},"length":"43.696036","type":"338","winner":{"name":"43.696036,7.265592","nationality":"plaine"},"leader":{"name":"Louis Trousselier","nationality":"France"}},{"id":"E-1906-2","year":"1906","leg":"2","title":"Douai - Nancy","start":{"city":"Douai","country":"France","lng":"3.080602","lat":"50.367874"},"finish":{"city":"50.367874,3.080602","country":"Marseille","lng":"5.36978,43.296482","lat":"5.36978"},"length":"43.296482","type":"391","winner":{"name":"43.296482,5.36978","nationality":"plaine"},"leader":{"name":"Louis Trousselier","nationality":"France"}},{"id":"E-1906-3","year":"1906","leg":"3","title":"Nancy - Dijon","start":{"city":"Nancy","country":"France","lng":"6.184417","lat":"48.692054"},"finish":{"city":"48.692054,6.184417","country":"Toulouse","lng":"1.444209,43.604652","lat":"1.444209"},"length":"43.604652","type":"321","winner":{"name":"43.604652,1.444209","nationality":"plaine"},"leader":{"name":"Louis Trousselier","nationality":"France"}},{"id":"E-1906-4","year":"1906","leg":"4","title":"Dijon - Grenoble","start":{"city":"Dijon","country":"France","lng":"5.04148","lat":"47.322047"},"finish":{"city":"47.322047,5.04148","country":"Bayonne","lng":"-1.474841,43.492949","lat":"-1.474841"},"length":"43.492949","type":"415","winner":{"name":"43.492949,-1.474841","nationality":"plaine"},"leader":{"name":"Georges Passerieu","nationality":"France"}},{"id":"E-1906-5","year":"1906","leg":"5","title":"Grenoble - Nice","start":{"city":"Grenoble","country":"France","lng":"5.724524","lat":"45.188529"},"finish":{"city":"45.188529,5.724524","country":"Bordeaux","lng":"-0.57918,44.837789","lat":"-0.57918"},"length":"44.837789","type":"259","winner":{"name":"44.837789,-0.57918","nationality":"plaine"},"leader":{"name":"René Pottier","nationality":"France"}},{"id":"E-1906-6","year":"1906","leg":"6","title":"Nice - Marseille","start":{"city":"Nice","country":"France","lng":"7.265592","lat":"43.696036"},"finish":{"city":"43.696036,7.265592","country":"Nantes","lng":"-1.553621,47.218371","lat":"-1.553621"},"length":"47.218371","type":"400","winner":{"name":"47.218371,-1.553621","nationality":"plaine"},"leader":{"name":"René Pottier","nationality":"France"}},{"id":"E-1906-7","year":"1906","leg":"7","title":"Marseille - Toulouse","start":{"city":"Marseille","country":"France","lng":"5.36978","lat":"43.296482"},"finish":{"city":"43.296482,5.36978","country":"Brest","lng":"-4.486076,48.390394","lat":"-4.486076"},"length":"48.390394","type":"416","winner":{"name":"48.390394,-4.486076","nationality":"montagne"},"leader":{"name":"René Pottier","nationality":"France"}},{"id":"E-1906-8","year":"1906","leg":"8","title":"Toulouse - Bayonne","start":{"city":"Toulouse","country":"France","lng":"1.444209","lat":"43.604652"},"finish":{"city":"43.604652,1.444209","country":"Caen","lng":"-0.370679,49.182863","lat":"-0.370679"},"length":"49.182863","type":"311","winner":{"name":"49.182863,-0.370679","nationality":"plaine"},"leader":{"name":"René Pottier","nationality":"France"}},{"id":"E-1906-9","year":"1906","leg":"9","title":"Bayonne - Bordeaux","start":{"city":"Bayonne","country":"France","lng":"-1.474841","lat":"43.492949"},"finish":{"city":"43.492949,-1.474841","country":"Paris","lng":"2.352222,48.856614","lat":"2.352222"},"length":"48.856614","type":"345","winner":{"name":"48.856614,2.352222","nationality":"montagne"},"leader":{"name":"René Pottier","nationality":"France"}},{"id":"E-1907-1","year":"1907","leg":"1","title":"Paris - Roubaix","start":{"city":"Paris","country":"France","lng":"2.352222","lat":"48.856614"},"finish":{"city":"48.856614,2.352222","country":"Roubaix","lng":"3.177847,50.692705","lat":"3.177847"},"length":"50.692705","type":"272","winner":{"name":"50.692705,3.177847","nationality":"plaine"},"leader":{"name":"Louis Trousselier","nationality":"France"}},{"id":"E-1907-10","year":"1907","leg":"10","title":"Bayonne - Bordeaux","start":{"city":"Bayonne","country":"France","lng":"-1.474841","lat":"43.492949"},"finish":{"city":"43.492949,-1.474841","country":"Metz","lng":"6.176905,49.119666","lat":"6.176905"},"length":"49.119666","type":"345","winner":{"name":"49.119666,6.176905","nationality":"plaine"},"leader":{"name":"Émile Georget","nationality":"France"}},{"id":"E-1907-11","year":"1907","leg":"11","title":"Bordeaux - Nantes","start":{"city":"Bordeaux","country":"France","lng":"-0.57918","lat":"44.837789"},"finish":{"city":"44.837789,-0.57918","country":"Belfort","lng":"6.863849,47.639674","lat":"6.863849"},"length":"47.639674","type":"303","winner":{"name":"47.639674,6.863849","nationality":"montagne"},"leader":{"name":"Émile Georget","nationality":"France"}},{"id":"E-1907-12","year":"1907","leg":"12","title":"Nantes - Brest","start":{"city":"Nantes","country":"France","lng":"-1.553621","lat":"47.218371"},"finish":{"city":"47.218371,-1.553621","country":"Lyon","lng":"4.835659,45.764043","lat":"4.835659"},"length":"45.764043","type":"299","winner":{"name":"45.764043,4.835659","nationality":"plaine"},"leader":{"name":"Lucien Petit-Breton","nationality":"France"}},{"id":"E-1907-13","year":"1907","leg":"13","title":"Brest - Caen","start":{"city":"Brest","country":"France","lng":"-4.486076","lat":"48.390394"},"finish":{"city":"48.390394,-4.486076","country":"Grenoble","lng":"5.724524,45.188529","lat":"5.724524"},"length":"45.188529","type":"269","winner":{"name":"45.188529,5.724524","nationality":"plaine"},"leader":{"name":"Gustave Garrigou","nationality":"France"}},{"id":"E-1907-14","year":"1907","leg":"14","title":"Caen - Paris","start":{"city":"Caen","country":"France","lng":"-0.370679","lat":"49.182863"},"finish":{"city":"49.182863,-0.370679","country":"Nice","lng":"7.265592,43.696036","lat":"7.265592"},"length":"43.696036","type":"391","winner":{"name":"43.696036,7.265592","nationality":"plaine"},"leader":{"name":"Lucien Petit-Breton","nationality":"France"}},{"id":"E-1907-2","year":"1907","leg":"2","title":"Roubaix - Metz","start":{"city":"Roubaix","country":"France","lng":"3.177847","lat":"50.692705"},"finish":{"city":"50.692705,3.177847","country":"Nîmes","lng":"4.360054,43.836699","lat":"4.360054"},"length":"43.836699","type":"321","winner":{"name":"43.836699,4.360054","nationality":"plaine"},"leader":{"name":"Gustave Garrigou","nationality":"France"}},{"id":"E-1907-3","year":"1907","leg":"3","title":"Metz - Belfort","start":{"city":"Metz","country":"France","lng":"6.176905","lat":"49.119666"},"finish":{"city":"49.119666,6.176905","country":"Toulouse","lng":"1.444209,43.604652","lat":"1.444209"},"length":"43.604652","type":"415","winner":{"name":"43.604652,1.444209","nationality":"plaine"},"leader":{"name":"Émile Georget","nationality":"France"}},{"id":"E-1907-4","year":"1907","leg":"4","title":"Belfort - Lyon","start":{"city":"Belfort","country":"France","lng":"6.863849","lat":"47.639674"},"finish":{"city":"47.639674,6.863849","country":"Bayonne","lng":"-1.474841,43.492949","lat":"-1.474841"},"length":"43.492949","type":"251","winner":{"name":"43.492949,-1.474841","nationality":"plaine"},"leader":{"name":"Georges Passerieu","nationality":"France"}},{"id":"E-1907-5","year":"1907","leg":"5","title":"Lyon - Grenoble","start":{"city":"Lyon","country":"France","lng":"4.835659","lat":"45.764043"},"finish":{"city":"45.764043,4.835659","country":"Bordeaux","lng":"-0.57918,44.837789","lat":"-0.57918"},"length":"44.837789","type":"398","winner":{"name":"44.837789,-0.57918","nationality":"plaine"},"leader":{"name":"Émile Georget || Louis Trousselier","nationality":"France"}},{"id":"E-1907-6","year":"1907","leg":"6","title":"Grenoble - Nice","start":{"city":"Grenoble","country":"France","lng":"5.724524","lat":"45.188529"},"finish":{"city":"45.188529,5.724524","country":"Nantes","lng":"-1.553621,47.218371","lat":"-1.553621"},"length":"47.218371","type":"259","winner":{"name":"47.218371,-1.553621","nationality":"montagne"},"leader":{"name":"Émile Georget","nationality":"France"}},{"id":"E-1907-7","year":"1907","leg":"7","title":"Nice - Nîmes","start":{"city":"Nice","country":"France","lng":"7.265592","lat":"43.696036"},"finish":{"city":"43.696036,7.265592","country":"Brest","lng":"-4.486076,48.390394","lat":"-4.486076"},"length":"48.390394","type":"309","winner":{"name":"48.390394,-4.486076","nationality":"montagne"},"leader":{"name":"Marcel Cadolle","nationality":"France"}},{"id":"E-1907-8","year":"1907","leg":"8","title":"Nîmes - Toulouse","start":{"city":"Nîmes","country":"France","lng":"4.360054","lat":"43.836699"},"finish":{"city":"43.836699,4.360054","country":"Caen","lng":"-0.370679,49.182863","lat":"-0.370679"},"length":"49.182863","type":"311","winner":{"name":"49.182863,-0.370679","nationality":"montagne"},"leader":{"name":"Émile Georget","nationality":"France"}},{"id":"E-1907-9","year":"1907","leg":"9","title":"Toulouse - Bayonne","start":{"city":"Toulouse","country":"France","lng":"1.444209","lat":"43.604652"},"finish":{"city":"43.604652,1.444209","country":"Paris","lng":"2.352222,48.856614","lat":"2.352222"},"length":"48.856614","type":"345","winner":{"name":"48.856614,2.352222","nationality":"montagne"},"leader":{"name":"Georges Passerieu","nationality":"France"}},{"id":"E-1908-1","year":"1908","leg":"1","title":"Paris - Roubaix","start":{"city":"Paris","country":"France","lng":"2.352222","lat":"48.856614"},"finish":{"city":"48.856614,2.352222","country":"Roubaix","lng":"3.177847,50.692705","lat":"3.177847"},"length":"50.692705","type":"272","winner":{"name":"50.692705,3.177847","nationality":null},"leader":{"name":"Drapeau : FranceGeorges Passerieu","nationality":null}},{"id":"E-1908-10","year":"1908","leg":"10","title":"Bayonne - Bordeaux","start":{"city":"Bayonne","country":"France","lng":"-1.474841","lat":"43.492949"},"finish":{"city":"43.492949,-1.474841","country":"Metz","lng":"6.176905,49.119666","lat":"6.176905"},"length":"49.119666","type":"345","winner":{"name":"49.119666,6.176905","nationality":null},"leader":{"name":"Drapeau : FranceLucien Petit-Breton","nationality":null}},{"id":"E-1908-11","year":"1908","leg":"11","title":"Bordeaux - Nantes","start":{"city":"Bordeaux","country":"France","lng":"-0.57918","lat":"44.837789"},"finish":{"city":"44.837789,-0.57918","country":"Belfort","lng":"6.863849,47.639674","lat":"6.863849"},"length":"47.639674","type":"303","winner":{"name":"47.639674,6.863849","nationality":null},"leader":{"name":"Drapeau : LuxembourgFrançois Faber","nationality":null}},{"id":"E-1908-12","year":"1908","leg":"12","title":"Nantes - Brest","start":{"city":"Nantes","country":"France","lng":"-1.553621","lat":"47.218371"},"finish":{"city":"47.218371,-1.553621","country":"Lyon","lng":"4.835659,45.764043","lat":"4.835659"},"length":"45.764043","type":"299","winner":{"name":"45.764043,4.835659","nationality":null},"leader":{"name":"Drapeau : FranceLucien Petit-Breton","nationality":null}},{"id":"E-1908-13","year":"1908","leg":"13","title":"Brest - Caen","start":{"city":"Brest","country":"France","lng":"-4.486076","lat":"48.390394"},"finish":{"city":"48.390394,-4.486076","country":"Grenoble","lng":"5.724524,45.188529","lat":"5.724524"},"length":"45.188529","type":"269","winner":{"name":"45.188529,5.724524","nationality":null},"leader":{"name":"Drapeau : FranceGeorges Paulmier","nationality":null}},{"id":"E-1908-14","year":"1908","leg":"14","title":"Caen - Paris","start":{"city":"Caen","country":"France","lng":"-0.370679","lat":"49.182863"},"finish":{"city":"49.182863,-0.370679","country":"Nice","lng":"7.265592,43.696036","lat":"7.265592"},"length":"43.696036","type":"391","winner":{"name":"43.696036,7.265592","nationality":null},"leader":{"name":"Drapeau : FranceLucien Petit-Breton","nationality":null}},{"id":"E-1908-2","year":"1908","leg":"2","title":"Roubaix - Metz","start":{"city":"Roubaix","country":"France","lng":"3.177847","lat":"50.692705"},"finish":{"city":"50.692705,3.177847","country":"Nîmes","lng":"4.360054,43.836699","lat":"4.360054"},"length":"43.836699","type":"321","winner":{"name":"43.836699,4.360054","nationality":null},"leader":{"name":"Drapeau : LuxembourgFrançois Faber","nationality":null}},{"id":"E-1908-3","year":"1908","leg":"3","title":"Metz - Belfort","start":{"city":"Metz","country":"Empire Allemand","lng":"6.176905","lat":"49.119666"},"finish":{"city":"49.119666,6.176905","country":"Toulouse","lng":"1.444209,43.604652","lat":"1.444209"},"length":"43.604652","type":"415","winner":{"name":"43.604652,1.444209","nationality":null},"leader":{"name":"Drapeau : FranceGeorges Passerieu","nationality":null}},{"id":"E-1908-4","year":"1908","leg":"4","title":"Belfort - Lyon","start":{"city":"Belfort","country":"France","lng":"6.863849","lat":"47.639674"},"finish":{"city":"47.639674,6.863849","country":"Bayonne","lng":"-1.474841,43.492949","lat":"-1.474841"},"length":"43.492949","type":"251","winner":{"name":"43.492949,-1.474841","nationality":null},"leader":{"name":"Drapeau : FranceLucien Petit-Breton","nationality":null}},{"id":"E-1908-5","year":"1908","leg":"5","title":"Lyon - Grenoble","start":{"city":"Lyon","country":"France","lng":"4.835659","lat":"45.764043"},"finish":{"city":"45.764043,4.835659","country":"Bordeaux","lng":"-0.57918,44.837789","lat":"-0.57918"},"length":"44.837789","type":"398","winner":{"name":"44.837789,-0.57918","nationality":null},"leader":{"name":"Drapeau : FranceLucien Petit-Breton","nationality":null}},{"id":"E-1908-6","year":"1908","leg":"6","title":"Grenoble - Nice","start":{"city":"Grenoble","country":"France","lng":"5.724524","lat":"45.188529"},"finish":{"city":"45.188529,5.724524","country":"Nantes","lng":"-1.553621,47.218371","lat":"-1.553621"},"length":"47.218371","type":"259","winner":{"name":"47.218371,-1.553621","nationality":null},"leader":{"name":"Drapeau : LuxembourgFrançois Faber","nationality":null}},{"id":"E-1908-7","year":"1908","leg":"7","title":"Nice - Nîmes","start":{"city":"Nice","country":"France","lng":"7.265592","lat":"43.696036"},"finish":{"city":"43.696036,7.265592","country":"Brest","lng":"-4.486076,48.390394","lat":"-4.486076"},"length":"48.390394","type":"309","winner":{"name":"48.390394,-4.486076","nationality":null},"leader":{"name":"Drapeau : LuxembourgFrançois Faber","nationality":null}},{"id":"E-1908-8","year":"1908","leg":"8","title":"Nîmes - Toulouse","start":{"city":"Nîmes","country":"France","lng":"4.360054","lat":"43.836699"},"finish":{"city":"43.836699,4.360054","country":"Caen","lng":"-0.370679,49.182863","lat":"-0.370679"},"length":"49.182863","type":"311","winner":{"name":"49.182863,-0.370679","nationality":null},"leader":{"name":"Drapeau : FranceGeorges Passerieu","nationality":null}},{"id":"E-1908-9","year":"1908","leg":"9","title":"Toulouse - Bayonne","start":{"city":"Toulouse","country":"France","lng":"1.444209","lat":"43.604652"},"finish":{"city":"43.604652,1.444209","country":"Paris","lng":"2.352222,48.856614","lat":"2.352222"},"length":"48.856614","type":"345","winner":{"name":"48.856614,2.352222","nationality":null},"leader":{"name":"Drapeau : FranceJean-Baptiste Dortignacq","nationality":null}},{"id":"E-1909-1","year":"1909","leg":"1","title":"Paris - Roubaix","start":{"city":"Paris","country":"France","lng":"2.352222","lat":"48.856614"},"finish":{"city":"48.856614,2.352222","country":"Roubaix","lng":"3.177847,50.692705","lat":"3.177847"},"length":"50.692705","type":"272","winner":{"name":"50.692705,3.177847","nationality":null},"leader":{"name":"Drapeau : BelgiqueCyrille Van Hauwaert","nationality":null}},{"id":"E-1909-10","year":"1909","leg":"10","title":"Bayonne - Bordeaux","start":{"city":"Bayonne","country":"France","lng":"-1.474841","lat":"43.492949"},"finish":{"city":"43.492949,-1.474841","country":"Metz","lng":"6.176905,49.119666","lat":"6.176905"},"length":"49.119666","type":"345","winner":{"name":"49.119666,6.176905","nationality":null},"leader":{"name":"Drapeau : FranceErnest Paul","nationality":null}},{"id":"E-1909-11","year":"1909","leg":"11","title":"Bordeaux - Nantes","start":{"city":"Bordeaux","country":"France","lng":"-0.57918","lat":"44.837789"},"finish":{"city":"44.837789,-0.57918","country":"Belfort","lng":"6.863849,47.639674","lat":"6.863849"},"length":"47.639674","type":"303","winner":{"name":"47.639674,6.863849","nationality":null},"leader":{"name":"Drapeau : FranceJean Alavoine","nationality":null}},{"id":"E-1909-12","year":"1909","leg":"12","title":"Nantes - Brest","start":{"city":"Nantes","country":"France","lng":"-1.553621","lat":"47.218371"},"finish":{"city":"47.218371,-1.553621","country":"Lyon","lng":"4.835659,45.764043","lat":"4.835659"},"length":"45.764043","type":"299","winner":{"name":"45.764043,4.835659","nationality":null},"leader":{"name":"Drapeau : FranceConstant Ménager","nationality":null}},{"id":"E-1909-13","year":"1909","leg":"13","title":"Brest - Caen","start":{"city":"Brest","country":"France","lng":"-4.486076","lat":"48.390394"},"finish":{"city":"48.390394,-4.486076","country":"Grenoble","lng":"5.724524,45.188529","lat":"5.724524"},"length":"45.188529","type":"269","winner":{"name":"45.188529,5.724524","nationality":null},"leader":{"name":"Drapeau : LuxembourgFrançois Faber","nationality":null}},{"id":"E-1909-14","year":"1909","leg":"14","title":"Caen - Paris","start":{"city":"Caen","country":"France","lng":"-0.370679","lat":"49.182863"},"finish":{"city":"49.182863,-0.370679","country":"Nice","lng":"7.265592,43.696036","lat":"7.265592"},"length":"43.696036","type":"391","winner":{"name":"43.696036,7.265592","nationality":null},"leader":{"name":"Drapeau : FranceLouis Trousselier","nationality":null}},{"id":"E-1909-2","year":"1909","leg":"2","title":"Roubaix - Metz","start":{"city":"Roubaix","country":"France","lng":"3.177847","lat":"50.692705"},"finish":{"city":"50.692705,3.177847","country":"Nîmes","lng":"4.360054,43.836699","lat":"4.360054"},"length":"43.836699","type":"321","winner":{"name":"43.836699,4.360054","nationality":null},"leader":{"name":"Drapeau : FranceGustave Garrigou","nationality":null}},{"id":"E-1909-3","year":"1909","leg":"3","title":"Metz - Belfort","start":{"city":"Metz","country":"Empire allemand","lng":"6.176905","lat":"49.119666"},"finish":{"city":"49.119666,6.176905","country":"Toulouse","lng":"1.444209,43.604652","lat":"1.444209"},"length":"43.604652","type":"415","winner":{"name":"43.604652,1.444209","nationality":null},"leader":{"name":"Drapeau : FrancePaul Duboc","nationality":null}},{"id":"E-1909-4","year":"1909","leg":"4","title":"Belfort - Lyon","start":{"city":"Belfort","country":"France","lng":"6.863849","lat":"47.639674"},"finish":{"city":"47.639674,6.863849","country":"Bayonne","lng":"-1.474841,43.492949","lat":"-1.474841"},"length":"43.492949","type":"251","winner":{"name":"43.492949,-1.474841","nationality":null},"leader":{"name":"Drapeau : FranceJean Alavoine","nationality":null}},{"id":"E-1909-5","year":"1909","leg":"5","title":"Lyon - Grenoble","start":{"city":"Lyon","country":"France","lng":"4.835659","lat":"45.764043"},"finish":{"city":"45.764043,4.835659","country":"Bordeaux","lng":"-0.57918,44.837789","lat":"-0.57918"},"length":"44.837789","type":"398","winner":{"name":"44.837789,-0.57918","nationality":null},"leader":{"name":"Drapeau : LuxembourgFrançois Faber","nationality":null}},{"id":"E-1909-6","year":"1909","leg":"6","title":"Grenoble - Nice","start":{"city":"Grenoble","country":"France","lng":"5.724524","lat":"45.188529"},"finish":{"city":"45.188529,5.724524","country":"Nantes","lng":"-1.553621,47.218371","lat":"-1.553621"},"length":"47.218371","type":"259","winner":{"name":"47.218371,-1.553621","nationality":null},"leader":{"name":"Drapeau : LuxembourgFrançois Faber","nationality":null}},{"id":"E-1909-7","year":"1909","leg":"7","title":"Nice - Nîmes","start":{"city":"Nice","country":"France","lng":"7.265592","lat":"43.696036"},"finish":{"city":"43.696036,7.265592","country":"Brest","lng":"-4.486076,48.390394","lat":"-4.486076"},"length":"48.390394","type":"309","winner":{"name":"48.390394,-4.486076","nationality":null},"leader":{"name":"Drapeau : LuxembourgFrançois Faber","nationality":null}},{"id":"E-1909-8","year":"1909","leg":"8","title":"Nîmes - Toulouse","start":{"city":"Nîmes","country":"France","lng":"4.360054","lat":"43.836699"},"finish":{"city":"43.836699,4.360054","country":"Caen","lng":"-0.370679,49.182863","lat":"-0.370679"},"length":"49.182863","type":"311","winner":{"name":"49.182863,-0.370679","nationality":null},"leader":{"name":"Drapeau : LuxembourgFrançois Faber","nationality":null}},{"id":"E-1909-9","year":"1909","leg":"9","title":"Toulouse - Bayonne","start":{"city":"Toulouse","country":"France","lng":"1.444209","lat":"43.604652"},"finish":{"city":"43.604652,1.444209","country":"Paris","lng":"2.352222,48.856614","lat":"2.352222"},"length":"48.856614","type":"345","winner":{"name":"48.856614,2.352222","nationality":null},"leader":{"name":"Drapeau : LuxembourgFrançois Faber","nationality":null}},{"id":"E-1910-1","year":"1910","leg":"1","title":"Paris - Roubaix","start":{"city":"Paris","country":"France","lng":"2.352222","lat":"48.856614"},"finish":{"city":"48.856614,2.352222","country":"Roubaix","lng":"3.177847,50.692705","lat":"3.177847"},"length":"50.692705","type":"272","winner":{"name":"50.692705,3.177847","nationality":null},"leader":{"name":"Drapeau : FranceCharles Crupelandt","nationality":null}},{"id":"E-1910-10","year":"1910","leg":"10","title":"Luchon - Bayonne","start":{"city":"Luchon","country":"France","lng":"0.592943","lat":"42.788963"},"finish":{"city":"42.788963,0.592943","country":"Metz","lng":"6.176905,49.119666","lat":"6.176905"},"length":"49.119666","type":"216","winner":{"name":"49.119666,6.176905","nationality":null},"leader":{"name":"Drapeau : FranceGeorges Paulmier","nationality":null}},{"id":"E-1910-11","year":"1910","leg":"11","title":"Bayonne - Bordeaux","start":{"city":"Bayonne","country":"France","lng":"-1.474841","lat":"43.492949"},"finish":{"city":"43.492949,-1.474841","country":"Belfort","lng":"6.863849,47.639674","lat":"6.863849"},"length":"47.639674","type":"289","winner":{"name":"47.639674,6.863849","nationality":null},"leader":{"name":"Drapeau : FranceOctave Lapize","nationality":null}},{"id":"E-1910-12","year":"1910","leg":"12","title":"Bordeaux - Nantes","start":{"city":"Bordeaux","country":"France","lng":"-0.57918","lat":"44.837789"},"finish":{"city":"44.837789,-0.57918","country":"Lyon","lng":"4.835659,45.764043","lat":"4.835659"},"length":"45.764043","type":"326","winner":{"name":"45.764043,4.835659","nationality":null},"leader":{"name":"Drapeau : FranceOctave Lapize","nationality":null}},{"id":"E-1910-13","year":"1910","leg":"13","title":"Nantes - Brest","start":{"city":"Nantes","country":"France","lng":"-1.553621","lat":"47.218371"},"finish":{"city":"47.218371,-1.553621","country":"Grenoble","lng":"5.724524,45.188529","lat":"5.724524"},"length":"45.188529","type":"326","winner":{"name":"45.188529,5.724524","nationality":null},"leader":{"name":"Drapeau : FranceErnest Paul","nationality":null}},{"id":"E-1910-14","year":"1910","leg":"14","title":"Brest - Caen","start":{"city":"Brest","country":"France","lng":"-4.486076","lat":"48.390394"},"finish":{"city":"48.390394,-4.486076","country":"Nice","lng":"7.265592,43.696036","lat":"7.265592"},"length":"43.696036","type":"391","winner":{"name":"43.696036,7.265592","nationality":null},"leader":{"name":"Drapeau : FranceLouis Trousselier","nationality":null}},{"id":"E-1910-15","year":"1910","leg":"15","title":"Caen - Paris","start":{"city":"Caen","country":"France","lng":"-0.370679","lat":"49.182863"},"finish":{"city":"49.182863,-0.370679","country":"Nîmes","lng":"4.360054,43.836699","lat":"4.360054"},"length":"43.836699","type":"321","winner":{"name":"43.836699,4.360054","nationality":null},"leader":{"name":"Drapeau : FranceGustave Garrigou","nationality":null}},{"id":"E-1910-2","year":"1910","leg":"2","title":"Roubaix - Metz","start":{"city":"Roubaix","country":"France","lng":"3.177847","lat":"50.692705"},"finish":{"city":"50.692705,3.177847","country":"Perpignan","lng":"2.895872,42.698684","lat":"2.895872"},"length":"42.698684","type":"424","winner":{"name":"42.698684,2.895872","nationality":null},"leader":{"name":"Drapeau : FranceOctave Lapize","nationality":null}},{"id":"E-1910-3","year":"1910","leg":"3","title":"Metz - Belfort","start":{"city":"Metz","country":"Empire allemand","lng":"6.176905","lat":"49.119666"},"finish":{"city":"49.119666,6.176905","country":"Luchon","lng":"0.592943,42.788963","lat":"0.592943"},"length":"42.788963","type":"262","winner":{"name":"42.788963,0.592943","nationality":null},"leader":{"name":"Drapeau : ItalieErnesto Azzini","nationality":null}},{"id":"E-1910-4","year":"1910","leg":"4","title":"Belfort - Lyon","start":{"city":"Belfort","country":"France","lng":"6.863849","lat":"47.639674"},"finish":{"city":"47.639674,6.863849","country":"Bayonne","lng":"-1.474841,43.492949","lat":"-1.474841"},"length":"43.492949","type":"398","winner":{"name":"43.492949,-1.474841","nationality":null},"leader":{"name":"Drapeau : LuxembourgFrançois Faber","nationality":null}},{"id":"E-1910-5","year":"1910","leg":"5","title":"Lyon - Grenoble","start":{"city":"Lyon","country":"France","lng":"4.835659","lat":"45.764043"},"finish":{"city":"45.764043,4.835659","country":"Bordeaux","lng":"-0.57918,44.837789","lat":"-0.57918"},"length":"44.837789","type":"259","winner":{"name":"44.837789,-0.57918","nationality":null},"leader":{"name":"Drapeau : FranceÉmile Georget","nationality":null}},{"id":"E-1910-6","year":"1910","leg":"6","title":"Grenoble - Nice","start":{"city":"Grenoble","country":"France","lng":"5.724524","lat":"45.188529"},"finish":{"city":"45.188529,5.724524","country":"Nantes","lng":"-1.553621,47.218371","lat":"-1.553621"},"length":"47.218371","type":"309","winner":{"name":"47.218371,-1.553621","nationality":null},"leader":{"name":"Drapeau : LuxembourgFrançois Faber","nationality":null}},{"id":"E-1910-7","year":"1910","leg":"7","title":"Nice - Nîmes","start":{"city":"Nice","country":"France","lng":"7.265592","lat":"43.696036"},"finish":{"city":"43.696036,7.265592","country":"Brest","lng":"-4.486076,48.390394","lat":"-4.486076"},"length":"48.390394","type":"311","winner":{"name":"48.390394,-4.486076","nationality":null},"leader":{"name":"Drapeau : FranceOctave Lapize","nationality":null}},{"id":"E-1910-8","year":"1910","leg":"8","title":"Nîmes - Perpignan","start":{"city":"Nîmes","country":"France","lng":"4.360054","lat":"43.836699"},"finish":{"city":"43.836699,4.360054","country":"Caen","lng":"-0.370679,49.182863","lat":"-0.370679"},"length":"49.182863","type":"345","winner":{"name":"49.182863,-0.370679","nationality":null},"leader":{"name":"Drapeau : FranceJulien Maitron","nationality":null}},{"id":"E-1910-9","year":"1910","leg":"9","title":"Perpignan - Luchon","start":{"city":"Perpignan","country":"France","lng":"2.895872","lat":"42.698684"},"finish":{"city":"42.698684,2.895872","country":"Paris","lng":"2.352222,48.856614","lat":"2.352222"},"length":"48.856614","type":"345","winner":{"name":"48.856614,2.352222","nationality":null},"leader":{"name":"Drapeau : LuxembourgFrançois Faber","nationality":null}},{"id":"E-1911-1","year":"1911","leg":"1","title":"Paris - Dunkerque","start":{"city":"Paris","country":"France","lng":"2.352222","lat":"48.856614"},"finish":{"city":"48.856614,2.352222","country":"Dunkerque","lng":"2.375202,51.03456","lat":"2.375202"},"length":"51.03456","type":"351","winner":{"name":"51.03456,2.375202","nationality":null},"leader":{"name":"Drapeau : FranceGustave Garrigou","nationality":null}},{"id":"E-1911-10","year":"1911","leg":"10","title":"Luchon - Bayonne","start":{"city":"Luchon","country":"France","lng":"0.592943","lat":"42.788963"},"finish":{"city":"42.788963,0.592943","country":"Longwy","lng":"5.761773,49.519919","lat":"5.761773"},"length":"49.519919","type":"335","winner":{"name":"49.519919,5.761773","nationality":null},"leader":{"name":"Drapeau : FrancePaul Duboc","nationality":null}},{"id":"E-1911-11","year":"1911","leg":"11","title":"Bayonne - La Rochelle","start":{"city":"Bayonne","country":"France","lng":"-1.474841","lat":"43.492949"},"finish":{"city":"43.492949,-1.474841","country":"Belfort","lng":"6.863849,47.639674","lat":"6.863849"},"length":"47.639674","type":"289","winner":{"name":"47.639674,6.863849","nationality":null},"leader":{"name":"Drapeau : FrancePaul Duboc","nationality":null}},{"id":"E-1911-12","year":"1911","leg":"12","title":"La Rochelle - Brest","start":{"city":"La Rochelle","country":"France","lng":"-1.151139","lat":"46.160329"},"finish":{"city":"46.160329,-1.151139","country":"Chamonix","lng":"6.869433,45.923697","lat":"6.869433"},"length":"45.923697","type":"326","winner":{"name":"45.923697,6.869433","nationality":null},"leader":{"name":"Drapeau : FranceMaurice Brocco","nationality":null}},{"id":"E-1911-13","year":"1911","leg":"13","title":"Brest - Cherbourg","start":{"city":"Brest","country":"France","lng":"-4.486076","lat":"48.390394"},"finish":{"city":"48.390394,-4.486076","country":"Grenoble","lng":"5.724524,45.188529","lat":"5.724524"},"length":"45.188529","type":"379","winner":{"name":"45.188529,5.724524","nationality":null},"leader":{"name":"Drapeau : FrancePaul Duboc","nationality":null}},{"id":"E-1911-14","year":"1911","leg":"14","title":"Cherbourg - Le Havre","start":{"city":"Cherbourg","country":"France","lng":"-1.625298","lat":"49.639093"},"finish":{"city":"49.639093,-1.625298","country":"Nice","lng":"7.265592,43.696036","lat":"7.265592"},"length":"43.696036","type":"470","winner":{"name":"43.696036,7.265592","nationality":null},"leader":{"name":"Drapeau : FranceMarcel Godivier","nationality":null}},{"id":"E-1911-15","year":"1911","leg":"15","title":"Le Havre - Paris","start":{"city":"Le Havre","country":"France","lng":"0.107929","lat":"49.49437"},"finish":{"city":"49.49437,0.107929","country":"Marseille","lng":"5.36978,43.296482","lat":"5.36978"},"length":"43.296482","type":"405","winner":{"name":"43.296482,5.36978","nationality":null},"leader":{"name":"Drapeau : FranceGustave Garrigou","nationality":null}},{"id":"E-1911-2","year":"1911","leg":"2","title":"Dunkerque - Longwy","start":{"city":"Dunkerque","country":"France","lng":"2.375202","lat":"51.03456"},"finish":{"city":"51.03456,2.375202","country":"Perpignan","lng":"2.895872,42.698684","lat":"2.895872"},"length":"42.698684","type":"361","winner":{"name":"42.698684,2.895872","nationality":null},"leader":{"name":"Drapeau : FrancePaul Duboc","nationality":null}},{"id":"E-1911-3","year":"1911","leg":"3","title":"Longwy - Belfort","start":{"city":"Longwy","country":"France","lng":"5.761773","lat":"49.519919"},"finish":{"city":"49.519919,5.761773","country":"Luchon","lng":"0.592943,42.788963","lat":"0.592943"},"length":"42.788963","type":"317","winner":{"name":"42.788963,0.592943","nationality":null},"leader":{"name":"Drapeau : FranceMarcel Godivier","nationality":null}},{"id":"E-1911-4","year":"1911","leg":"4","title":"Belfort - Chamonix","start":{"city":"Belfort","country":"France","lng":"6.863849","lat":"47.639674"},"finish":{"city":"47.639674,6.863849","country":"Bayonne","lng":"-1.474841,43.492949","lat":"-1.474841"},"length":"43.492949","type":"388","winner":{"name":"43.492949,-1.474841","nationality":null},"leader":{"name":"Drapeau : BelgiqueJules Masselis","nationality":null}},{"id":"E-1911-5","year":"1911","leg":"5","title":"Chamonix - Grenoble","start":{"city":"Chamonix","country":"France","lng":"6.869433","lat":"45.923697"},"finish":{"city":"45.923697,6.869433","country":"La Rochelle","lng":"-1.151139,46.160329","lat":"-1.151139"},"length":"46.160329","type":"331","winner":{"name":"46.160329,-1.151139","nationality":null},"leader":{"name":"Drapeau : LuxembourgFrançois Faber","nationality":null}},{"id":"E-1911-6","year":"1911","leg":"6","title":"Grenoble - Nice","start":{"city":"Grenoble","country":"France","lng":"5.724524","lat":"45.188529"},"finish":{"city":"45.188529,5.724524","country":"Brest","lng":"-4.486076,48.390394","lat":"-4.486076"},"length":"48.390394","type":"344","winner":{"name":"48.390394,-4.486076","nationality":null},"leader":{"name":"Drapeau : FranceCharles Crupelandt","nationality":null}},{"id":"E-1911-7","year":"1911","leg":"7","title":"Nice - Marseille","start":{"city":"Nice","country":"France","lng":"7.265592","lat":"43.696036"},"finish":{"city":"43.696036,7.265592","country":"Cherbourg","lng":"-1.625298,49.639093","lat":"-1.625298"},"length":"49.639093","type":"366","winner":{"name":"49.639093,-1.625298","nationality":null},"leader":{"name":"Drapeau : FranceÉmile Georget","nationality":null}},{"id":"E-1911-8","year":"1911","leg":"8","title":"Marseille - Perpignan","start":{"city":"Marseille","country":"France","lng":"5.36978","lat":"43.296482"},"finish":{"city":"43.296482,5.36978","country":"Le Havre","lng":"0.107929,49.49437","lat":"0.107929"},"length":"49.49437","type":"348","winner":{"name":"49.49437,0.107929","nationality":null},"leader":{"name":"Drapeau : LuxembourgFrançois Faber","nationality":null}},{"id":"E-1911-9","year":"1911","leg":"9","title":"Perpignan - Luchon","start":{"city":"Perpignan","country":"France","lng":"2.895872","lat":"42.698684"},"finish":{"city":"42.698684,2.895872","country":"Paris","lng":"2.352222,48.856614","lat":"2.352222"},"length":"48.856614","type":"334","winner":{"name":"48.856614,2.352222","nationality":null},"leader":{"name":"Drapeau : FranceCharles Crupelandt","nationality":null}},{"id":"E-1912-1","year":"1912","leg":"1","title":"Paris - Dunkerque","start":{"city":"Paris","country":"France","lng":"2.352222","lat":"48.856614"},"finish":{"city":"48.856614,2.352222","country":"Dunkerque","lng":"2.375202,51.03456","lat":"2.375202"},"length":"51.03456","type":"351","winner":{"name":"51.03456,2.375202","nationality":null},"leader":{"name":"Drapeau : FranceCharles Crupelandt","nationality":null}},{"id":"E-1912-10","year":"1912","leg":"10","title":"Luchon - Bayonne","start":{"city":"Luchon","country":"France","lng":"0.592943","lat":"42.788963"},"finish":{"city":"42.788963,0.592943","country":"Longwy","lng":"5.761773,49.519919","lat":"5.761773"},"length":"49.519919","type":"335","winner":{"name":"49.519919,5.761773","nationality":null},"leader":{"name":"Drapeau : ItalieVincenzo Borgarello","nationality":null}},{"id":"E-1912-11","year":"1912","leg":"11","title":"Bayonne - La Rochelle","start":{"city":"Bayonne","country":"France","lng":"-1.474841","lat":"43.492949"},"finish":{"city":"43.492949,-1.474841","country":"Belfort","lng":"6.863849,47.639674","lat":"6.863849"},"length":"47.639674","type":"289","winner":{"name":"47.639674,6.863849","nationality":null},"leader":{"name":"Drapeau : BelgiqueOdile Defraye","nationality":null}},{"id":"E-1912-12","year":"1912","leg":"12","title":"La Rochelle - Brest","start":{"city":"La Rochelle","country":"France","lng":"-1.151139","lat":"46.160329"},"finish":{"city":"46.160329,-1.151139","country":"Chamonix","lng":"6.869433,45.923697","lat":"6.869433"},"length":"45.923697","type":"326","winner":{"name":"45.923697,6.869433","nationality":null},"leader":{"name":"Drapeau : BelgiqueLouis Mottiat","nationality":null}},{"id":"E-1912-13","year":"1912","leg":"13","title":"Brest - Cherbourg","start":{"city":"Brest","country":"France","lng":"-4.486076","lat":"48.390394"},"finish":{"city":"48.390394,-4.486076","country":"Grenoble","lng":"5.724524,45.188529","lat":"5.724524"},"length":"45.188529","type":"379","winner":{"name":"45.188529,5.724524","nationality":null},"leader":{"name":"Drapeau : FranceJean Alavoine","nationality":null}},{"id":"E-1912-14","year":"1912","leg":"14","title":"Cherbourg - Le Havre","start":{"city":"Cherbourg","country":"France","lng":"-1.625298","lat":"49.639093"},"finish":{"city":"49.639093,-1.625298","country":"Nice","lng":"7.265592,43.696036","lat":"7.265592"},"length":"43.696036","type":"470","winner":{"name":"43.696036,7.265592","nationality":null},"leader":{"name":"Drapeau : BelgiqueLouis Heusghem","nationality":null}},{"id":"E-1912-15","year":"1912","leg":"15","title":"Le Havre - Paris","start":{"city":"Le Havre","country":"France","lng":"0.107929","lat":"49.49437"},"finish":{"city":"49.49437,0.107929","country":"Marseille","lng":"5.36978,43.296482","lat":"5.36978"},"length":"43.296482","type":"405","winner":{"name":"43.296482,5.36978","nationality":null},"leader":{"name":"Drapeau : FranceJean Alavoine","nationality":null}},{"id":"E-1912-2","year":"1912","leg":"2","title":"Dunkerque - Longwy","start":{"city":"Dunkerque","country":"France","lng":"2.375202","lat":"51.03456"},"finish":{"city":"51.03456,2.375202","country":"Perpignan","lng":"2.895872,42.698684","lat":"2.895872"},"length":"42.698684","type":"361","winner":{"name":"42.698684,2.895872","nationality":null},"leader":{"name":"Drapeau : ItalieVincenzo Borgarello","nationality":null}},{"id":"E-1912-3","year":"1912","leg":"3","title":"Longwy - Belfort","start":{"city":"Longwy","country":"France","lng":"5.761773","lat":"49.519919"},"finish":{"city":"49.519919,5.761773","country":"Luchon","lng":"0.592943,42.788963","lat":"0.592943"},"length":"42.788963","type":"317","winner":{"name":"42.788963,0.592943","nationality":null},"leader":{"name":"Drapeau : FranceJean Alavoine","nationality":null}},{"id":"E-1912-4","year":"1912","leg":"4","title":"Belfort - Chamonix","start":{"city":"Belfort","country":"France","lng":"6.863849","lat":"47.639674"},"finish":{"city":"47.639674,6.863849","country":"Bayonne","lng":"-1.474841,43.492949","lat":"-1.474841"},"length":"43.492949","type":"388","winner":{"name":"43.492949,-1.474841","nationality":null},"leader":{"name":"Drapeau : BelgiqueOdile Defraye","nationality":null}},{"id":"E-1912-5","year":"1912","leg":"5","title":"Chamonix - Grenoble","start":{"city":"Chamonix","country":"France","lng":"6.869433","lat":"45.923697"},"finish":{"city":"45.923697,6.869433","country":"La Rochelle","lng":"-1.151139,46.160329","lat":"-1.151139"},"length":"46.160329","type":"331","winner":{"name":"46.160329,-1.151139","nationality":null},"leader":{"name":"Drapeau : FranceEugène Christophe","nationality":null}},{"id":"E-1912-6","year":"1912","leg":"6","title":"Grenoble - Nice","start":{"city":"Grenoble","country":"France","lng":"5.724524","lat":"45.188529"},"finish":{"city":"45.188529,5.724524","country":"Brest","lng":"-4.486076,48.390394","lat":"-4.486076"},"length":"48.390394","type":"344","winner":{"name":"48.390394,-4.486076","nationality":null},"leader":{"name":"Drapeau : FranceEugène Christophe","nationality":null}},{"id":"E-1912-7","year":"1912","leg":"7","title":"Nice - Marseille","start":{"city":"Nice","country":"France","lng":"7.265592","lat":"43.696036"},"finish":{"city":"43.696036,7.265592","country":"Cherbourg","lng":"-1.625298,49.639093","lat":"-1.625298"},"length":"49.639093","type":"345","winner":{"name":"49.639093,-1.625298","nationality":null},"leader":{"name":"Drapeau : FranceEugène Christophe","nationality":null}},{"id":"E-1912-8","year":"1912","leg":"8","title":"Marseille - Perpignan","start":{"city":"Marseille","country":"France","lng":"5.36978","lat":"43.296482"},"finish":{"city":"43.296482,5.36978","country":"Le Havre","lng":"0.107929,49.49437","lat":"0.107929"},"length":"49.49437","type":"323","winner":{"name":"49.49437,0.107929","nationality":null},"leader":{"name":"Drapeau : FranceOctave Lapize","nationality":null}},{"id":"E-1912-9","year":"1912","leg":"9","title":"Perpignan - Luchon","start":{"city":"Perpignan","country":"France","lng":"2.895872","lat":"42.698684"},"finish":{"city":"42.698684,2.895872","country":"Paris","lng":"2.352222,48.856614","lat":"2.352222"},"length":"48.856614","type":"334","winner":{"name":"48.856614,2.352222","nationality":null},"leader":{"name":"Drapeau : BelgiqueOdile Defraye","nationality":null}},{"id":"E-1913-1","year":"1913","leg":"1","title":"Paris - Le Havre","start":{"city":"Paris","country":"France","lng":"2.352222","lat":"48.856614"},"finish":{"city":"48.856614,2.352222","country":"Le Havre","lng":"0.107929,49.49437","lat":"0.107929"},"length":"49.49437","type":"388","winner":{"name":"49.49437,0.107929","nationality":null},"leader":{"name":"Drapeau : ItalieGiovanni Micheletto","nationality":null}},{"id":"E-1913-10","year":"1913","leg":"10","title":"Nice - Grenoble","start":{"city":"Nice","country":"France","lng":"7.265592","lat":"43.696036"},"finish":{"city":"43.696036,7.265592","country":"Cherbourg","lng":"-1.625298,49.639093","lat":"-1.625298"},"length":"49.639093","type":"325","winner":{"name":"49.639093,-1.625298","nationality":null},"leader":{"name":"Drapeau : FranceGustave Garrigou","nationality":null}},{"id":"E-1913-11","year":"1913","leg":"11","title":"Grenoble - Genève","start":{"city":"Grenoble","country":"France","lng":"5.724524","lat":"45.188529"},"finish":{"city":"45.188529,5.724524","country":"Brest","lng":"-4.486076,48.390394","lat":"-4.486076"},"length":"48.390394","type":"356","winner":{"name":"48.390394,-4.486076","nationality":null},"leader":{"name":"Drapeau : BelgiqueFirmin Lambot","nationality":null}},{"id":"E-1913-12","year":"1913","leg":"12","title":"Genève - Belfort","start":{"city":"Genève","country":"France","lng":"6.142296","lat":"46.198392"},"finish":{"city":"46.198392,6.142296","country":"La Rochelle","lng":"-1.151139,46.160329","lat":"-1.151139"},"length":"46.160329","type":"333","winner":{"name":"46.160329,-1.151139","nationality":null},"leader":{"name":"Drapeau : LuxembourgFrançois Faber","nationality":null}},{"id":"E-1913-13","year":"1913","leg":"13","title":"Belfort - Longwy","start":{"city":"Belfort","country":"France","lng":"6.863849","lat":"47.639674"},"finish":{"city":"47.639674,6.863849","country":"Bayonne","lng":"-1.474841,43.492949","lat":"-1.474841"},"length":"43.492949","type":"325","winner":{"name":"43.492949,-1.474841","nationality":null},"leader":{"name":"Drapeau : BelgiqueMarcel Buysse","nationality":null}},{"id":"E-1913-14","year":"1913","leg":"14","title":"Longwy - Dunkerque","start":{"city":"Longwy","country":"France","lng":"5.761773","lat":"49.519919"},"finish":{"city":"49.519919,5.761773","country":"Luchon","lng":"0.592943,42.788963","lat":"0.592943"},"length":"42.788963","type":"335","winner":{"name":"42.788963,0.592943","nationality":null},"leader":{"name":"Drapeau : BelgiqueMarcel Buysse","nationality":null}},{"id":"E-1913-15","year":"1913","leg":"15","title":"Dunkerque - Paris","start":{"city":"Dunkerque","country":"France","lng":"2.375202","lat":"51.03456"},"finish":{"city":"51.03456,2.375202","country":"Perpignan","lng":"2.895872,42.698684","lat":"2.895872"},"length":"42.698684","type":"325","winner":{"name":"42.698684,2.895872","nationality":null},"leader":{"name":"Drapeau : LuxembourgFrançois Faber","nationality":null}},{"id":"E-1913-2","year":"1913","leg":"2","title":"Le Havre - Cherbourg","start":{"city":"Le Havre","country":"France","lng":"0.107929","lat":"49.49437"},"finish":{"city":"49.49437,0.107929","country":"Aix-en-Provence","lng":"5.447427,43.529742","lat":"5.447427"},"length":"43.529742","type":"393","winner":{"name":"43.529742,5.447427","nationality":null},"leader":{"name":"Drapeau : BelgiqueMarcel Buysse","nationality":null}},{"id":"E-1913-3","year":"1913","leg":"3","title":"Cherbourg - Brest","start":{"city":"Cherbourg","country":"France","lng":"-1.625298","lat":"49.639093"},"finish":{"city":"49.639093,-1.625298","country":"Nice","lng":"7.265592,43.696036","lat":"7.265592"},"length":"43.696036","type":"340","winner":{"name":"43.696036,7.265592","nationality":null},"leader":{"name":"Drapeau : BelgiqueMarcel Buysse","nationality":null}},{"id":"E-1913-4","year":"1913","leg":"4","title":"Brest - La Rochelle","start":{"city":"Brest","country":"France","lng":"-4.486076","lat":"48.390394"},"finish":{"city":"48.390394,-4.486076","country":"Grenoble","lng":"5.724524,45.188529","lat":"5.724524"},"length":"45.188529","type":"364","winner":{"name":"45.188529,5.724524","nationality":null},"leader":{"name":"Drapeau : BelgiqueJules Masselis","nationality":null}},{"id":"E-1913-5","year":"1913","leg":"5","title":"La Rochelle - Bayonne","start":{"city":"La Rochelle","country":"France","lng":"-1.151139","lat":"46.160329"},"finish":{"city":"46.160329,-1.151139","country":"Genève","lng":"6.142296,46.198392","lat":"6.142296"},"length":"46.198392","type":"405","winner":{"name":"46.198392,6.142296","nationality":null},"leader":{"name":"Drapeau : FranceHenri Pélissier","nationality":null}},{"id":"E-1913-6","year":"1913","leg":"6","title":"Bayonne - Luchon","start":{"city":"Bayonne","country":"France","lng":"-1.474841","lat":"43.492949"},"finish":{"city":"43.492949,-1.474841","country":"Belfort","lng":"6.863849,47.639674","lat":"6.863849"},"length":"47.639674","type":"470","winner":{"name":"47.639674,6.863849","nationality":null},"leader":{"name":"Drapeau : BelgiqueMarcel Buysse","nationality":null}},{"id":"E-1913-7","year":"1913","leg":"7","title":"Luchon - Perpignan","start":{"city":"Luchon","country":"France","lng":"0.592943","lat":"42.788963"},"finish":{"city":"42.788963,0.592943","country":"Longwy","lng":"5.761773,49.519919","lat":"5.761773"},"length":"49.519919","type":"379","winner":{"name":"49.519919,5.761773","nationality":null},"leader":{"name":"Drapeau : BelgiqueHenri Van Lerberghe","nationality":null}},{"id":"E-1913-8","year":"1913","leg":"8","title":"Perpignan - Aix-en-Provence","start":{"city":"Perpignan","country":"France","lng":"2.895872","lat":"42.698684"},"finish":{"city":"42.698684,2.895872","country":"Dunkerque","lng":"2.375202,51.03456","lat":"2.375202"},"length":"51.03456","type":"326","winner":{"name":"51.03456,2.375202","nationality":null},"leader":{"name":"Drapeau : BelgiquePhilippe Thys","nationality":null}},{"id":"E-1913-9","year":"1913","leg":"9","title":"Aix-en-Provence - Nice","start":{"city":"Aix-en-Provence","country":"France","lng":"5.447427","lat":"43.529742"},"finish":{"city":"43.529742,5.447427","country":"Paris","lng":"2.352222,48.856614","lat":"2.352222"},"length":"48.856614","type":"324","winner":{"name":"48.856614,2.352222","nationality":null},"leader":{"name":"Drapeau : BelgiqueMarcel Buysse","nationality":null}},{"id":"E-1914-1","year":"1914","leg":"1","title":"Paris - Le Havre","start":{"city":"Paris","country":"France","lng":"2.352222","lat":"48.856614"},"finish":{"city":"48.856614,2.352222","country":"Le Havre","lng":"0.107929,49.49437","lat":"0.107929"},"length":"49.49437","type":"388","winner":{"name":"49.49437,0.107929","nationality":null},"leader":{"name":"Drapeau : BelgiquePhilippe Thys","nationality":null}},{"id":"E-1914-10","year":"1914","leg":"10","title":"Nice - Grenoble","start":{"city":"Nice","country":"France","lng":"7.265592","lat":"43.696036"},"finish":{"city":"43.696036,7.265592","country":"Cherbourg","lng":"-1.625298,49.639093","lat":"-1.625298"},"length":"49.639093","type":"370","winner":{"name":"49.639093,-1.625298","nationality":null},"leader":{"name":"Drapeau : FranceOctave Lapize","nationality":null}},{"id":"E-1914-11","year":"1914","leg":"11","title":"Grenoble - Genève","start":{"city":"Grenoble","country":"France","lng":"5.724524","lat":"45.188529"},"finish":{"city":"45.188529,5.724524","country":"Brest","lng":"-4.486076,48.390394","lat":"-4.486076"},"length":"48.390394","type":"338","winner":{"name":"48.390394,-4.486076","nationality":null},"leader":{"name":"Drapeau : BelgiqueJean Rossius","nationality":null}},{"id":"E-1914-12","year":"1914","leg":"12","title":"Genève - Belfort","start":{"city":"Genève","country":"Suisse","lng":"6.142296","lat":"46.198392"},"finish":{"city":"46.198392,6.142296","country":"La Rochelle","lng":"-1.151139,46.160329","lat":"-1.151139"},"length":"46.160329","type":"333","winner":{"name":"46.160329,-1.151139","nationality":null},"leader":{"name":"Drapeau : FranceHenri Pélissier","nationality":null}},{"id":"E-1914-13","year":"1914","leg":"13","title":"Belfort - Longwy","start":{"city":"Belfort","country":"France","lng":"6.863849","lat":"47.639674"},"finish":{"city":"47.639674,6.863849","country":"Bayonne","lng":"-1.474841,43.492949","lat":"-1.474841"},"length":"43.492949","type":"325","winner":{"name":"43.492949,-1.474841","nationality":null},"leader":{"name":"Drapeau : FranceGustave Garrigou","nationality":null}},{"id":"E-1914-14","year":"1914","leg":"14","title":"Longwy - Dunkerque","start":{"city":"Longwy","country":"France","lng":"5.761773","lat":"49.519919"},"finish":{"city":"49.519919,5.761773","country":"Luchon","lng":"0.592943,42.788963","lat":"0.592943"},"length":"42.788963","type":"335","winner":{"name":"42.788963,0.592943","nationality":null},"leader":{"name":"Drapeau : FranceHenri Pélissier","nationality":null}},{"id":"E-1914-15","year":"1914","leg":"15","title":"Dunkerque - Paris","start":{"city":"Dunkerque","country":"France","lng":"2.375202","lat":"51.03456"},"finish":{"city":"51.03456,2.375202","country":"Perpignan","lng":"2.895872,42.698684","lat":"2.895872"},"length":"42.698684","type":"325","winner":{"name":"42.698684,2.895872","nationality":null},"leader":{"name":"Drapeau : LuxembourgFrançois Faber","nationality":null}},{"id":"E-1914-2","year":"1914","leg":"2","title":"Le Havre - Cherbourg","start":{"city":"Le Havre","country":"France","lng":"0.107929","lat":"49.49437"},"finish":{"city":"49.49437,0.107929","country":"Marseille","lng":"5.36978,43.296482","lat":"5.36978"},"length":"43.296482","type":"390","winner":{"name":"43.296482,5.36978","nationality":null},"leader":{"name":"Drapeau : LuxembourgFrançois Faber","nationality":null}},{"id":"E-1914-3","year":"1914","leg":"3","title":"Cherbourg - Brest","start":{"city":"Cherbourg","country":"France","lng":"-1.625298","lat":"49.639093"},"finish":{"city":"49.639093,-1.625298","country":"Nice","lng":"7.265592,43.696036","lat":"7.265592"},"length":"43.696036","type":"340","winner":{"name":"43.696036,7.265592","nationality":null},"leader":{"name":"Drapeau : FranceHenri Pélissier","nationality":null}},{"id":"E-1914-4","year":"1914","leg":"4","title":"Brest - La Rochelle","start":{"city":"Brest","country":"France","lng":"-4.486076","lat":"48.390394"},"finish":{"city":"48.390394,-4.486076","country":"Grenoble","lng":"5.724524,45.188529","lat":"5.724524"},"length":"45.188529","type":"364","winner":{"name":"45.188529,5.724524","nationality":null},"leader":{"name":"Drapeau : BelgiqueJean Rossius","nationality":null}},{"id":"E-1914-5","year":"1914","leg":"5","title":"La Rochelle - Bayonne","start":{"city":"La Rochelle","country":"France","lng":"-1.151139","lat":"46.160329"},"finish":{"city":"46.160329,-1.151139","country":"Genève","lng":"6.142296,46.198392","lat":"6.142296"},"length":"46.198392","type":"405","winner":{"name":"46.198392,6.142296","nationality":null},"leader":{"name":"Drapeau : FranceÉmile Engel","nationality":null}},{"id":"E-1914-6","year":"1914","leg":"6","title":"Bayonne - Luchon","start":{"city":"Bayonne","country":"France","lng":"-1.474841","lat":"43.492949"},"finish":{"city":"43.492949,-1.474841","country":"Belfort","lng":"6.863849,47.639674","lat":"6.863849"},"length":"47.639674","type":"470","winner":{"name":"47.639674,6.863849","nationality":null},"leader":{"name":"Drapeau : SuisseOscar Egg","nationality":null}},{"id":"E-1914-7","year":"1914","leg":"7","title":"Luchon - Perpignan","start":{"city":"Luchon","country":"France","lng":"0.592943","lat":"42.788963"},"finish":{"city":"42.788963,0.592943","country":"Longwy","lng":"5.761773,49.519919","lat":"5.761773"},"length":"49.519919","type":"379","winner":{"name":"49.519919,5.761773","nationality":null},"leader":{"name":"Drapeau : SuisseOscar Egg","nationality":null}},{"id":"E-1914-8","year":"1914","leg":"8","title":"Perpignan - Marseille","start":{"city":"Perpignan","country":"France","lng":"2.895872","lat":"42.698684"},"finish":{"city":"42.698684,2.895872","country":"Dunkerque","lng":"2.375202,51.03456","lat":"2.375202"},"length":"51.03456","type":"326","winner":{"name":"51.03456,2.375202","nationality":null},"leader":{"name":"Drapeau : BelgiqueFirmin Lambot","nationality":null}},{"id":"E-1914-9","year":"1914","leg":"9","title":"Marseille - Nice","start":{"city":"Marseille","country":"France","lng":"5.36978","lat":"43.296482"},"finish":{"city":"43.296482,5.36978","country":"Paris","lng":"2.352222,48.856614","lat":"2.352222"},"length":"48.856614","type":"323","winner":{"name":"48.856614,2.352222","nationality":null},"leader":{"name":"Drapeau : FranceJean Alavoine","nationality":null}},{"id":"E-1919-1","year":"1919","leg":"1","title":"Paris - Le Havre","start":{"city":"Paris","country":"France","lng":"2.352222","lat":"48.856614"},"finish":{"city":"48.856614,2.352222","country":"Le Havre","lng":"0.107929,49.49437","lat":"0.107929"},"length":"49.49437","type":"388","winner":{"name":"49.49437,0.107929","nationality":null},"leader":{"name":"Drapeau : BelgiqueJean Rossius","nationality":null}},{"id":"E-1919-10","year":"1919","leg":"10","title":"Nice - Grenoble","start":{"city":"Nice","country":"France","lng":"7.265592","lat":"43.696036"},"finish":{"city":"43.696036,7.265592","country":"Cherbourg","lng":"-1.625298,49.639093","lat":"-1.625298"},"length":"49.639093","type":"370","winner":{"name":"49.639093,-1.625298","nationality":null},"leader":{"name":"Drapeau : FranceJean Alavoine","nationality":null}},{"id":"E-1919-11","year":"1919","leg":"11","title":"Grenoble - Genève","start":{"city":"Grenoble","country":"France","lng":"5.724524","lat":"45.188529"},"finish":{"city":"45.188529,5.724524","country":"Brest","lng":"-4.486076,48.390394","lat":"-4.486076"},"length":"48.390394","type":"338","winner":{"name":"48.390394,-4.486076","nationality":null},"leader":{"name":"Drapeau : FranceHonoré Barthélémy","nationality":null}},{"id":"E-1919-12","year":"1919","leg":"12","title":"Genève - Strasbourg","start":{"city":"Genève","country":"Suisse","lng":"6.142296","lat":"46.198392"},"finish":{"city":"46.198392,6.142296","country":"Les Sables-d'Olonne","lng":"-1.795493,46.492958","lat":"-1.795493"},"length":"46.492958","type":"333","winner":{"name":"46.492958,-1.795493","nationality":null},"leader":{"name":"Drapeau : FranceHonoré Barthélémy","nationality":null}},{"id":"E-1919-13","year":"1919","leg":"13","title":"Strasbourg - Metz","start":{"city":"Strasbourg","country":"France","lng":"7.747882","lat":"48.583148"},"finish":{"city":"48.583148,7.747882","country":"Bayonne","lng":"-1.474841,43.492949","lat":"-1.474841"},"length":"43.492949","type":"325","winner":{"name":"43.492949,-1.474841","nationality":null},"leader":{"name":"Drapeau : FranceHonoré Barthélémy","nationality":null}},{"id":"E-1919-14","year":"1919","leg":"14","title":"Metz - Dunkerque","start":{"city":"Metz","country":"France","lng":"6.176905","lat":"49.119666"},"finish":{"city":"49.119666,6.176905","country":"Luchon","lng":"0.592943,42.788963","lat":"0.592943"},"length":"42.788963","type":"371","winner":{"name":"42.788963,0.592943","nationality":null},"leader":{"name":"Drapeau : ItalieLuigi Lucotti","nationality":null}},{"id":"E-1919-15","year":"1919","leg":"15","title":"Dunkerque - Paris","start":{"city":"Dunkerque","country":"France","lng":"2.375202","lat":"51.03456"},"finish":{"city":"51.03456,2.375202","country":"Perpignan","lng":"2.895872,42.698684","lat":"2.895872"},"length":"42.698684","type":"315","winner":{"name":"42.698684,2.895872","nationality":null},"leader":{"name":"Drapeau : ItalieLuigi Lucotti","nationality":null}},{"id":"E-1919-2","year":"1919","leg":"2","title":"Le Havre - Cherbourg","start":{"city":"Le Havre","country":"France","lng":"0.107929","lat":"49.49437"},"finish":{"city":"49.49437,0.107929","country":"Marseille","lng":"5.36978,43.296482","lat":"5.36978"},"length":"43.296482","type":"468","winner":{"name":"43.296482,5.36978","nationality":null},"leader":{"name":"Drapeau : BelgiqueFirmin Lambot","nationality":null}},{"id":"E-1919-3","year":"1919","leg":"3","title":"Cherbourg - Brest","start":{"city":"Cherbourg","country":"France","lng":"-1.625298","lat":"49.639093"},"finish":{"city":"49.639093,-1.625298","country":"Nice","lng":"7.265592,43.696036","lat":"7.265592"},"length":"43.696036","type":"340","winner":{"name":"43.696036,7.265592","nationality":null},"leader":{"name":"Drapeau : FranceJean Alavoine","nationality":null}},{"id":"E-1919-4","year":"1919","leg":"4","title":"Brest - Les Sables-d'Olonne","start":{"city":"Brest","country":"France","lng":"-4.486076","lat":"48.390394"},"finish":{"city":"48.390394,-4.486076","country":"Grenoble","lng":"5.724524,45.188529","lat":"5.724524"},"length":"45.188529","type":"364","winner":{"name":"45.188529,5.724524","nationality":null},"leader":{"name":"Drapeau : FranceHenri Pélissier","nationality":null}},{"id":"E-1919-5","year":"1919","leg":"5","title":"Les Sables-d'Olonne - Bayonne","start":{"city":"Les Sables-d'Olonne","country":"France","lng":"-1.795493","lat":"46.492958"},"finish":{"city":"46.492958,-1.795493","country":"Genève","lng":"6.142296,46.198392","lat":"6.142296"},"length":"46.198392","type":"405","winner":{"name":"46.198392,6.142296","nationality":null},"leader":{"name":"Drapeau : FranceFrancis Pélissier","nationality":null}},{"id":"E-1919-6","year":"1919","leg":"6","title":"Bayonne - Luchon","start":{"city":"Bayonne","country":"France","lng":"-1.474841","lat":"43.492949"},"finish":{"city":"43.492949,-1.474841","country":"Strasbourg","lng":"7.747882,48.583148","lat":"7.747882"},"length":"48.583148","type":"412","winner":{"name":"48.583148,7.747882","nationality":null},"leader":{"name":"Drapeau : FranceJean Alavoine","nationality":null}},{"id":"E-1919-7","year":"1919","leg":"7","title":"Luchon - Perpignan","start":{"city":"Luchon","country":"France","lng":"0.592943","lat":"42.788963"},"finish":{"city":"42.788963,0.592943","country":"Metz","lng":"6.176905,49.119666","lat":"6.176905"},"length":"49.119666","type":"482","winner":{"name":"49.119666,6.176905","nationality":null},"leader":{"name":"Drapeau : FranceJean Alavoine","nationality":null}},{"id":"E-1919-8","year":"1919","leg":"8","title":"Perpignan - Marseille","start":{"city":"Perpignan","country":"France","lng":"2.895872","lat":"42.698684"},"finish":{"city":"42.698684,2.895872","country":"Dunkerque","lng":"2.375202,51.03456","lat":"2.375202"},"length":"51.03456","type":"326","winner":{"name":"51.03456,2.375202","nationality":null},"leader":{"name":"Drapeau : FranceHonoré Barthélémy","nationality":null}},{"id":"E-1919-9","year":"1919","leg":"9","title":"Marseille - Nice","start":{"city":"Marseille","country":"France","lng":"5.36978","lat":"43.296482"},"finish":{"city":"43.296482,5.36978","country":"Paris","lng":"2.352222,48.856614","lat":"2.352222"},"length":"48.856614","type":"323","winner":{"name":"48.856614,2.352222","nationality":null},"leader":{"name":"Drapeau : FranceJean Alavoine","nationality":null}},{"id":"E-1920-1","year":"1920","leg":"1","title":"Paris - Le Havre","start":{"city":"Paris","country":"France","lng":"2.352222","lat":"48.856614"},"finish":{"city":"48.856614,2.352222","country":"Le Havre","lng":"0.107929,49.49437","lat":"0.107929"},"length":"49.49437","type":"388","winner":{"name":"49.49437,0.107929","nationality":null},"leader":{"name":"Drapeau : BelgiqueLouis Mottiat","nationality":null}},{"id":"E-1920-10","year":"1920","leg":"10","title":"Nice - Grenoble","start":{"city":"Nice","country":"France","lng":"7.265592","lat":"43.696036"},"finish":{"city":"43.696036,7.265592","country":"Cherbourg","lng":"-1.625298,49.639093","lat":"-1.625298"},"length":"49.639093","type":"325","winner":{"name":"49.639093,-1.625298","nationality":null},"leader":{"name":"Drapeau : BelgiqueLouis Heusghem","nationality":null}},{"id":"E-1920-11","year":"1920","leg":"11","title":"Grenoble - Gex","start":{"city":"Grenoble","country":"France","lng":"5.724524","lat":"45.188529"},"finish":{"city":"45.188529,5.724524","country":"Brest","lng":"-4.486076,48.390394","lat":"-4.486076"},"length":"48.390394","type":"356","winner":{"name":"48.390394,-4.486076","nationality":null},"leader":{"name":"Drapeau : BelgiquePhilippe Thys","nationality":null}},{"id":"E-1920-12","year":"1920","leg":"12","title":"Gex - Strasbourg","start":{"city":"Gex","country":"France","lng":"6.058036","lat":"46.334191"},"finish":{"city":"46.334191,6.058036","country":"Les Sables-d'Olonne","lng":"-1.795493,46.492958","lat":"-1.795493"},"length":"46.492958","type":"333","winner":{"name":"46.492958,-1.795493","nationality":null},"leader":{"name":"Drapeau : BelgiqueHector Heusghem","nationality":null}},{"id":"E-1920-13","year":"1920","leg":"13","title":"Strasbourg - Metz","start":{"city":"Strasbourg","country":"France","lng":"7.747882","lat":"48.583148"},"finish":{"city":"48.583148,7.747882","country":"Bayonne","lng":"-1.474841,43.492949","lat":"-1.474841"},"length":"43.492949","type":"362","winner":{"name":"43.492949,-1.474841","nationality":null},"leader":{"name":"Drapeau : BelgiqueLéon Scieur","nationality":null}},{"id":"E-1920-14","year":"1920","leg":"14","title":"Metz - Dunkerque","start":{"city":"Metz","country":"France","lng":"6.176905","lat":"49.119666"},"finish":{"city":"49.119666,6.176905","country":"Luchon","lng":"0.592943,42.788963","lat":"0.592943"},"length":"42.788963","type":"354","winner":{"name":"42.788963,0.592943","nationality":null},"leader":{"name":"Drapeau : BelgiquePhilippe Thys","nationality":null}},{"id":"E-1920-15","year":"1920","leg":"15","title":"Dunkerque - Paris","start":{"city":"Dunkerque","country":"France","lng":"2.375202","lat":"51.03456"},"finish":{"city":"51.03456,2.375202","country":"Perpignan","lng":"2.895872,42.698684","lat":"2.895872"},"length":"42.698684","type":"300","winner":{"name":"42.698684,2.895872","nationality":null},"leader":{"name":"Drapeau : BelgiquePhilippe Thys","nationality":null}},{"id":"E-1920-2","year":"1920","leg":"2","title":"Le Havre - Cherbourg","start":{"city":"Le Havre","country":"France","lng":"0.107929","lat":"49.49437"},"finish":{"city":"49.49437,0.107929","country":"Aix-en-Provence","lng":"5.447427,43.529742","lat":"5.447427"},"length":"43.529742","type":"433","winner":{"name":"43.529742,5.447427","nationality":null},"leader":{"name":"Drapeau : FranceFélix Goethals","nationality":null}},{"id":"E-1920-3","year":"1920","leg":"3","title":"Cherbourg - Brest","start":{"city":"Cherbourg","country":"France","lng":"-1.625298","lat":"49.639093"},"finish":{"city":"49.639093,-1.625298","country":"Nice","lng":"7.265592,43.696036","lat":"7.265592"},"length":"43.696036","type":"340","winner":{"name":"43.696036,7.265592","nationality":null},"leader":{"name":"Drapeau : BelgiqueJean Rossius","nationality":null}},{"id":"E-1920-4","year":"1920","leg":"4","title":"Brest - Les Sables-d'Olonne","start":{"city":"Brest","country":"France","lng":"-4.486076","lat":"48.390394"},"finish":{"city":"48.390394,-4.486076","country":"Grenoble","lng":"5.724524,45.188529","lat":"5.724524"},"length":"45.188529","type":"364","winner":{"name":"45.188529,5.724524","nationality":null},"leader":{"name":"Drapeau : BelgiquePhilippe Thys","nationality":null}},{"id":"E-1920-5","year":"1920","leg":"5","title":"Les Sables-d'Olonne - Bayonne","start":{"city":"Les Sables-d'Olonne","country":"France","lng":"-1.795493","lat":"46.492958"},"finish":{"city":"46.492958,-1.795493","country":"Gex","lng":"6.058036,46.334191","lat":"6.058036"},"length":"46.334191","type":"405","winner":{"name":"46.334191,6.058036","nationality":null},"leader":{"name":"Drapeau : FranceHenri Pélissier","nationality":null}},{"id":"E-1920-6","year":"1920","leg":"6","title":"Bayonne - Luchon","start":{"city":"Bayonne","country":"France","lng":"-1.474841","lat":"43.492949"},"finish":{"city":"43.492949,-1.474841","country":"Strasbourg","lng":"7.747882,48.583148","lat":"7.747882"},"length":"48.583148","type":"412","winner":{"name":"48.583148,7.747882","nationality":null},"leader":{"name":"Drapeau : FranceHenri Pélissier","nationality":null}},{"id":"E-1920-7","year":"1920","leg":"7","title":"Luchon - Perpignan","start":{"city":"Luchon","country":"France","lng":"0.592943","lat":"42.788963"},"finish":{"city":"42.788963,0.592943","country":"Metz","lng":"6.176905,49.119666","lat":"6.176905"},"length":"49.119666","type":"482","winner":{"name":"49.119666,6.176905","nationality":null},"leader":{"name":"Drapeau : BelgiqueFirmin Lambot","nationality":null}},{"id":"E-1920-8","year":"1920","leg":"8","title":"Perpignan - Aix-en-Provence","start":{"city":"Perpignan","country":"France","lng":"2.895872","lat":"42.698684"},"finish":{"city":"42.698684,2.895872","country":"Dunkerque","lng":"2.375202,51.03456","lat":"2.375202"},"length":"51.03456","type":"326","winner":{"name":"51.03456,2.375202","nationality":null},"leader":{"name":"Drapeau : BelgiqueFirmin Lambot","nationality":null}},{"id":"E-1920-9","year":"1920","leg":"9","title":"Aix-en-Provence - Nice","start":{"city":"Aix-en-Provence","country":"France","lng":"5.447427","lat":"43.529742"},"finish":{"city":"43.529742,5.447427","country":"Paris","lng":"2.352222,48.856614","lat":"2.352222"},"length":"48.856614","type":"323","winner":{"name":"48.856614,2.352222","nationality":null},"leader":{"name":"Drapeau : BelgiqueJean Rossius","nationality":null}},{"id":"E-1921-1","year":"1921","leg":"1","title":"Paris - Le Havre","start":{"city":"Paris","country":"France","lng":"2.352222","lat":"48.856614"},"finish":{"city":"48.856614,2.352222","country":"Le Havre","lng":"0.107929,49.49437","lat":"0.107929"},"length":"49.49437","type":"388","winner":{"name":"49.49437,0.107929","nationality":null},"leader":{"name":"Drapeau : BelgiqueLouis Mottiat","nationality":null}},{"id":"E-1921-10","year":"1921","leg":"10","title":"Nice - Grenoble","start":{"city":"Nice","country":"France","lng":"7.265592","lat":"43.696036"},"finish":{"city":"43.696036,7.265592","country":"Cherbourg","lng":"-1.625298,49.639093","lat":"-1.625298"},"length":"49.639093","type":"411","winner":{"name":"49.639093,-1.625298","nationality":null},"leader":{"name":"Drapeau : ItalieLuigi Lucotti","nationality":null}},{"id":"E-1921-11","year":"1921","leg":"11","title":"Grenoble - Genève","start":{"city":"Grenoble","country":"France","lng":"5.724524","lat":"45.188529"},"finish":{"city":"45.188529,5.724524","country":"Brest","lng":"-4.486076,48.390394","lat":"-4.486076"},"length":"48.390394","type":"272","winner":{"name":"48.390394,-4.486076","nationality":null},"leader":{"name":"Drapeau : BelgiqueFirmin Lambot","nationality":null}},{"id":"E-1921-12","year":"1921","leg":"12","title":"Genève - Strasbourg","start":{"city":"Genève","country":"Suisse","lng":"6.142296","lat":"46.198392"},"finish":{"city":"46.198392,6.142296","country":"Les Sables-d'Olonne","lng":"-1.795493,46.492958","lat":"-1.795493"},"length":"46.492958","type":"333","winner":{"name":"46.492958,-1.795493","nationality":null},"leader":{"name":"Drapeau : BelgiqueLéon Scieur","nationality":null}},{"id":"E-1921-13","year":"1921","leg":"13","title":"Strasbourg - Metz","start":{"city":"Strasbourg","country":"France","lng":"7.747882","lat":"48.583148"},"finish":{"city":"48.583148,7.747882","country":"Bayonne","lng":"-1.474841,43.492949","lat":"-1.474841"},"length":"43.492949","type":"325","winner":{"name":"43.492949,-1.474841","nationality":null},"leader":{"name":"Drapeau : FranceFélix Goethals","nationality":null}},{"id":"E-1921-14","year":"1921","leg":"14","title":"Metz - Dunkerque","start":{"city":"Metz","country":"France","lng":"6.176905","lat":"49.119666"},"finish":{"city":"49.119666,6.176905","country":"Luchon","lng":"0.592943,42.788963","lat":"0.592943"},"length":"42.788963","type":"371","winner":{"name":"42.788963,0.592943","nationality":null},"leader":{"name":"Drapeau : FranceHonoré Barthélémy","nationality":null}},{"id":"E-1921-15","year":"1921","leg":"15","title":"Dunkerque - Paris","start":{"city":"Dunkerque","country":"France","lng":"2.375202","lat":"51.03456"},"finish":{"city":"51.03456,2.375202","country":"Perpignan","lng":"2.895872,42.698684","lat":"2.895872"},"length":"42.698684","type":"300","winner":{"name":"42.698684,2.895872","nationality":null},"leader":{"name":"Drapeau : BelgiqueFélix Sellier","nationality":null}},{"id":"E-1921-2","year":"1921","leg":"2","title":"Le Havre - Cherbourg","start":{"city":"Le Havre","country":"France","lng":"0.107929","lat":"49.49437"},"finish":{"city":"49.49437,0.107929","country":"Toulon","lng":"5.928,43.124228","lat":"5.928"},"length":"43.124228","type":"433","winner":{"name":"43.124228,5.928","nationality":null},"leader":{"name":"Drapeau : FranceFélix Goethals","nationality":null}},{"id":"E-1921-3","year":"1921","leg":"3","title":"Cherbourg - Brest","start":{"city":"Cherbourg","country":"France","lng":"-1.625298","lat":"49.639093"},"finish":{"city":"49.639093,-1.625298","country":"Nice","lng":"7.265592,43.696036","lat":"7.265592"},"length":"43.696036","type":"340","winner":{"name":"43.696036,7.265592","nationality":null},"leader":{"name":"Drapeau : FranceFélix Goethals","nationality":null}},{"id":"E-1921-4","year":"1921","leg":"4","title":"Brest - Les Sables-d'Olonne","start":{"city":"Brest","country":"France","lng":"-4.486076","lat":"48.390394"},"finish":{"city":"48.390394,-4.486076","country":"Grenoble","lng":"5.724524,45.188529","lat":"5.724524"},"length":"45.188529","type":"364","winner":{"name":"45.188529,5.724524","nationality":null},"leader":{"name":"Drapeau : FranceRomain Bellenger","nationality":null}},{"id":"E-1921-5","year":"1921","leg":"5","title":"Les Sables-d'Olonne - Bayonne","start":{"city":"Les Sables-d'Olonne","country":"France","lng":"-1.795493","lat":"46.492958"},"finish":{"city":"46.492958,-1.795493","country":"Genève","lng":"6.142296,46.198392","lat":"6.142296"},"length":"46.198392","type":"405","winner":{"name":"46.198392,6.142296","nationality":null},"leader":{"name":"Drapeau : BelgiqueLéon Scieur","nationality":null}},{"id":"E-1921-6","year":"1921","leg":"6","title":"Bayonne - Luchon","start":{"city":"Bayonne","country":"France","lng":"-1.474841","lat":"43.492949"},"finish":{"city":"43.492949,-1.474841","country":"Strasbourg","lng":"7.747882,48.583148","lat":"7.747882"},"length":"48.583148","type":"412","winner":{"name":"48.583148,7.747882","nationality":null},"leader":{"name":"Drapeau : BelgiqueLouis Mottiat","nationality":null}},{"id":"E-1921-7","year":"1921","leg":"7","title":"Luchon - Perpignan","start":{"city":"Luchon","country":"France","lng":"0.592943","lat":"42.788963"},"finish":{"city":"42.788963,0.592943","country":"Metz","lng":"6.176905,49.119666","lat":"6.176905"},"length":"49.119666","type":"482","winner":{"name":"49.119666,6.176905","nationality":null},"leader":{"name":"Drapeau : BelgiqueLouis Mottiat","nationality":null}},{"id":"E-1921-8","year":"1921","leg":"8","title":"Perpignan - Toulon","start":{"city":"Perpignan","country":"France","lng":"2.895872","lat":"42.698684"},"finish":{"city":"42.698684,2.895872","country":"Dunkerque","lng":"2.375202,51.03456","lat":"2.375202"},"length":"51.03456","type":"326","winner":{"name":"51.03456,2.375202","nationality":null},"leader":{"name":"Drapeau : BelgiqueHector Heusghem","nationality":null}},{"id":"E-1921-9","year":"1921","leg":"9","title":"Toulon - Nice","start":{"city":"Toulon","country":"France","lng":"5.928","lat":"43.124228"},"finish":{"city":"43.124228,5.928","country":"Paris","lng":"2.352222,48.856614","lat":"2.352222"},"length":"48.856614","type":"323","winner":{"name":"48.856614,2.352222","nationality":null},"leader":{"name":"Drapeau : BelgiqueLouis Mottiat","nationality":null}},{"id":"E-1922-1","year":"1922","leg":"1","title":"Paris - Le Havre","start":{"city":"Paris","country":"France","lng":"2.352222","lat":"48.856614"},"finish":{"city":"48.856614,2.352222","country":"Le Havre","lng":"0.107929,49.49437","lat":"0.107929"},"length":"49.49437","type":"388","winner":{"name":"49.49437,0.107929","nationality":null},"leader":{"name":"Drapeau de France Robert Jacquinot (FRA)","nationality":null}},{"id":"E-1922-10","year":"1922","leg":"10","title":"Nice - Briançon","start":{"city":"Nice","country":"France","lng":"7.265592","lat":"43.696036"},"finish":{"city":"43.696036,7.265592","country":"Cherbourg","lng":"-1.625298,49.639093","lat":"-1.625298"},"length":"49.639093","type":"411","winner":{"name":"49.639093,-1.625298","nationality":null},"leader":{"name":"Drapeau de Belgique Philippe Thys (BEL)","nationality":null}},{"id":"E-1922-11","year":"1922","leg":"11","title":"Briançon - Genève","start":{"city":"Briançon","country":"France","lng":"6.643179","lat":"44.899416"},"finish":{"city":"44.899416,6.643179","country":"Brest","lng":"-4.486076,48.390394","lat":"-4.486076"},"length":"48.390394","type":"284","winner":{"name":"48.390394,-4.486076","nationality":null},"leader":{"name":"Drapeau de Belgique Philippe Thys (BEL)","nationality":null}},{"id":"E-1922-12","year":"1922","leg":"12","title":"Genève - Strasbourg","start":{"city":"Genève","country":"Suisse","lng":"6.142296","lat":"46.198392"},"finish":{"city":"46.198392,6.142296","country":"Les Sables-d'Olonne","lng":"-1.795493,46.492958","lat":"-1.795493"},"length":"46.492958","type":"274","winner":{"name":"46.492958,-1.795493","nationality":null},"leader":{"name":"Drapeau de Belgique Philippe Thys (BEL)","nationality":null}},{"id":"E-1922-13","year":"1922","leg":"13","title":"Strasbourg - Metz","start":{"city":"Strasbourg","country":"France","lng":"7.747882","lat":"48.583148"},"finish":{"city":"48.583148,7.747882","country":"Bayonne","lng":"-1.474841,43.492949","lat":"-1.474841"},"length":"43.492949","type":"260","winner":{"name":"43.492949,-1.474841","nationality":null},"leader":{"name":"Drapeau de Belgique Émile Masson (BEL)","nationality":null}},{"id":"E-1922-14","year":"1922","leg":"14","title":"Metz - Dunkerque","start":{"city":"Metz","country":"France","lng":"6.176905","lat":"49.119666"},"finish":{"city":"49.119666,6.176905","country":"Luchon","lng":"0.592943,42.788963","lat":"0.592943"},"length":"42.788963","type":"371","winner":{"name":"42.788963,0.592943","nationality":null},"leader":{"name":"Drapeau de Belgique Émile Masson (BEL)","nationality":null}},{"id":"E-1922-15","year":"1922","leg":"15","title":"Dunkerque - Paris","start":{"city":"Dunkerque","country":"France","lng":"2.375202","lat":"51.03456"},"finish":{"city":"51.03456,2.375202","country":"Perpignan","lng":"2.895872,42.698684","lat":"2.895872"},"length":"42.698684","type":"300","winner":{"name":"42.698684,2.895872","nationality":null},"leader":{"name":"Drapeau d'Italie Federico Gay (ITA)","nationality":null}},{"id":"E-1922-2","year":"1922","leg":"2","title":"Le Havre - Cherbourg","start":{"city":"Le Havre","country":"France","lng":"0.107929","lat":"49.49437"},"finish":{"city":"49.49437,0.107929","country":"Toulon","lng":"5.928,43.124228","lat":"5.928"},"length":"43.124228","type":"432","winner":{"name":"43.124228,5.928","nationality":null},"leader":{"name":"Drapeau de Belgique Félix Sellier (BEL)","nationality":null}},{"id":"E-1922-3","year":"1922","leg":"3","title":"Cherbourg - Brest","start":{"city":"Cherbourg","country":"France","lng":"-1.625298","lat":"49.639093"},"finish":{"city":"49.639093,-1.625298","country":"Nice","lng":"7.265592,43.696036","lat":"7.265592"},"length":"43.696036","type":"325","winner":{"name":"43.696036,7.265592","nationality":null},"leader":{"name":"Drapeau de Belgique Philippe Thys (BEL)","nationality":null}},{"id":"E-1922-4","year":"1922","leg":"4","title":"Brest - Les Sables-d'Olonne","start":{"city":"Brest","country":"France","lng":"-4.486076","lat":"48.390394"},"finish":{"city":"48.390394,-4.486076","country":"Briançon","lng":"6.643179,44.899416","lat":"6.643179"},"length":"44.899416","type":"364","winner":{"name":"44.899416,6.643179","nationality":null},"leader":{"name":"Drapeau de France Romain Bellenger (FRA)","nationality":null}},{"id":"E-1922-5","year":"1922","leg":"5","title":"Les Sables-d'Olonne - Bayonne","start":{"city":"Les Sables-d'Olonne","country":"France","lng":"-1.795493","lat":"46.492958"},"finish":{"city":"46.492958,-1.795493","country":"Genève","lng":"6.142296,46.198392","lat":"6.142296"},"length":"46.198392","type":"405","winner":{"name":"46.198392,6.142296","nationality":null},"leader":{"name":"Drapeau de France Robert Jacquinot (FRA)","nationality":null}},{"id":"E-1922-6","year":"1922","leg":"6","title":"Bayonne - Luchon","start":{"city":"Bayonne","country":"France","lng":"-1.474841","lat":"43.492949"},"finish":{"city":"43.492949,-1.474841","country":"Strasbourg","lng":"7.747882,48.583148","lat":"7.747882"},"length":"48.583148","type":"412","winner":{"name":"48.583148,7.747882","nationality":null},"leader":{"name":"Drapeau de Belgique Philippe Thys (BEL)","nationality":null}},{"id":"E-1922-7","year":"1922","leg":"7","title":"Luchon - Perpignan","start":{"city":"Luchon","country":"France","lng":"0.592943","lat":"42.788963"},"finish":{"city":"42.788963,0.592943","country":"Metz","lng":"6.176905,49.119666","lat":"6.176905"},"length":"49.119666","type":"482","winner":{"name":"49.119666,6.176905","nationality":null},"leader":{"name":"Drapeau de France Jean Alavoine (FRA)","nationality":null}},{"id":"E-1922-8","year":"1922","leg":"8","title":"Perpignan - Toulon","start":{"city":"Perpignan","country":"France","lng":"2.895872","lat":"42.698684"},"finish":{"city":"42.698684,2.895872","country":"Dunkerque","lng":"2.375202,51.03456","lat":"2.375202"},"length":"51.03456","type":"326","winner":{"name":"51.03456,2.375202","nationality":null},"leader":{"name":"Drapeau de France Jean Alavoine (FRA)","nationality":null}},{"id":"E-1922-9","year":"1922","leg":"9","title":"Toulon - Nice","start":{"city":"Toulon","country":"France","lng":"5.928","lat":"43.124228"},"finish":{"city":"43.124228,5.928","country":"Paris","lng":"2.352222,48.856614","lat":"2.352222"},"length":"48.856614","type":"323","winner":{"name":"48.856614,2.352222","nationality":null},"leader":{"name":"Drapeau de France Jean Alavoine (FRA)","nationality":null}},{"id":"E-1923-1","year":"1923","leg":"1","title":"Paris - Le Havre","start":{"city":"Paris","country":"France","lng":"2.352222","lat":"48.856614"},"finish":{"city":"48.856614,2.352222","country":"Le Havre","lng":"0.107929,49.49437","lat":"0.107929"},"length":"49.49437","type":"381","winner":{"name":"49.49437,0.107929","nationality":null},"leader":{"name":"Robert Jacquinot Drapeau de France France","nationality":null}},{"id":"E-1923-10","year":"1923","leg":"10","title":"Nice - Briançon","start":{"city":"Nice","country":"France","lng":"7.265592","lat":"43.696036"},"finish":{"city":"43.696036,7.265592","country":"Cherbourg","lng":"-1.625298,49.639093","lat":"-1.625298"},"length":"49.639093","type":"427","winner":{"name":"49.639093,-1.625298","nationality":null},"leader":{"name":"Lucien Buysse Drapeau belge Belgique","nationality":null}},{"id":"E-1923-11","year":"1923","leg":"11","title":"Briançon - Genève","start":{"city":"Briançon","country":"France","lng":"6.643179","lat":"44.899416"},"finish":{"city":"44.899416,6.643179","country":"Brest","lng":"-4.486076,48.390394","lat":"-4.486076"},"length":"48.390394","type":"281","winner":{"name":"48.390394,-4.486076","nationality":null},"leader":{"name":"Jean Alavoine Drapeau de France France","nationality":null}},{"id":"E-1923-12","year":"1923","leg":"12","title":"Genève - Strasbourg","start":{"city":"Genève","country":"Suisse","lng":"6.142296","lat":"46.198392"},"finish":{"city":"46.198392,6.142296","country":"Les Sables-d'Olonne","lng":"-1.795493,46.492958","lat":"-1.795493"},"length":"46.492958","type":"275","winner":{"name":"46.492958,-1.795493","nationality":null},"leader":{"name":"Henri Pélissier Drapeau de France France","nationality":null}},{"id":"E-1923-13","year":"1923","leg":"13","title":"Strasbourg - Metz","start":{"city":"Strasbourg","country":"France","lng":"7.747882","lat":"48.583148"},"finish":{"city":"48.583148,7.747882","country":"Bayonne","lng":"-1.474841,43.492949","lat":"-1.474841"},"length":"43.492949","type":"260","winner":{"name":"43.492949,-1.474841","nationality":null},"leader":{"name":"Henri Pélissier Drapeau de France France","nationality":null}},{"id":"E-1923-14","year":"1923","leg":"14","title":"Metz - Dunkerque","start":{"city":"Metz","country":"France","lng":"6.176905","lat":"49.119666"},"finish":{"city":"49.119666,6.176905","country":"Luchon","lng":"0.592943,42.788963","lat":"0.592943"},"length":"42.788963","type":"377","winner":{"name":"42.788963,0.592943","nationality":null},"leader":{"name":"Joseph Muller Drapeau de France France","nationality":null}},{"id":"E-1923-15","year":"1923","leg":"15","title":"Dunkerque - Paris","start":{"city":"Dunkerque","country":"France","lng":"2.375202","lat":"51.03456"},"finish":{"city":"51.03456,2.375202","country":"Perpignan","lng":"2.895872,42.698684","lat":"2.895872"},"length":"42.698684","type":"300","winner":{"name":"42.698684,2.895872","nationality":null},"leader":{"name":"Romain Bellenger Drapeau de France France","nationality":null}},{"id":"E-1923-2","year":"1923","leg":"2","title":"Le Havre - Cherbourg","start":{"city":"Le Havre","country":"France","lng":"0.107929","lat":"49.49437"},"finish":{"city":"49.49437,0.107929","country":"Toulon","lng":"5.928,43.124228","lat":"5.928"},"length":"43.124228","type":"433","winner":{"name":"43.124228,5.928","nationality":null},"leader":{"name":"Félix Goethals Drapeau de France France","nationality":null}},{"id":"E-1923-3","year":"1923","leg":"3","title":"Cherbourg - Brest","start":{"city":"Cherbourg","country":"France","lng":"-1.625298","lat":"49.639093"},"finish":{"city":"49.639093,-1.625298","country":"Nice","lng":"7.265592,43.696036","lat":"7.265592"},"length":"43.696036","type":"343","winner":{"name":"43.696036,7.265592","nationality":null},"leader":{"name":"Félix Goethals Drapeau de France France","nationality":null}},{"id":"E-1923-4","year":"1923","leg":"4","title":"Brest - Les Sables-d'Olonne","start":{"city":"Brest","country":"France","lng":"-4.486076","lat":"48.390394"},"finish":{"city":"48.390394,-4.486076","country":"Briançon","lng":"6.643179,44.899416","lat":"6.643179"},"length":"44.899416","type":"371","winner":{"name":"44.899416,6.643179","nationality":null},"leader":{"name":"Ottavio Bottecchia Italie","nationality":null}},{"id":"E-1923-5","year":"1923","leg":"5","title":"Les Sables-d'Olonne - Bayonne","start":{"city":"Les Sables-d'Olonne","country":"France","lng":"-1.795493","lat":"46.492958"},"finish":{"city":"46.492958,-1.795493","country":"Genève","lng":"6.142296,46.198392","lat":"6.142296"},"length":"46.198392","type":"405","winner":{"name":"46.198392,6.142296","nationality":null},"leader":{"name":"Henri Pélissier Drapeau de France France","nationality":null}},{"id":"E-1923-6","year":"1923","leg":"6","title":"Bayonne - Luchon","start":{"city":"Bayonne","country":"France","lng":"-1.474841","lat":"43.492949"},"finish":{"city":"43.492949,-1.474841","country":"Strasbourg","lng":"7.747882,48.583148","lat":"7.747882"},"length":"48.583148","type":"412","winner":{"name":"48.583148,7.747882","nationality":null},"leader":{"name":"Albert Dejonghe Drapeau belge Belgique","nationality":null}},{"id":"E-1923-7","year":"1923","leg":"7","title":"Luchon - Perpignan","start":{"city":"Luchon","country":"France","lng":"0.592943","lat":"42.788963"},"finish":{"city":"42.788963,0.592943","country":"Metz","lng":"6.176905,49.119666","lat":"6.176905"},"length":"49.119666","type":"482","winner":{"name":"49.119666,6.176905","nationality":null},"leader":{"name":"Robert Jacquinot Drapeau de France France","nationality":null}},{"id":"E-1923-8","year":"1923","leg":"8","title":"Perpignan - Toulon","start":{"city":"Perpignan","country":"France","lng":"2.895872","lat":"42.698684"},"finish":{"city":"42.698684,2.895872","country":"Dunkerque","lng":"2.375202,51.03456","lat":"2.375202"},"length":"51.03456","type":"326","winner":{"name":"51.03456,2.375202","nationality":null},"leader":{"name":"Jean Alavoine Drapeau de France France","nationality":null}},{"id":"E-1923-9","year":"1923","leg":"9","title":"Toulon - Nice","start":{"city":"Toulon","country":"France","lng":"5.928","lat":"43.124228"},"finish":{"city":"43.124228,5.928","country":"Paris","lng":"2.352222,48.856614","lat":"2.352222"},"length":"48.856614","type":"323","winner":{"name":"48.856614,2.352222","nationality":null},"leader":{"name":"Jean Alavoine Drapeau de France France","nationality":null}},{"id":"E-1924-1","year":"1924","leg":"1","title":"Paris - Le Havre","start":{"city":"Paris","country":"France","lng":"2.352222","lat":"48.856614"},"finish":{"city":"48.856614,2.352222","country":"Le Havre","lng":"0.107929,49.49437","lat":"0.107929"},"length":"49.49437","type":"381","winner":{"name":"49.49437,0.107929","nationality":null},"leader":{"name":"Ottavio Bottecchia Drapeau : ItalieItalie","nationality":null}},{"id":"E-1924-10","year":"1924","leg":"10","title":"Nice - Briançon","start":{"city":"Nice","country":"France","lng":"7.265592","lat":"43.696036"},"finish":{"city":"43.696036,7.265592","country":"Cherbourg","lng":"-1.625298,49.639093","lat":"-1.625298"},"length":"49.639093","type":"427","winner":{"name":"49.639093,-1.625298","nationality":null},"leader":{"name":"Louis Mottiat Drapeau belge Belgique","nationality":null}},{"id":"E-1924-11","year":"1924","leg":"11","title":"Briançon - Gex","start":{"city":"Briançon","country":"France","lng":"6.643179","lat":"44.899416"},"finish":{"city":"44.899416,6.643179","country":"Brest","lng":"-4.486076,48.390394","lat":"-4.486076"},"length":"48.390394","type":"280","winner":{"name":"48.390394,-4.486076","nationality":null},"leader":{"name":"Philippe Thys Drapeau belge Belgique","nationality":null}},{"id":"E-1924-12","year":"1924","leg":"12","title":"Gex - Strasbourg","start":{"city":"Gex","country":"France","lng":"6.058036","lat":"46.334191"},"finish":{"city":"46.334191,6.058036","country":"Les Sables-d'Olonne","lng":"-1.795493,46.492958","lat":"-1.795493"},"length":"46.492958","type":"275","winner":{"name":"46.492958,-1.795493","nationality":null},"leader":{"name":"Giovanni Brunero Drapeau : ItalieItalie","nationality":null}},{"id":"E-1924-13","year":"1924","leg":"13","title":"Strasbourg - Metz","start":{"city":"Strasbourg","country":"France","lng":"7.747882","lat":"48.583148"},"finish":{"city":"48.583148,7.747882","country":"Bayonne","lng":"-1.474841,43.492949","lat":"-1.474841"},"length":"43.492949","type":"307","winner":{"name":"43.492949,-1.474841","nationality":null},"leader":{"name":"Nicolas Frantz Drapeau du Luxembourg Luxembourg","nationality":null}},{"id":"E-1924-14","year":"1924","leg":"14","title":"Metz - Dunkerque","start":{"city":"Metz","country":"France","lng":"6.176905","lat":"49.119666"},"finish":{"city":"49.119666,6.176905","country":"Luchon","lng":"0.592943,42.788963","lat":"0.592943"},"length":"42.788963","type":"360","winner":{"name":"42.788963,0.592943","nationality":null},"leader":{"name":"Nicolas Frantz Drapeau du Luxembourg Luxembourg","nationality":null}},{"id":"E-1924-15","year":"1924","leg":"15","title":"Dunkerque - Paris","start":{"city":"Dunkerque","country":"France","lng":"2.375202","lat":"51.03456"},"finish":{"city":"51.03456,2.375202","country":"Perpignan","lng":"2.895872,42.698684","lat":"2.895872"},"length":"42.698684","type":"300","winner":{"name":"42.698684,2.895872","nationality":null},"leader":{"name":"Arsène Alancourt Drapeau de France France","nationality":null}},{"id":"E-1924-2","year":"1924","leg":"2","title":"Le Havre - Cherbourg","start":{"city":"Le Havre","country":"France","lng":"0.107929","lat":"49.49437"},"finish":{"city":"49.49437,0.107929","country":"Toulon","lng":"5.928,43.124228","lat":"5.928"},"length":"43.124228","type":"433","winner":{"name":"43.124228,5.928","nationality":null},"leader":{"name":"Romain Bellenger Drapeau de France France","nationality":null}},{"id":"E-1924-3","year":"1924","leg":"3","title":"Cherbourg - Brest","start":{"city":"Cherbourg","country":"France","lng":"-1.625298","lat":"49.639093"},"finish":{"city":"49.639093,-1.625298","country":"Nice","lng":"7.265592,43.696036","lat":"7.265592"},"length":"43.696036","type":"343","winner":{"name":"43.696036,7.265592","nationality":null},"leader":{"name":"Ottavio Bottecchia Drapeau : ItalieItalie","nationality":null}},{"id":"E-1924-4","year":"1924","leg":"4","title":"Brest - Les Sables-d'Olonne","start":{"city":"Brest","country":"France","lng":"-4.486076","lat":"48.390394"},"finish":{"city":"48.390394,-4.486076","country":"Briançon","lng":"6.643179,44.899416","lat":"6.643179"},"length":"44.899416","type":"371","winner":{"name":"44.899416,6.643179","nationality":null},"leader":{"name":"Romain Bellenger Drapeau de France France","nationality":null}},{"id":"E-1924-5","year":"1924","leg":"5","title":"Les Sables-d'Olonne - Bayonne","start":{"city":"Les Sables-d'Olonne","country":"France","lng":"-1.795493","lat":"46.492958"},"finish":{"city":"46.492958,-1.795493","country":"Gex","lng":"6.058036,46.334191","lat":"6.058036"},