[
  {
    "id": "E-2011-01",
    "year": 2011,
    "leg": 1,
    "title": "Passage du Gois - Mont des Alouettes",
    "start": {
      "city": "Noirmoutier",
      "country": "France",
      "lat": "47.001143",
      "lng": "-2.247107"
    },
    "finish": {
      "city": "Les Herbiers",
      "country": "France",
      "lat": "46.86919",
      "lng": "-1.013388"
    },
    "length": 191,
    "type": null,
    "winner": {
      "name": "Drapeau : BelgiquePhilippe Gilbert",
      "nationality": null
    },
    "leader": {
      "name": "Drapeau : BelgiquePhilippe Gilbert",
      "nationality": null
    }
  },
  {
    "id": "E-2011-02",
    "year": 2011,
    "leg": 2,
    "title": "Les Essarts - Les Essarts",
    "start": {
      "city": "Les Essarts",
      "country": "France",
      "lat": "46.774141",
      "lng": "-1.23052"
    },
    "finish": {
      "city": "Les Essarts",
      "country": "France",
      "lat": "46.774141",
      "lng": "-1.23052"
    },
    "length": 23,
    "type": null,
    "winner": {
      "name": "Drapeau : États-UnisGarmin-Cervélo",
      "nationality": null
    },
    "leader": {
      "name": "Drapeau : NorvègeThor Hushovd",
      "nationality": null
    }
  },
  {
    "id": "E-2011-03",
    "year": 2011,
    "leg": 3,
    "title": "Olonne-sur-Mer - Redon",
    "start": {
      "city": "Olonne-sur-Mer",
      "country": "France",
      "lat": "46.536402",
      "lng": "-1.772826"
    },
    "finish": {
      "city": "Redon",
      "country": "France",
      "lat": "47.650742",
      "lng": "-2.083938"
    },
    "length": 198,
    "type": null,
    "winner": {
      "name": "Drapeau : États-UnisTyler Farrar",
      "nationality": null
    },
    "leader": {
      "name": "Drapeau : NorvègeThor Hushovd",
      "nationality": null
    }
  },
  {
    "id": "E-2011-04",
    "year": 2011,
    "leg": 4,
    "title": "Lorient - Mûr-de-Bretagne",
    "start": {
      "city": "Lorient",
      "country": "France",
      "lat": "47.748252",
      "lng": "-3.370245"
    },
    "finish": {
      "city": "Mûr-de-Bretagne",
      "country": "France",
      "lat": "48.201707",
      "lng": "-2.987594"
    },
    "length": 172,
    "type": null,
    "winner": {
      "name": "Drapeau : AustralieCadel Evans",
      "nationality": null
    },
    "leader": {
      "name": "Drapeau : NorvègeThor Hushovd",
      "nationality": null
    }
  },
  {
    "id": "E-2011-05",
    "year": 2011,
    "leg": 5,
    "title": "Carhaix-Plouguer - Cap Fréhel",
    "start": {
      "city": "Carhaix-Plouguer",
      "country": "France",
      "lat": "48.275584",
      "lng": "-3.574188"
    },
    "finish": {
      "city": "Cap Fréhel, Fréhel",
      "country": "France",
      "lat": "48.683475",
      "lng": "-2.318914"
    },
    "length": 164,
    "type": null,
    "winner": {
      "name": "Drapeau : Royaume-UniMark Cavendish",
      "nationality": null
    },
    "leader": {
      "name": "Drapeau : NorvègeThor Hushovd",
      "nationality": null
    }
  },
  {
    "id": "E-2011-06",
    "year": 2011,
    "leg": 6,
    "title": "Dinan - Lisieux",
    "start": {
      "city": "Dinan",
      "country": "France",
      "lat": "48.454366",
      "lng": "-2.047327"
    },
    "finish": {
      "city": "Lisieux",
      "country": "France",
      "lat": "49.145922",
      "lng": "0.227849"
    },
    "length": 226,
    "type": null,
    "winner": {
      "name": "Drapeau : NorvègeEdvald Boasson Hagen",
      "nationality": null
    },
    "leader": {
      "name": "Drapeau : NorvègeThor Hushovd",
      "nationality": null
    }
  },
  {
    "id": "E-2011-07",
    "year": 2011,
    "leg": 7,
    "title": "Le Mans - Châteauroux",
    "start": {
      "city": "Le Mans",
      "country": "France",
      "lat": "48.00611",
      "lng": "0.199556"
    },
    "finish": {
      "city": "Châteauroux",
      "country": "France",
      "lat": "46.811434",
      "lng": "1.686779"
    },
    "length": 218,
    "type": null,
    "winner": {
      "name": "Drapeau : Royaume-UniMark Cavendish",
      "nationality": null
    },
    "leader": {
      "name": "Drapeau : NorvègeThor Hushovd",
      "nationality": null
    }
  },
  {
    "id": "E-2011-08",
    "year": 2011,
    "leg": 8,
    "title": "Aigurande - Super-Besse",
    "start": {
      "city": "Aigurande",
      "country": "France",
      "lat": "46.434011",
      "lng": "1.828597"
    },
    "finish": {
      "city": "Super-Besse",
      "country": "France",
      "lat": "45.508022",
      "lng": "2.861518"
    },
    "length": 189,
    "type": null,
    "winner": {
      "name": "Drapeau : PortugalRui Alberto Faria da Costa",
      "nationality": null
    },
    "leader": {
      "name": "Drapeau : NorvègeThor Hushovd",
      "nationality": null
    }
  },
  {
    "id": "E-2011-09",
    "year": 2011,
    "leg": 9,
    "title": "Issoire - Saint-Flour",
    "start": {
      "city": "Issoire",
      "country": "France",
      "lat": "45.54151",
      "lng": "3.248128"
    },
    "finish": {
      "city": "Saint-Flour",
      "country": "France",
      "lat": "45.033026",
      "lng": "3.094862"
    },
    "length": 208,
    "type": null,
    "winner": {
      "name": "Drapeau : EspagneLuis León Sánchez",
      "nationality": null
    },
    "leader": {
      "name": "Drapeau : FranceThomas Voeckler",
      "nationality": null
    }
  },
  {
    "id": "E-2011-10",
    "year": 2011,
    "leg": 10,
    "title": "Aurillac - Carmaux",
    "start": {
      "city": "Aurillac",
      "country": "France",
      "lat": "44.930953",
      "lng": "2.444997"
    },
    "finish": {
      "city": "Carmaux",
      "country": "France",
      "lat": "44.050034",
      "lng": "2.16075"
    },
    "length": 158,
    "type": null,
    "winner": {
      "name": "Drapeau : AllemagneAndré Greipel",
      "nationality": null
    },
    "leader": {
      "name": "Drapeau : FranceThomas Voeckler",
      "nationality": null
    }
  },
  {
    "id": "E-2011-11",
    "year": 2011,
    "leg": 11,
    "title": "Blaye-les-Mines - Lavaur",
    "start": {
      "city": "Blaye-les-Mines",
      "country": "France",
      "lat": "44.030913",
      "lng": "2.1316"
    },
    "finish": {
      "city": "Lavaur",
      "country": "France",
      "lat": "43.699185",
      "lng": "1.820699"
    },
    "length": 167,
    "type": null,
    "winner": {
      "name": "Drapeau : Royaume-UniMark Cavendish",
      "nationality": null
    },
    "leader": {
      "name": "Drapeau : FranceThomas Voeckler",
      "nationality": null
    }
  },
  {
    "id": "E-2011-12",
    "year": 2011,
    "leg": 12,
    "title": "Cugnaux - Luz-Ardiden",
    "start": {
      "city": "Cugnaux",
      "country": "France",
      "lat": "43.537141",
      "lng": "1.344995"
    },
    "finish": {
      "city": "Luz-Ardiden",
      "country": "France",
      "lat": "42.885105",
      "lng": "-0.061335"
    },
    "length": 211,
    "type": null,
    "winner": {
      "name": "Drapeau : EspagneSamuel Sánchez",
      "nationality": null
    },
    "leader": {
      "name": "Drapeau : FranceThomas Voeckler",
      "nationality": null
    }
  },
  {
    "id": "E-2011-13",
    "year": 2011,
    "leg": 13,
    "title": "Pau - Lourdes",
    "start": {
      "city": "Pau",
      "country": "France",
      "lat": "43.2951",
      "lng": "-0.370797"
    },
    "finish": {
      "city": "Lourdes",
      "country": "France",
      "lat": "43.091463",
      "lng": "-0.045726"
    },
    "length": 152,
    "type": null,
    "winner": {
      "name": "Drapeau : NorvègeThor Hushovd",
      "nationality": null
    },
    "leader": {
      "name": "Drapeau : FranceThomas Voeckler",
      "nationality": null
    }
  },
  {
    "id": "E-2011-14",
    "year": 2011,
    "leg": 14,
    "title": "Saint-Gaudens - Plateau de Beille",
    "start": {
      "city": "Saint-Gaudens",
      "country": "France",
      "lat": "43.106895",
      "lng": "0.723763"
    },
    "finish": {
      "city": "Plateau de Beille, Aston",
      "country": "France",
      "lat": "42.709683",
      "lng": "1.702387"
    },
    "length": 168,
    "type": null,
    "winner": {
      "name": "Drapeau : BelgiqueJelle Vanendert",
      "nationality": null
    },
    "leader": {
      "name": "Drapeau : FranceThomas Voeckler",
      "nationality": null
    }
  },
  {
    "id": "E-2011-15",
    "year": 2011,
    "leg": 15,
    "title": "Limoux - Montpellier",
    "start": {
      "city": "Limoux",
      "country": "France",
      "lat": "43.053289",
      "lng": "2.218142"
    },
    "finish": {
      "city": "Montpellier",
      "country": "France",
      "lat": "43.610769",
      "lng": "3.876716"
    },
    "length": 192,
    "type": null,
    "winner": {
      "name": "Drapeau : Royaume-UniMark Cavendish",
      "nationality": null
    },
    "leader": {
      "name": "Drapeau : FranceThomas Voeckler",
      "nationality": null
    }
  },
  {
    "id": "E-2011-16",
    "year": 2011,
    "leg": 16,
    "title": "Saint-Paul-Trois-Châteaux - Gap",
    "start": {
      "city": "Saint-Paul-Trois-Châteaux",
      "country": "France",
      "lat": "44.348678",
      "lng": "4.768295"
    },
    "finish": {
      "city": "Gap",
      "country": "France",
      "lat": "44.559638",
      "lng": "6.079758"
    },
    "length": 162,
    "type": null,
    "winner": {
      "name": "Drapeau : NorvègeThor Hushovd",
      "nationality": null
    },
    "leader": {
      "name": "Drapeau : FranceThomas Voeckler",
      "nationality": null
    }
  },
  {
    "id": "E-2011-17",
    "year": 2011,
    "leg": 17,
    "title": "Gap - Pignerol (ITA)",
    "start": {
      "city": "Gap",
      "country": "France",
      "lat": "44.559638",
      "lng": "6.079758"
    },
    "finish": {
      "city": "Pignerol",
      "country": "Italie",
      "lat": "44.885026",
      "lng": "7.349995"
    },
    "length": 179,
    "type": null,
    "winner": {
      "name": "Drapeau : NorvègeEdvald Boasson Hagen",
      "nationality": null
    },
    "leader": {
      "name": "Drapeau : FranceThomas Voeckler",
      "nationality": null
    }
  },
  {
    "id": "E-2011-18",
    "year": 2011,
    "leg": 18,
    "title": "Pignerol (ITA) - Galibier-Serre Chevalier",
    "start": {
      "city": "Pignerol",
      "country": "Italie",
      "lat": "44.885026",
      "lng": "7.349995"
    },
    "finish": {
      "city": "Col du galibier, Serre-Chevalier",
      "country": "France",
      "lat": "45.06411",
      "lng": "6.40782"
    },
    "length": 200,
    "type": null,
    "winner": {
      "name": "Drapeau : LuxembourgAndy Schleck",
      "nationality": null
    },
    "leader": {
      "name": "Drapeau : FranceThomas Voeckler",
      "nationality": null
    }
  },
  {
    "id": "E-2011-19",
    "year": 2011,
    "leg": 19,
    "title": "Modane - L'Alpe d'Huez",
    "start": {
      "city": "Modane",
      "country": "France",
      "lat": "45.201491",
      "lng": "6.67292"
    },
    "finish": {
      "city": "L'Alpe d'Huez",
      "country": "France",
      "lat": "45.092624",
      "lng": "6.068348"
    },
    "length": 109,
    "type": null,
    "winner": {
      "name": "Drapeau : FrancePierre Rolland",
      "nationality": null
    },
    "leader": {
      "name": "Drapeau : LuxembourgAndy Schleck",
      "nationality": null
    }
  },
  {
    "id": "E-2011-20",
    "year": 2011,
    "leg": 20,
    "title": "Grenoble - Grenoble",
    "start": {
      "city": "Grenoble",
      "country": "France",
      "lat": "45.188529",
      "lng": "5.724524"
    },
    "finish": {
      "city": "Grenoble",
      "country": "France",
      "lat": "45.188529",
      "lng": "5.724524"
    },
    "length": 42,
    "type": null,
    "winner": {
      "name": "Drapeau : AllemagneTony Martin",
      "nationality": null
    },
    "leader": {
      "name": "Drapeau : AustralieCadel Evans",
      "nationality": null
    }
  },
  {
    "id": "E-2011-21",
    "year": 2011,
    "leg": 21,
    "title": "Créteil - Paris-Champs-Élysées",
    "start": {
      "city": "Créteil",
      "country": "France",
      "lat": "48.790367",
      "lng": "2.455572"
    },
    "finish": {
      "city": "Paris",
      "country": "France",
      "lat": "48.856614",
      "lng": "2.352222"
    },
    "length": 95,
    "type": null,
    "winner": {
      "name": "Drapeau : Royaume-UniMark Cavendish",
      "nationality": null
    },
    "leader": {
      "name": "Drapeau : AustralieCadel Evans",
      "nationality": null
    }
  },
  {
    "id": "E-2007-Prologue",
    "year": 2007,
    "leg": 0,
    "title": "Londres (GBR) - Londres (GBR)",
    "start": {
      "city": "Londres",
      "country": "Grande-Bretagne",
      "lat": "51.511214",
      "lng": "-0.119824"
    },
    "finish": {
      "city": "Londres",
      "country": "Grande-Bretagne",
      "lat": "51.511214",
      "lng": "-0.119824"
    },
    "length": 7,
    "type": null,
    "winner": {
      "name": "Drapeau : SuisseFabian Cancellara",
      "nationality": null
    },
    "leader": {
      "name": "Drapeau : SuisseFabian Cancellara",
      "nationality": null
    }
  },
  {
    "id": "E-2007-01",
    "year": 2007,
    "leg": 1,
    "title": "Londres (GBR) - Cantorbéry (GBR)",
    "start": {
      "city": "Londres",
      "country": "Grande-Bretagne",
      "lat": "51.511214",
      "lng": "-0.119824"
    },
    "finish": {
      "city": "Cantorbéry",
      "country": "Grande-Bretagne",
      "lat": "51.280233",
      "lng": "1.078909"
    },
    "length": 203,
    "type": null,
    "winner": {
      "name": "Drapeau : AustralieRobbie McEwen",
      "nationality": null
    },
    "leader": {
      "name": "Drapeau : SuisseFabian Cancellara",
      "nationality": null
    }
  },
  {
    "id": "E-2007-02",
    "year": 2007,
    "leg": 2,
    "title": "Dunkerque - Gand (BEL)",
    "start": {
      "city": "Dunkerque",
      "country": "France",
      "lat": "51.03456",
      "lng": "2.375202"
    },
    "finish": {
      "city": "Gand",
      "country": "Belgique",
      "lat": "51.053468",
      "lng": "3.73038"
    },
    "length": 167,
    "type": null,
    "winner": {
      "name": "Drapeau : BelgiqueGert Steegmans",
      "nationality": null
    },
    "leader": {
      "name": "Drapeau : SuisseFabian Cancellara",
      "nationality": null
    }
  },
  {
    "id": "E-2007-03",
    "year": 2007,
    "leg": 3,
    "title": "Waregem (BEL) - Compiègne",
    "start": {
      "city": "Waregem",
      "country": "Belgique",
      "lat": "50.886895",
      "lng": "3.423168"
    },
    "finish": {
      "city": "Compiègne",
      "country": "France",
      "lat": "49.417816",
      "lng": "2.826145"
    },
    "length": 236,
    "type": null,
    "winner": {
      "name": "Drapeau : SuisseFabian Cancellara",
      "nationality": null
    },
    "leader": {
      "name": "Drapeau : SuisseFabian Cancellara",
      "nationality": null
    }
  },
  {
    "id": "E-2007-04",
    "year": 2007,
    "leg": 4,
    "title": "Villers-Cotterêts - Joigny",
    "start": {
      "city": "Villers-Cotterêts",
      "country": "France",
      "lat": "49.255061",
      "lng": "3.090816"
    },
    "finish": {
      "city": "Joigny",
      "country": "France",
      "lat": "47.981432",
      "lng": "3.398961"
    },
    "length": 190,
    "type": null,
    "winner": {
      "name": "Drapeau : NorvègeThor Hushovd",
      "nationality": null
    },
    "leader": {
      "name": "Drapeau : SuisseFabian Cancellara",
      "nationality": null
    }
  },
  {
    "id": "E-2007-05",
    "year": 2007,
    "leg": 5,
    "title": "Chablis - Autun",
    "start": {
      "city": "Chablis",
      "country": "France",
      "lat": "47.815269",
      "lng": "3.800451"
    },
    "finish": {
      "city": "Autun",
      "country": "France",
      "lat": "46.950914",
      "lng": "4.301565"
    },
    "length": 184,
    "type": null,
    "winner": {
      "name": "Drapeau : ItalieFilippo Pozzato",
      "nationality": null
    },
    "leader": {
      "name": "Drapeau : SuisseFabian Cancellara",
      "nationality": null
    }
  },
  {
    "id": "E-2007-06",
    "year": 2007,
    "leg": 6,
    "title": "Semur-en-Auxois - Bourg-en-Bresse",
    "start": {
      "city": "Semur-en-Auxois",
      "country": "France",
      "lat": "47.490238",
      "lng": "4.33234"
    },
    "finish": {
      "city": "Bourg-en-Bresse",
      "country": "France",
      "lat": "46.20279",
      "lng": "5.219246"
    },
    "length": 200,
    "type": null,
    "winner": {
      "name": "Drapeau : BelgiqueTom Boonen",
      "nationality": null
    },
    "leader": {
      "name": "Drapeau : SuisseFabian Cancellara",
      "nationality": null
    }
  },
  {
    "id": "E-2007-07",
    "year": 2007,
    "leg": 7,
    "title": "Bourg-en-Bresse - Le Grand-Bornand",
    "start": {
      "city": "Bourg-en-Bresse",
      "country": "France",
      "lat": "46.20279",
      "lng": "5.219246"
    },
    "finish": {
      "city": "Le Grand-Bornand",
      "country": "France",
      "lat": "45.942027",
      "lng": "6.426699"
    },
    "length": 197,
    "type": null,
    "winner": {
      "name": "Drapeau : AllemagneLinus Gerdemann",
      "nationality": null
    },
    "leader": {
      "name": "Drapeau : AllemagneLinus Gerdemann",
      "nationality": null
    }
  },
  {
    "id": "E-2007-08",
    "year": 2007,
    "leg": 8,
    "title": "Le Grand-Bornand - Tignes",
    "start": {
      "city": "Le Grand-Bornand",
      "country": "France",
      "lat": "45.942027",
      "lng": "6.426699"
    },
    "finish": {
      "city": "Tignes",
      "country": "France",
      "lat": "45.468323",
      "lng": "6.905578"
    },
    "length": 165,
    "type": null,
    "winner": {
      "name": "Drapeau : DanemarkMichael Rasmussen",
      "nationality": null
    },
    "leader": {
      "name": "Drapeau : DanemarkMichael Rasmussen",
      "nationality": null
    }
  },
  {
    "id": "E-2007-09",
    "year": 2007,
    "leg": 9,
    "title": "Val d'Isère - Briançon",
    "start": {
      "city": "Val d'Isère",
      "country": "France",
      "lat": "45.448034",
      "lng": "6.980226"
    },
    "finish": {
      "city": "Briançon",
      "country": "France",
      "lat": "44.899416",
      "lng": "6.643179"
    },
    "length": 161,
    "type": null,
    "winner": {
      "name": "Drapeau : ColombieMauricio Soler",
      "nationality": null
    },
    "leader": {
      "name": "Drapeau : DanemarkMichael Rasmussen",
      "nationality": null
    }
  },
  {
    "id": "E-2007-10",
    "year": 2007,
    "leg": 10,
    "title": "Tallard - Marseille",
    "start": {
      "city": "Tallard",
      "country": "France",
      "lat": "44.461865",
      "lng": "6.055327"
    },
    "finish": {
      "city": "Marseille",
      "country": "France",
      "lat": "43.296482",
      "lng": "5.36978"
    },
    "length": 229,
    "type": null,
    "winner": {
      "name": "Drapeau : FranceCédric Vasseur",
      "nationality": null
    },
    "leader": {
      "name": "Drapeau : DanemarkMichael Rasmussen",
      "nationality": null
    }
  },
  {
    "id": "E-2007-11",
    "year": 2007,
    "leg": 11,
    "title": "Marseille - Montpellier",
    "start": {
      "city": "Marseille",
      "country": "France",
      "lat": "43.296482",
      "lng": "5.36978"
    },
    "finish": {
      "city": "Montpellier",
      "country": "France",
      "lat": "43.610769",
      "lng": "3.876716"
    },
    "length": 180,
    "type": null,
    "winner": {
      "name": "Drapeau : Afrique du SudRobert Hunter",
      "nationality": null
    },
    "leader": {
      "name": "Drapeau : DanemarkMichael Rasmussen",
      "nationality": null
    }
  },
  {
    "id": "E-2007-12",
    "year": 2007,
    "leg": 12,
    "title": "Montpellier - Castres",
    "start": {
      "city": "Montpellier",
      "country": "France",
      "lat": "43.610769",
      "lng": "3.876716"
    },
    "finish": {
      "city": "Castres",
      "country": "France",
      "lat": "43.606214",
      "lng": "2.241295"
    },
    "length": 179,
    "type": null,
    "winner": {
      "name": "Drapeau : BelgiqueTom Boonen",
      "nationality": null
    },
    "leader": {
      "name": "Drapeau : DanemarkMichael Rasmussen",
      "nationality": null
    }
  },
  {
    "id": "E-2007-13",
    "year": 2007,
    "leg": 13,
    "title": "Albi - Albi",
    "start": {
      "city": "Albi",
      "country": "France",
      "lat": "43.926896",
      "lng": "2.146343"
    },
    "finish": {
      "city": "Albi",
      "country": "France",
      "lat": "43.926896",
      "lng": "2.146343"
    },
    "length": 54,
    "type": null,
    "winner": {
      "name": "Drapeau : AustralieCadel Evans",
      "nationality": null
    },
    "leader": {
      "name": "Drapeau : DanemarkMichael Rasmussen",
      "nationality": null
    }
  },
  {
    "id": "E-2007-14",
    "year": 2007,
    "leg": 14,
    "title": "Mazamet - Plateau de Beille",
    "start": {
      "city": "Mazamet",
      "country": "France",
      "lat": "43.490103",
      "lng": "2.376579"
    },
    "finish": {
      "city": "Plateau de Beille, Aston",
      "country": "France",
      "lat": "42.709683",
      "lng": "1.702387"
    },
    "length": 197,
    "type": null,
    "winner": {
      "name": "Drapeau : EspagneAlberto Contador",
      "nationality": null
    },
    "leader": {
      "name": "Drapeau : DanemarkMichael Rasmussen",
      "nationality": null
    }
  },
  {
    "id": "E-2007-15",
    "year": 2007,
    "leg": 15,
    "title": "Foix - Loudenvielle (Val-Louron)",
    "start": {
      "city": "Foix",
      "country": "France",
      "lat": "42.964127",
      "lng": "1.605232"
    },
    "finish": {
      "city": "Loudenvielle",
      "country": "France",
      "lat": "42.795702",
      "lng": "0.412744"
    },
    "length": 196,
    "type": null,
    "winner": {
      "name": "Drapeau : LuxembourgKim Kirchen",
      "nationality": null
    },
    "leader": {
      "name": "Drapeau : DanemarkMichael Rasmussen",
      "nationality": null
    }
  },
  {
    "id": "E-2007-16",
    "year": 2007,
    "leg": 16,
    "title": "Orthez - Gourette (Col d'Aubisque)",
    "start": {
      "city": "Orthez",
      "country": "France",
      "lat": "43.48756",
      "lng": "-0.773928"
    },
    "finish": {
      "city": "Gourette, Eaux-Bonnes",
      "country": "France",
      "lat": "42.958836",
      "lng": "-0.332111"
    },
    "length": 218,
    "type": null,
    "winner": {
      "name": "Drapeau : DanemarkMichael Rasmussen",
      "nationality": null
    },
    "leader": {
      "name": "Drapeau : DanemarkMichael Rasmussen[18]",
      "nationality": null
    }
  },
  {
    "id": "E-2007-17",
    "year": 2007,
    "leg": 17,
    "title": "Pau - Castelsarrasin",
    "start": {
      "city": "Pau",
      "country": "France",
      "lat": "43.2951",
      "lng": "-0.370797"
    },
    "finish": {
      "city": "Castelsarrasin",
      "country": "France",
      "lat": "44.039889",
      "lng": "1.107132"
    },
    "length": 188,
    "type": null,
    "winner": {
      "name": "Drapeau : ItalieDaniele Bennati",
      "nationality": null
    },
    "leader": {
      "name": "Drapeau : EspagneAlberto Contador",
      "nationality": null
    }
  },
  {
    "id": "E-2007-18",
    "year": 2007,
    "leg": 18,
    "title": "Cahors - Angoulême",
    "start": {
      "city": "Cahors",
      "country": "France",
      "lat": "44.447523",
      "lng": "1.441989"
    },
    "finish": {
      "city": "Angoulême",
      "country": "France",
      "lat": "45.648377",
      "lng": "0.156237"
    },
    "length": 211,
    "type": null,
    "winner": {
      "name": "Drapeau : FranceSandy Casar",
      "nationality": null
    },
    "leader": {
      "name": "Drapeau : EspagneAlberto Contador",
      "nationality": null
    }
  },
  {
    "id": "E-2007-19",
    "year": 2007,
    "leg": 19,
    "title": "Cognac - Angoulême",
    "start": {
      "city": "Cognac",
      "country": "France",
      "lat": "45.691046",
      "lng": "-0.328744"
    },
    "finish": {
      "city": "Angoulême",
      "country": "France",
      "lat": "45.648377",
      "lng": "0.156237"
    },
    "length": 55,
    "type": null,
    "winner": {
      "name": "Drapeau : États-UnisLevi Leipheimer",
      "nationality": null
    },
    "leader": {
      "name": "Drapeau : EspagneAlberto Contador",
      "nationality": null
    }
  },
  {
    "id": "E-2007-20",
    "year": 2007,
    "leg": 20,
    "title": "Marcoussis - Paris-Champs-Élysées",
    "start": {
      "city": "Marcoussis",
      "country": "France",
      "lat": "48.642446",
      "lng": "2.229881"
    },
    "finish": {
      "city": "Paris",
      "country": "France",
      "lat": "48.856614",
      "lng": "2.352222"
    },
    "length": 130,
    "type": null,
    "winner": {
      "name": "Drapeau : ItalieDaniele Bennati",
      "nationality": null
    },
    "leader": {
      "name": "Drapeau : EspagneAlberto Contador",
      "nationality": null
    }
  },
  {
    "id": "E-1982-Prologue",
    "year": 1982,
    "leg": 0,
    "title": "Bâle (SUI) - Bâle (SUI)",
    "start": {
      "city": "Bâle",
      "country": "Suisse",
      "lat": "47.557421",
      "lng": "7.592573"
    },
    "finish": {
      "city": "Bâle",
      "country": "Suisse",
      "lat": "47.557421",
      "lng": "7.592573"
    },
    "length": 7,
    "type": "Contre-la-montre",
    "winner": {
      "name": "Drapeau : FranceBernard Hinault",
      "nationality": null
    },
    "leader": {
      "name": "Drapeau : FranceBernard Hinault",
      "nationality": null
    }
  },
  {
    "id": "E-1982-01",
    "year": 1982,
    "leg": 1,
    "title": "Schupfart (SUI) - Möhlin (SUI)",
    "start": {
      "city": "Schupfart",
      "country": "Suisse",
      "lat": "47.514231",
      "lng": "7.962998"
    },
    "finish": {
      "city": "Möhlin",
      "country": "Suisse",
      "lat": "47.557187",
      "lng": "7.845197"
    },
    "length": 207,
    "type": "Étape de montage moyenne",
    "winner": {
      "name": "Drapeau : BelgiqueLudo Peeters",
      "nationality": null
    },
    "leader": {
      "name": "Drapeau : BelgiqueLudo Peeters",
      "nationality": null
    }
  },
  {
    "id": "E-1982-02",
    "year": 1982,
    "leg": 2,
    "title": "Bâle (SUI) - Nancy",
    "start": {
      "city": "Bâle",
      "country": "Suisse",
      "lat": "47.557421",
      "lng": "7.592573"
    },
    "finish": {
      "city": "Nancy",
      "country": "France",
      "lat": "48.692054",
      "lng": "6.184417"
    },
    "length": 250,
    "type": "Étape de plaine",
    "winner": {
      "name": "Drapeau : AustraliePhil Anderson",
      "nationality": null
    },
    "leader": {
      "name": "Drapeau : AustraliePhil Anderson",
      "nationality": null
    }
  },
  {
    "id": "E-1982-03",
    "year": 1982,
    "leg": 3,
    "title": "Nancy - Longwy",
    "start": {
      "city": "Nancy",
      "country": "France",
      "lat": "48.692054",
      "lng": "6.184417"
    },
    "finish": {
      "city": "Longwy",
      "country": "France",
      "lat": "49.519919",
      "lng": "5.761773"
    },
    "length": 134,
    "type": "Étape de plaine",
    "winner": {
      "name": "Drapeau : BelgiqueDaniel Willems",
      "nationality": null
    },
    "leader": {
      "name": "Drapeau : AustraliePhil Anderson",
      "nationality": null
    }
  },
  {
    "id": "E-1982-04",
    "year": 1982,
    "leg": 4,
    "title": "Beauraing (BEL) - Mouscron (BEL)",
    "start": {
      "city": "Beauraing",
      "country": "Belgique",
      "lat": "50.110281",
      "lng": "4.955435"
    },
    "finish": {
      "city": "Mouscron",
      "country": "Belgique",
      "lat": "50.743754",
      "lng": "3.220815"
    },
    "length": 219,
    "type": "Étape de plaine",
    "winner": {
      "name": "Drapeau : Pays-BasGerrie Knetemann",
      "nationality": null
    },
    "leader": {
      "name": "Drapeau : AustraliePhil Anderson",
      "nationality": null
    }
  },
  {
    "id": "E-1982-05",
    "year": 1982,
    "leg": 5,
    "title": "Orchies - Fontaine-au-Pire",
    "start": {
      "city": "Orchies",
      "country": "France",
      "lat": "50.4745",
      "lng": "3.2428"
    },
    "finish": {
      "city": "Fontaine-au-Pire",
      "country": "France",
      "lat": "50.13042",
      "lng": "3.375606"
    },
    "length": 73,
    "type": "Contre-la-montre par équipes",
    "winner": {
      "name": "Étape annulée *",
      "nationality": null
    },
    "leader": {
      "name": "Drapeau : AustraliePhil Anderson",
      "nationality": null
    }
  },
  {
    "id": "E-1982-06",
    "year": 1982,
    "leg": 6,
    "title": "Lille - Lille",
    "start": {
      "city": "Lille",
      "country": "France",
      "lat": "50.62925",
      "lng": "3.057256"
    },
    "finish": {
      "city": "Lille",
      "country": "France",
      "lat": "50.62925",
      "lng": "3.057256"
    },
    "length": 233,
    "type": "Étape de plaine",
    "winner": {
      "name": "Drapeau : Pays-BasJan Raas",
      "nationality": null
    },
    "leader": {
      "name": "Drapeau : AustraliePhil Anderson",
      "nationality": null
    }
  },
  {
    "id": "E-1982-07",
    "year": 1982,
    "leg": 7,
    "title": "Cancale - Concarneau",
    "start": {
      "city": "Cancale",
      "country": "France",
      "lat": "48.67707",
      "lng": "-1.852279"
    },
    "finish": {
      "city": "Concarneau",
      "country": "France",
      "lat": "47.872834",
      "lng": "-3.920734"
    },
    "length": 234,
    "type": "Étape de plaine",
    "winner": {
      "name": "Drapeau : BelgiquePol Verschuere",
      "nationality": null
    },
    "leader": {
      "name": "Drapeau : AustraliePhil Anderson",
      "nationality": null
    }
  },
  {
    "id": "E-1982-08",
    "year": 1982,
    "leg": 8,
    "title": "Concarneau - Châteaulin",
    "start": {
      "city": "Concarneau",
      "country": "France",
      "lat": "47.872834",
      "lng": "-3.920734"
    },
    "finish": {
      "city": "Châteaulin",
      "country": "France",
      "lat": "48.195389",
      "lng": "-4.094207"
    },
    "length": 200,
    "type": "Étape de plaine",
    "winner": {
      "name": "Drapeau : BelgiqueFrank Hoste",
      "nationality": null
    },
    "leader": {
      "name": "Drapeau : AustraliePhil Anderson",
      "nationality": null
    }
  },
  {
    "id": "E-1982-9a",
    "year": 1982,
    "leg": 9,
    "title": "Lorient - Plumelec",
    "start": {
      "city": "Lorient",
      "country": "France",
      "lat": "47.748252",
      "lng": "-3.370245"
    },
    "finish": {
      "city": "Plumelec",
      "country": "France",
      "lat": "47.837699",
      "lng": "-2.639409"
    },
    "length": 69,
    "type": "Contre-la-montre par équipes",
    "winner": {
      "name": "Drapeau : Pays-BasTi-Raleigh",
      "nationality": null
    },
    "leader": {
      "name": "Drapeau : AustraliePhil Anderson",
      "nationality": null
    }
  },
  {
    "id": "E-1982-9b",
    "year": 1982,
    "leg": 9,
    "title": "Plumelec - Nantes",
    "start": {
      "city": "Plumelec",
      "country": "France",
      "lat": "47.837699",
      "lng": "-2.639409"
    },
    "finish": {
      "city": "Nantes",
      "country": "France",
      "lat": "47.218371",
      "lng": "-1.553621"
    },
    "length": 138,
    "type": "Étape de plaine",
    "winner": {
      "name": "Drapeau : SuisseStefan Mutter",
      "nationality": null
    },
    "leader": {
      "name": "Drapeau : AustraliePhil Anderson",
      "nationality": null
    }
  },
  {
    "id": "E-1982-10",
    "year": 1982,
    "leg": 10,
    "title": "Saintes - Bordeaux",
    "start": {
      "city": "Saintes",
      "country": "France",
      "lat": "45.744175",
      "lng": "-0.633389"
    },
    "finish": {
      "city": "Bordeaux",
      "country": "France",
      "lat": "44.837789",
      "lng": "-0.57918"
    },
    "length": 147,
    "type": "Étape de plaine",
    "winner": {
      "name": "Drapeau : FrancePierre-Raymond Villemiane",
      "nationality": null
    },
    "leader": {
      "name": "Drapeau : AustraliePhil Anderson",
      "nationality": null
    }
  },
  {
    "id": "E-1982-11",
    "year": 1982,
    "leg": 11,
    "title": "Valence-d'Agen - Valence-d'Agen",
    "start": {
      "city": "Valence-d'Agen",
      "country": "France",
      "lat": "44.108057",
      "lng": "0.890241"
    },
    "finish": {
      "city": "Valence-d'Agen",
      "country": "France",
      "lat": "44.108057",
      "lng": "0.890241"
    },
    "length": 57,
    "type": "Contre-la-montre",
    "winner": {
      "name": "Drapeau : Pays-BasGerrie Knetemann",
      "nationality": null
    },
    "leader": {
      "name": "Drapeau : FranceBernard Hinault",
      "nationality": null
    }
  },
  {
    "id": "E-1982-12",
    "year": 1982,
    "leg": 12,
    "title": "Fleurance - Pau",
    "start": {
      "city": "Fleurance",
      "country": "France",
      "lat": "43.849456",
      "lng": "0.663244"
    },
    "finish": {
      "city": "Pau",
      "country": "France",
      "lat": "43.2951",
      "lng": "-0.370797"
    },
    "length": 249,
    "type": "Étape de plaine",
    "winner": {
      "name": "Drapeau : IrlandeSeán Kelly",
      "nationality": null
    },
    "leader": {
      "name": "Drapeau : FranceBernard Hinault",
      "nationality": null
    }
  },
  {
    "id": "E-1982-13",
    "year": 1982,
    "leg": 13,
    "title": "Pau - Saint-Lary-Soulan",
    "start": {
      "city": "Pau",
      "country": "France",
      "lat": "43.2951",
      "lng": "-0.370797"
    },
    "finish": {
      "city": "Saint-Lary-Soulan",
      "country": "France",
      "lat": "42.815835",
      "lng": "0.320251"
    },
    "length": 122,
    "type": "Étape de montagne",
    "winner": {
      "name": "Drapeau : SuisseBeat Breu",
      "nationality": null
    },
    "leader": {
      "name": "Drapeau : FranceBernard Hinault",
      "nationality": null
    }
  },
  {
    "id": "E-1982-14",
    "year": 1982,
    "leg": 14,
    "title": "Martigues - Martigues",
    "start": {
      "city": "Martigues",
      "country": "France",
      "lat": "43.404811",
      "lng": "5.053728"
    },
    "finish": {
      "city": "Martigues",
      "country": "France",
      "lat": "43.404811",
      "lng": "5.053728"
    },
    "length": 32,
    "type": "Contre-la-montre",
    "winner": {
      "name": "Drapeau : FranceBernard Hinault",
      "nationality": null
    },
    "leader": {
      "name": "Drapeau : FranceBernard Hinault",
      "nationality": null
    }
  },
  {
    "id": "E-1982-15",
    "year": 1982,
    "leg": 15,
    "title": "Manosque - Orcières-Merlette",
    "start": {
      "city": "Manosque",
      "country": "France",
      "lat": "43.835744",
      "lng": "5.790916"
    },
    "finish": {
      "city": "Orcières-Merlette",
      "country": "France",
      "lat": "44.695221",
      "lng": "6.320161"
    },
    "length": 208,
    "type": "Étape de montagne",
    "winner": {
      "name": "Drapeau : FrancePascal Simon",
      "nationality": null
    },
    "leader": {
      "name": "Drapeau : FranceBernard Hinault",
      "nationality": null
    }
  },
  {
    "id": "E-1982-16",
    "year": 1982,
    "leg": 16,
    "title": "Orcières-Merlette - L'Alpe d'Huez",
    "start": {
      "city": "Orcières-Merlette",
      "country": "France",
      "lat": "44.695221",
      "lng": "6.320161"
    },
    "finish": {
      "city": "L'Alpe d'Huez",
      "country": "France",
      "lat": "45.092624",
      "lng": "6.068348"
    },
    "length": 123,
    "type": "Étape de montagne",
    "winner": {
      "name": "Drapeau : SuisseBeat Breu",
      "nationality": null
    },
    "leader": {
      "name": "Drapeau : FranceBernard Hinault",
      "nationality": null
    }
  },
  {
    "id": "E-1982-17",
    "year": 1982,
    "leg": 17,
    "title": "Bourg-d'Oisans - Morzine-Avoriaz",
    "start": {
      "city": "Bourg-d'Oisans",
      "country": "France",
      "lat": "45.051951",
      "lng": "6.030064"
    },
    "finish": {
      "city": "Morzine-Avoriaz",
      "country": "France",
      "lat": "46.189683",
      "lng": "6.776343"
    },
    "length": 251,
    "type": "Étape de montagne",
    "winner": {
      "name": "Drapeau : Pays-BasPeter Winnen",
      "nationality": null
    },
    "leader": {
      "name": "Drapeau : FranceBernard Hinault",
      "nationality": null
    }
  },
  {
    "id": "E-1982-18",
    "year": 1982,
    "leg": 18,
    "title": "Morzine - Saint-Priest",
    "start": {
      "city": "Morzine",
      "country": "France",
      "lat": "46.179192",
      "lng": "6.708877"
    },
    "finish": {
      "city": "Saint-Priest",
      "country": "France",
      "lat": "45.698938",
      "lng": "4.947071"
    },
    "length": 233,
    "type": "Étape de plaine",
    "winner": {
      "name": "Drapeau : Pays-BasAdri van Houwelingen",
      "nationality": null
    },
    "leader": {
      "name": "Drapeau : FranceBernard Hinault",
      "nationality": null
    }
  },
  {
    "id": "E-1982-19",
    "year": 1982,
    "leg": 19,
    "title": "Saint-Priest - Saint-Priest",
    "start": {
      "city": "Saint-Priest",
      "country": "France",
      "lat": "45.698938",
      "lng": "4.947071"
    },
    "finish": {
      "city": "Saint-Priest",
      "country": "France",
      "lat": "45.698938",
      "lng": "4.947071"
    },
    "length": 48,
    "type": "Contre-la-montre",
    "winner": {
      "name": "Drapeau : FranceBernard Hinault",
      "nationality": null
    },
    "leader": {
      "name": "Drapeau : FranceBernard Hinault",
      "nationality": null
    }
  },
  {
    "id": "E-1982-20",
    "year": 1982,
    "leg": 20,
    "title": "Sens - Aulnay-sous-Bois",
    "start": {
      "city": "Sens",
      "country": "France",
      "lat": "48.20065",
      "lng": "3.28268"
    },
    "finish": {
      "city": "Aulnay-sous-Bois",
      "country": "France",
      "lat": "48.940974",
      "lng": "2.497115"
    },
    "length": 161,
    "type": "Étape de plaine",
    "winner": {
      "name": "Drapeau : BelgiqueDaniel Willems",
      "nationality": null
    },
    "leader": {
      "name": "Drapeau : FranceBernard Hinault",
      "nationality": null
    }
  },
  {
    "id": "E-1982-21",
    "year": 1982,
    "leg": 21,
    "title": "Fontenay-sous-Bois - Paris",
    "start": {
      "city": "Fontenay-sous-Bois",
      "country": "France",
      "lat": "48.851542",
      "lng": "2.475907"
    },
    "finish": {
      "city": "Paris",
      "country": "France",
      "lat": "48.856614",
      "lng": "2.352222"
    },
    "length": 186,
    "type": "Étape de plaine",
    "winner": {
      "name": "Drapeau : FranceBernard Hinault",
      "nationality": null
    },
    "leader": {
      "name": "Drapeau : FranceBernard Hinault",
      "nationality": null
    }
  },
  {
    "id": "E-1973-Prologue",
    "year": 1973,
    "leg": 0,
    "title": "Scheveningen (NL)",
    "start": {
      "city": "Scheveningen",
      "country": "Pays-Bas",
      "lat": "52.102402",
      "lng": "4.302183"
    },
    "finish": {
      "city": "Scheveningen",
      "country": "Pays-Bas",
      "lat": "52.102402",
      "lng": "4.302183"
    },
    "length": 7,
    "type": "(CLM)",
    "winner": {
      "name": "Joop Zoetemelk Drapeau : Pays-Bas Pays-Bas",
      "nationality": null
    },
    "leader": {
      "name": "Joop Zoetemelk Drapeau : Pays-Bas Pays-Bas",
      "nationality": null
    }
  },
  {
    "id": "E-1973-1a",
    "year": 1973,
    "leg": 1,
    "title": "Scheveningen - Rotterdam (NL)",
    "start": {
      "city": "Scheveningen",
      "country": "Pays-Bas",
      "lat": "52.102402",
      "lng": "4.302183"
    },
    "finish": {
      "city": "Rotterdam",
      "country": "Pays-Bas",
      "lat": "51.924216",
      "lng": "4.481776"
    },
    "length": 84,
    "type": null,
    "winner": {
      "name": "Willy Teirlinck Drapeau belge Belgique",
      "nationality": null
    },
    "leader": {
      "name": "Willy Teirlinck Drapeau belge Belgique",
      "nationality": null
    }
  },
  {
    "id": "E-1973-1b",
    "year": 1973,
    "leg": 1,
    "title": "Rotterdam - Sint-Niklaas (BEL)",
    "start": {
      "city": "Rotterdam",
      "country": "Pays-Bas",
      "lat": "51.924216",
      "lng": "4.481776"
    },
    "finish": {
      "city": "Sint-Niklaas",
      "country": "Belgique",
      "lat": "51.15",
      "lng": "4.133333"
    },
    "length": 137,
    "type": null,
    "winner": {
      "name": "José Catieau Drapeau de France France",
      "nationality": null
    },
    "leader": {
      "name": "Herman Van Springel Drapeau belge Belgique",
      "nationality": null
    }
  },
  {
    "id": "E-1973-2a",
    "year": 1973,
    "leg": 2,
    "title": "Sint-Niklaas - Sint-Niklaas",
    "start": {
      "city": "Sint-Niklaas",
      "country": "Belgique",
      "lat": "51.15",
      "lng": "4.133333"
    },
    "finish": {
      "city": "Sint-Niklaas",
      "country": "Belgique",
      "lat": "51.15",
      "lng": "4.133333"
    },
    "length": 12,
    "type": "(CLM par équipes)",
    "winner": {
      "name": "Watney-Maes",
      "nationality": null
    },
    "leader": {
      "name": "Herman Van Springel Drapeau belge Belgique",
      "nationality": null
    }
  },
  {
    "id": "E-1973-2b",
    "year": 1973,
    "leg": 2,
    "title": "Sint-Niklaas - Roubaix",
    "start": {
      "city": "Sint-Niklaas",
      "country": "Belgique",
      "lat": "51.15",
      "lng": "4.133333"
    },
    "finish": {
      "city": "Roubaix",
      "country": "France",
      "lat": "50.692705",
      "lng": "3.177847"
    },
    "length": 138,
    "type": null,
    "winner": {
      "name": "Eddy Verstraeten Drapeau belge Belgique",
      "nationality": null
    },
    "leader": {
      "name": "Herman Van Springel Drapeau belge Belgique",
      "nationality": null
    }
  },
  {
    "id": "E-1973-03",
    "year": 1973,
    "leg": 3,
    "title": "Roubaix - Reims",
    "start": {
      "city": "Roubaix",
      "country": "France",
      "lat": "50.692705",
      "lng": "3.177847"
    },
    "finish": {
      "city": "Reims",
      "country": "France",
      "lat": "49.258329",
      "lng": "4.031696"
    },
    "length": 226,
    "type": null,
    "winner": {
      "name": "Cyrille Guimard Drapeau de France France",
      "nationality": null
    },
    "leader": {
      "name": "José Catieau Drapeau de France France",
      "nationality": null
    }
  },
  {
    "id": "E-1973-04",
    "year": 1973,
    "leg": 4,
    "title": "Reims - Nancy",
    "start": {
      "city": "Reims",
      "country": "France",
      "lat": "49.258329",
      "lng": "4.031696"
    },
    "finish": {
      "city": "Nancy",
      "country": "France",
      "lat": "48.692054",
      "lng": "6.184417"
    },
    "length": 214,
    "type": null,
    "winner": {
      "name": "Joop Zoetemelk Drapeau : Pays-Bas Pays-Bas",
      "nationality": null
    },
    "leader": {
      "name": "José Catieau Drapeau de France France",
      "nationality": null
    }
  },
  {
    "id": "E-1973-05",
    "year": 1973,
    "leg": 5,
    "title": "Nancy - Mulhouse",
    "start": {
      "city": "Nancy",
      "country": "France",
      "lat": "48.692054",
      "lng": "6.184417"
    },
    "finish": {
      "city": "Mulhouse",
      "country": "France",
      "lat": "47.750839",
      "lng": "7.335888"
    },
    "length": 188,
    "type": null,
    "winner": {
      "name": "Walter Godefroot Drapeau belge Belgique",
      "nationality": null
    },
    "leader": {
      "name": "José Catieau Drapeau de France France",
      "nationality": null
    }
  },
  {
    "id": "E-1973-06",
    "year": 1973,
    "leg": 6,
    "title": "Belfort - Divonne-les-Bains",
    "start": {
      "city": "Belfort",
      "country": "France",
      "lat": "47.639674",
      "lng": "6.863849"
    },
    "finish": {
      "city": "Divonne-les-Bains",
      "country": "France",
      "lat": "46.358168",
      "lng": "6.13604"
    },
    "length": 244,
    "type": null,
    "winner": {
      "name": "Jean-Pierre Danguillaume Drapeau de France France",
      "nationality": null
    },
    "leader": {
      "name": "José Catieau Drapeau de France France",
      "nationality": null
    }
  },
  {
    "id": "E-1973-7a",
    "year": 1973,
    "leg": 7,
    "title": "Divonne-les-Bains - Gaillard",
    "start": {
      "city": "Divonne-les-Bains",
      "country": "France",
      "lat": "46.358168",
      "lng": "6.13604"
    },
    "finish": {
      "city": "Gaillard",
      "country": "France",
      "lat": "46.184685",
      "lng": "6.208959"
    },
    "length": 86,
    "type": null,
    "winner": {
      "name": "Luis Ocaña Drapeau : EspagneEspagne",
      "nationality": null
    },
    "leader": {
      "name": "Luis Ocaña Drapeau : EspagneEspagne",
      "nationality": null
    }
  },
  {
    "id": "E-1973-7b",
    "year": 1973,
    "leg": 7,
    "title": "Gaillard - Méribel",
    "start": {
      "city": "Gaillard",
      "country": "France",
      "lat": "46.184685",
      "lng": "6.208959"
    },
    "finish": {
      "city": "Méribel",
      "country": "France",
      "lat": "45.397528",
      "lng": "6.56436"
    },
    "length": 150,
    "type": null,
    "winner": {
      "name": "Bernard Thévenet Drapeau de France France",
      "nationality": null
    },
    "leader": {
      "name": "Luis Ocaña Drapeau : EspagneEspagne",
      "nationality": null
    }
  },
  {
    "id": "E-1973-08",
    "year": 1973,
    "leg": 8,
    "title": "Moûtiers - Les Orres",
    "start": {
      "city": "Moûtiers",
      "country": "France",
      "lat": "45.484615",
      "lng": "6.529926"
    },
    "finish": {
      "city": "Les Orres",
      "country": "France",
      "lat": "44.514098",
      "lng": "6.551044"
    },
    "length": 237,
    "type": null,
    "winner": {
      "name": "Luis Ocaña Drapeau : EspagneEspagne",
      "nationality": null
    },
    "leader": {
      "name": "Luis Ocaña Drapeau : EspagneEspagne",
      "nationality": null
    }
  },
  {
    "id": "E-1973-09",
    "year": 1973,
    "leg": 9,
    "title": "Embrun - Nice",
    "start": {
      "city": "Embrun",
      "country": "France",
      "lat": "44.564164",
      "lng": "6.495865"
    },
    "finish": {
      "city": "Nice",
      "country": "France",
      "lat": "43.696036",
      "lng": "7.265592"
    },
    "length": 234,
    "type": null,
    "winner": {
      "name": "Vicente López Carril Drapeau : EspagneEspagne",
      "nationality": null
    },
    "leader": {
      "name": "Luis Ocaña Drapeau : EspagneEspagne",
      "nationality": null
    }
  },
  {
    "id": "E-1973-10",
    "year": 1973,
    "leg": 10,
    "title": "Nice - Aubagne",
    "start": {
      "city": "Nice",
      "country": "France",
      "lat": "43.696036",
      "lng": "7.265592"
    },
    "finish": {
      "city": "Aubagne",
      "country": "France",
      "lat": "43.29218",
      "lng": "5.569336"
    },
    "length": 222,
    "type": null,
    "winner": {
      "name": "Michael Wright Drapeau : Royaume-Uni Royaume-Uni",
      "nationality": null
    },
    "leader": {
      "name": "Luis Ocaña Drapeau : EspagneEspagne",
      "nationality": null
    }
  },
  {
    "id": "E-1973-11",
    "year": 1973,
    "leg": 11,
    "title": "Montpellier - Argelès-sur-Mer",
    "start": {
      "city": "Montpellier",
      "country": "France",
      "lat": "43.610769",
      "lng": "3.876716"
    },
    "finish": {
      "city": "Argelès-sur-Mer",
      "country": "France",
      "lat": "42.546214",
      "lng": "3.022911"
    },
    "length": 238,
    "type": null,
    "winner": {
      "name": "Barry Hoban Drapeau : Royaume-Uni Royaume-Uni",
      "nationality": null
    },
    "leader": {
      "name": "Luis Ocaña Drapeau : EspagneEspagne",
      "nationality": null
    }
  },
  {
    "id": "E-1973-12a",
    "year": 1973,
    "leg": 12,
    "title": "Perpignan - Thuir",
    "start": {
      "city": "Perpignan",
      "country": "France",
      "lat": "42.698684",
      "lng": "2.895872"
    },
    "finish": {
      "city": "Thuir",
      "country": "France",
      "lat": "42.63243",
      "lng": "2.756348"
    },
    "length": 28,
    "type": "(CLM)",
    "winner": {
      "name": "Luis Ocaña Drapeau : EspagneEspagne",
      "nationality": null
    },
    "leader": {
      "name": "Luis Ocaña Drapeau : EspagneEspagne",
      "nationality": null
    }
  },
  {
    "id": "E-1973-12b",
    "year": 1973,
    "leg": 12,
    "title": "Thuir - Pyrénées 2000",
    "start": {
      "city": "Thuir",
      "country": "France",
      "lat": "42.63243",
      "lng": "2.756348"
    },
    "finish": {
      "city": "Pyrénées 2000",
      "country": "France",
      "lat": "42.520843",
      "lng": "2.061496"
    },
    "length": 76,
    "type": null,
    "winner": {
      "name": "Lucien Van Impe Drapeau belge Belgique",
      "nationality": null
    },
    "leader": {
      "name": "Luis Ocaña Drapeau : EspagneEspagne",
      "nationality": null
    }
  },
  {
    "id": "E-1973-13",
    "year": 1973,
    "leg": 13,
    "title": "Bourg-Madame - Luchon",
    "start": {
      "city": "Bourg-Madame",
      "country": "France",
      "lat": "42.434397",
      "lng": "1.944595"
    },
    "finish": {
      "city": "Luchon",
      "country": "France",
      "lat": "42.788963",
      "lng": "0.592943"
    },
    "length": 235,
    "type": null,
    "winner": {
      "name": "Luis Ocaña Drapeau : EspagneEspagne",
      "nationality": null
    },
    "leader": {
      "name": "Luis Ocaña Drapeau : EspagneEspagne",
      "nationality": null
    }
  },
  {
    "id": "E-1973-14",
    "year": 1973,
    "leg": 14,
    "title": "Luchon - Pau",
    "start": {
      "city": "Luchon",
      "country": "France",
      "lat": "42.788963",
      "lng": "0.592943"
    },
    "finish": {
      "city": "Pau",
      "country": "France",
      "lat": "43.2951",
      "lng": "-0.370797"
    },
    "length": 227,
    "type": null,
    "winner": {
      "name": "Pedro Torres Drapeau : EspagneEspagne",
      "nationality": null
    },
    "leader": {
      "name": "Luis Ocaña Drapeau : EspagneEspagne",
      "nationality": null
    }
  },
  {
    "id": "E-1973-15",
    "year": 1973,
    "leg": 15,
    "title": "Pau - Fleurance",
    "start": {
      "city": "Pau",
      "country": "France",
      "lat": "43.2951",
      "lng": "-0.370797"
    },
    "finish": {
      "city": "Fleurance",
      "country": "France",
      "lat": "43.849456",
      "lng": "0.663244"
    },
    "length": 137,
    "type": null,
    "winner": {
      "name": "Wilfried David Drapeau belge Belgique",
      "nationality": null
    },
    "leader": {
      "name": "Luis Ocaña Drapeau : EspagneEspagne",
      "nationality": null
    }
  },
  {
    "id": "E-1973-16a",
    "year": 1973,
    "leg": 16,
    "title": "Fleurance - Bordeaux",
    "start": {
      "city": "Fleurance",
      "country": "France",
      "lat": "43.849456",
      "lng": "0.663244"
    },
    "finish": {
      "city": "Bordeaux",
      "country": "France",
      "lat": "44.837789",
      "lng": "-0.57918"
    },
    "length": 210,
    "type": null,
    "winner": {
      "name": "Walter Godefroot Drapeau belge Belgique",
      "nationality": null
    },
    "leader": {
      "name": "Luis Ocaña Drapeau : EspagneEspagne",
      "nationality": null
    }
  },
  {
    "id": "E-1973-16b",
    "year": 1973,
    "leg": 16,
    "title": "Bordeaux - Bordeaux",
    "start": {
      "city": "Bordeaux",
      "country": "France",
      "lat": "44.837789",
      "lng": "-0.57918"
    },
    "finish": {
      "city": "Bordeaux",
      "country": "France",
      "lat": "44.837789",
      "lng": "-0.57918"
    },
    "length": 12,
    "type": "(CLM)",
    "winner": {
      "name": "Joaquim Agostinho Portugal Portugal",
      "nationality": null
    },
    "leader": {
      "name": "Luis Ocaña Drapeau : EspagneEspagne",
      "nationality": null
    }
  },
  {
    "id": "E-1973-17",
    "year": 1973,
    "leg": 17,
    "title": "Sainte-Foy-la-Grande - Brive-la-Gaillarde",
    "start": {
      "city": "Sainte-Foy-la-Grande",
      "country": "France",
      "lat": "44.841805",
      "lng": "0.215006"
    },
    "finish": {
      "city": "Brive-la-Gaillarde",
      "country": "France",
      "lat": "45.159555",
      "lng": "1.533937"
    },
    "length": 248,
    "type": null,
    "winner": {
      "name": "Claude Tollet Drapeau de France France",
      "nationality": null
    },
    "leader": {
      "name": "Luis Ocaña Drapeau : EspagneEspagne",
      "nationality": null
    }
  },
  {
    "id": "E-1973-18",
    "year": 1973,
    "leg": 18,
    "title": "Brive-la-Gaillarde - Puy de Dôme",
    "start": {
      "city": "Brive-la-Gaillarde",
      "country": "France",
      "lat": "45.159555",
      "lng": "1.533937"
    },
    "finish": {
      "city": "Puy de Dôme",
      "country": "France",
      "lat": "45.77207",
      "lng": "2.96974"
    },
    "length": 216,
    "type": null,
    "winner": {
      "name": "Luis Ocaña Drapeau : EspagneEspagne",
      "nationality": null
    },
    "leader": {
      "name": "Luis Ocaña Drapeau : EspagneEspagne",
      "nationality": null
    }
  },
  {
    "id": "E-1973-19",
    "year": 1973,
    "leg": 19,
    "title": "Bourges - Versailles",
    "start": {
      "city": "Bourges",
      "country": "France",
      "lat": "47.081012",
      "lng": "2.398782"
    },
    "finish": {
      "city": "Versailles",
      "country": "France",
      "lat": "48.801408",
      "lng": "2.130122"
    },
    "length": 233,
    "type": null,
    "winner": {
      "name": "Barry Hoban Drapeau : Royaume-Uni Royaume-Uni",
      "nationality": null
    },
    "leader": {
      "name": "Luis Ocaña Drapeau : EspagneEspagne",
      "nationality": null
    }
  },
  {
    "id": "E-1973-20a",
    "year": 1973,
    "leg": 20,
    "title": "Versailles - Versailles",
    "start": {
      "city": "Versailles",
      "country": "France",
      "lat": "48.801408",
      "lng": "2.130122"
    },
    "finish": {
      "city": "Versailles",
      "country": "France",
      "lat": "48.801408",
      "lng": "2.130122"
    },
    "length": 16,
    "type": "(CLM)",
    "winner": {
      "name": "Luis Ocaña Drapeau : EspagneEspagne",
      "nationality": null
    },
    "leader": {
      "name": "Luis Ocaña Drapeau : EspagneEspagne",
      "nationality": null
    }
  },
  {
    "id": "E-1973-20b",
    "year": 1973,
    "leg": 20,
    "title": "Versailles - Paris",
    "start": {
      "city": "Versailles",
      "country": "France",
      "lat": "48.801408",
      "lng": "2.130122"
    },
    "finish": {
      "city": "Paris",
      "country": "France",
      "lat": "48.856614",
      "lng": "2.352222"
    },
    "length": 89,
    "type": null,
    "winner": {
      "name": "Bernard Thévenet Drapeau de France France",
      "nationality": null
    },
    "leader": {
      "name": "Luis Ocaña Drapeau : EspagneEspagne",
      "nationality": null
    }
  },
  {
    "id": "E-1971-Prologue",
    "year": 1971,
    "leg": 0,
    "title": "Mulhouse",
    "start": {
      "city": "Mulhouse",
      "country": "France",
      "lat": "47.750839",
      "lng": "7.335888"
    },
    "finish": {
      "city": "Mulhouse",
      "country": null,
      "lat": "47.750839",
      "lng": "7.335888"
    },
    "length": 11,
    "type": "(CLM par équipes)",
    "winner": {
      "name": "Molteni",
      "nationality": null
    },
    "leader": {
      "name": "Eddy Merckx Drapeau belge Belgique",
      "nationality": null
    }
  },
  {
    "id": "E-1971-1a",
    "year": 1971,
    "leg": 1,
    "title": "Mulhouse - Bâle (CH)",
    "start": {
      "city": "Mulhouse",
      "country": "France",
      "lat": "47.750839",
      "lng": "7.335888"
    },
    "finish": {
      "city": "Bâle",
      "country": "Suisse",
      "lat": "47.557421",
      "lng": "7.592573"
    },
    "length": 59,
    "type": null,
    "winner": {
      "name": "Eric Leman Drapeau belge Belgique",
      "nationality": null
    },
    "leader": {
      "name": "Marinus Wagtmans Drapeau : Pays-Bas Pays-Bas",
      "nationality": null
    }
  },
  {
    "id": "E-1971-1b",
    "year": 1971,
    "leg": 1,
    "title": "Bâle - Fribourg (RFA)",
    "start": {
      "city": "Bâle",
      "country": "Suisse",
      "lat": "47.557421",
      "lng": "7.592573"
    },
    "finish": {
      "city": "Fribourg",
      "country": "Allemagne",
      "lat": "46.801666",
      "lng": "7.145568"
    },
    "length": 90,
    "type": null,
    "winner": {
      "name": "Gerben Karstens Drapeau : Pays-Bas Pays-Bas",
      "nationality": null
    },
    "leader": {
      "name": "Eddy Merckx Drapeau belge Belgique",
      "nationality": null
    }
  },
  {
    "id": "E-1971-1c",
    "year": 1971,
    "leg": 1,
    "title": "Fribourg - Mulhouse",
    "start": {
      "city": "Fribourg",
      "country": "Allemagne",
      "lat": "46.801666",
      "lng": "7.145568"
    },
    "finish": {
      "city": "Mulhouse",
      "country": "France",
      "lat": "47.750839",
      "lng": "7.335888"
    },
    "length": 74,
    "type": null,
    "winner": {
      "name": "Albert Van Vlierberghe Drapeau belge Belgique",
      "nationality": null
    },
    "leader": {
      "name": "Eddy Merckx Drapeau belge Belgique",
      "nationality": null
    }
  },
  {
    "id": "E-1971-02",
    "year": 1971,
    "leg": 2,
    "title": "Mulhouse - Strasbourg",
    "start": {
      "city": "Mulhouse",
      "country": "France",
      "lat": "47.750839",
      "lng": "7.335888"
    },
    "finish": {
      "city": "Strasbourg",
      "country": "France",
      "lat": "48.583148",
      "lng": "7.747882"
    },
    "length": 144,
    "type": null,
    "winner": {
      "name": "Eddy Merckx Drapeau belge Belgique",
      "nationality": null
    },
    "leader": {
      "name": "Eddy Merckx Drapeau belge Belgique",
      "nationality": null
    }
  },
  {
    "id": "E-1971-03",
    "year": 1971,
    "leg": 3,
    "title": "Strasbourg - Nancy",
    "start": {
      "city": "Strasbourg",
      "country": "France",
      "lat": "48.583148",
      "lng": "7.747882"
    },
    "finish": {
      "city": "Nancy",
      "country": "France",
      "lat": "48.692054",
      "lng": "6.184417"
    },
    "length": 165,
    "type": null,
    "winner": {
      "name": "Marinus Wagtmans Drapeau : Pays-Bas Pays-Bas",
      "nationality": null
    },
    "leader": {
      "name": "Eddy Merckx Drapeau belge Belgique",
      "nationality": null
    }
  },
  {
    "id": "E-1971-04",
    "year": 1971,
    "leg": 4,
    "title": "Nancy - Marche-en-Famenne",
    "start": {
      "city": "Nancy",
      "country": "France",
      "lat": "48.692054",
      "lng": "6.184417"
    },
    "finish": {
      "city": "Marche-en-Famenne",
      "country": "Belgique",
      "lat": "50.22829",
      "lng": "5.344161"
    },
    "length": 242,
    "type": null,
    "winner": {
      "name": "Jean-Pierre Genet Drapeau de France France",
      "nationality": null
    },
    "leader": {
      "name": "Eddy Merckx Drapeau belge Belgique",
      "nationality": null
    }
  },
  {
    "id": "E-1971-05",
    "year": 1971,
    "leg": 5,
    "title": "Dinant - Roubaix",
    "start": {
      "city": "Dinant",
      "country": "Belgique",
      "lat": "50.260494",
      "lng": "4.912746"
    },
    "finish": {
      "city": "Roubaix",
      "country": "France",
      "lat": "50.692705",
      "lng": "3.177847"
    },
    "length": 208,
    "type": null,
    "winner": {
      "name": "Pietro Guerra Drapeau d'Italie Italie",
      "nationality": null
    },
    "leader": {
      "name": "Eddy Merckx Drapeau belge Belgique",
      "nationality": null
    }
  },
  {
    "id": "E-1971-6a",
    "year": 1971,
    "leg": 6,
    "title": "Roubaix - Amiens",
    "start": {
      "city": "Roubaix",
      "country": "France",
      "lat": "50.692705",
      "lng": "3.177847"
    },
    "finish": {
      "city": "Amiens",
      "country": "France",
      "lat": "49.894067",
      "lng": "2.295753"
    },
    "length": 127,
    "type": null,
    "winner": {
      "name": "Eric Leman Drapeau belge Belgique",
      "nationality": null
    },
    "leader": {
      "name": "Eddy Merckx Drapeau belge Belgique",
      "nationality": null
    }
  },
  {
    "id": "E-1971-6b",
    "year": 1971,
    "leg": 6,
    "title": "Amiens - Le Touquet",
    "start": {
      "city": "Amiens",
      "country": "France",
      "lat": "49.894067",
      "lng": "2.295753"
    },
    "finish": {
      "city": "Le Touquet",
      "country": "France",
      "lat": "50.521276",
      "lng": "1.590675"
    },
    "length": 133,
    "type": null,
    "winner": {
      "name": "Mauro Simonetti Drapeau d'Italie Italie",
      "nationality": null
    },
    "leader": {
      "name": "Eddy Merckx Drapeau belge Belgique",
      "nationality": null
    }
  },
  {
    "id": "E-1971-07",
    "year": 1971,
    "leg": 7,
    "title": "Rungis - Nevers",
    "start": {
      "city": "Rungis",
      "country": "France",
      "lat": "48.749358",
      "lng": "2.349936"
    },
    "finish": {
      "city": "Nevers",
      "country": "France",
      "lat": "46.990896",
      "lng": "3.162845"
    },
    "length": 257,
    "type": null,
    "winner": {
      "name": "Eric Leman Drapeau belge Belgique",
      "nationality": null
    },
    "leader": {
      "name": "Eddy Merckx Drapeau belge Belgique",
      "nationality": null
    }
  },
  {
    "id": "E-1971-08",
    "year": 1971,
    "leg": 8,
    "title": "Nevers - Puy de Dôme",
    "start": {
      "city": "Nevers",
      "country": "France",
      "lat": "46.990896",
      "lng": "3.162845"
    },
    "finish": {
      "city": "Puy de Dôme",
      "country": "France",
      "lat": "45.77207",
      "lng": "2.96974"
    },
    "length": 221,
    "type": null,
    "winner": {
      "name": "Luis Ocaña Drapeau : EspagneEspagne",
      "nationality": null
    },
    "leader": {
      "name": "Eddy Merckx Drapeau belge Belgique",
      "nationality": null
    }
  },
  {
    "id": "E-1971-09",
    "year": 1971,
    "leg": 9,
    "title": "Clermont-Ferrand - Saint-Étienne",
    "start": {
      "city": "Clermont-Ferrand",
      "country": "France",
      "lat": "45.777222",
      "lng": "3.087025"
    },
    "finish": {
      "city": "Saint-Étienne",
      "country": "France",
      "lat": "45.439695",
      "lng": "4.387178"
    },
    "length": 153,
    "type": null,
    "winner": {
      "name": "Walter Godefroot Drapeau belge Belgique",
      "nationality": null
    },
    "leader": {
      "name": "Eddy Merckx Drapeau belge Belgique",
      "nationality": null
    }
  },
  {
    "id": "E-1971-10",
    "year": 1971,
    "leg": 10,
    "title": "Saint-Étienne - Grenoble",
    "start": {
      "city": "Saint-Étienne",
      "country": "France",
      "lat": "45.439695",
      "lng": "4.387178"
    },
    "finish": {
      "city": "Grenoble",
      "country": "France",
      "lat": "45.188529",
      "lng": "5.724524"
    },
    "length": 188,
    "type": null,
    "winner": {
      "name": "Bernard Thévenet Drapeau de France France",
      "nationality": null
    },
    "leader": {
      "name": "Joop Zoetemelk Drapeau : Pays-Bas Pays-Bas",
      "nationality": null
    }
  },
  {
    "id": "E-1971-11",
    "year": 1971,
    "leg": 11,
    "title": "Grenoble - Orcières-Merlette",
    "start": {
      "city": "Grenoble",
      "country": "France",
      "lat": "45.188529",
      "lng": "5.724524"
    },
    "finish": {
      "city": "Orcières-Merlette",
      "country": "France",
      "lat": "44.695221",
      "lng": "6.320161"
    },
    "length": 134,
    "type": null,
    "winner": {
      "name": "Luis Ocaña Drapeau : EspagneEspagne",
      "nationality": null
    },
    "leader": {
      "name": "Luis Ocaña Drapeau : EspagneEspagne",
      "nationality": null
    }
  },
  {
    "id": "E-1971-12",
    "year": 1971,
    "leg": 12,
    "title": "Orcières-Merlette - Marseille",
    "start": {
      "city": "Orcières-Merlette",
      "country": "France",
      "lat": "44.695221",
      "lng": "6.320161"
    },
    "finish": {
      "city": "Marseille",
      "country": "France",
      "lat": "43.296482",
      "lng": "5.36978"
    },
    "length": 251,
    "type": null,
    "winner": {
      "name": "Luciano Armani Drapeau d'Italie Italie",
      "nationality": null
    },
    "leader": {
      "name": "Luis Ocaña Drapeau : EspagneEspagne",
      "nationality": null
    }
  },
  {
    "id": "E-1971-13",
    "year": 1971,
    "leg": 13,
    "title": "Albi - Albi",
    "start": {
      "city": "Albi",
      "country": "France",
      "lat": "43.926896",
      "lng": "2.146343"
    },
    "finish": {
      "city": "Albi",
      "country": "France",
      "lat": "43.926896",
      "lng": "2.146343"
    },
    "length": 16,
    "type": "(CLM)",
    "winner": {
      "name": "Eddy Merckx Drapeau belge Belgique",
      "nationality": null
    },
    "leader": {
      "name": "Luis Ocaña Drapeau : EspagneEspagne",
      "nationality": null
    }
  },
  {
    "id": "E-1971-14",
    "year": 1971,
    "leg": 14,
    "title": "Revel - Luchon",
    "start": {
      "city": "Revel",
      "country": "France",
      "lat": "43.458611",
      "lng": "2.004573"
    },
    "finish": {
      "city": "Luchon",
      "country": "France",
      "lat": "42.788963",
      "lng": "0.592943"
    },
    "length": 214,
    "type": null,
    "winner": {
      "name": "José Manuel Fuente Drapeau : EspagneEspagne",
      "nationality": null
    },
    "leader": {
      "name": "Eddy Merckx Drapeau belge Belgique",
      "nationality": null
    }
  },
  {
    "id": "E-1971-15",
    "year": 1971,
    "leg": 15,
    "title": "Luchon - Superbagnères",
    "start": {
      "city": "Luchon",
      "country": "France",
      "lat": "42.788963",
      "lng": "0.592943"
    },
    "finish": {
      "city": "Superbagnères",
      "country": "France",
      "lat": "42.768576",
      "lng": "0.576927"
    },
    "length": 19,
    "type": null,
    "winner": {
      "name": "José Manuel Fuente Drapeau : EspagneEspagne",
      "nationality": null
    },
    "leader": {
      "name": "Eddy Merckx Drapeau belge Belgique",
      "nationality": null
    }
  },
  {
    "id": "E-1971-16a",
    "year": 1971,
    "leg": 16,
    "title": "Luchon - Gourette/Les Eaux Bonnes",
    "start": {
      "city": "Luchon",
      "country": "France",
      "lat": "42.78896",
      "lng": "0.59294"
    },
    "finish": {
      "city": "Gourette, Eaux-Bonnes",
      "country": "France",
      "lat": "42.958836",
      "lng": "-0.332111"
    },
    "length": 145,
    "type": null,
    "winner": {
      "name": "Bernard Labourdette Drapeau de France France",
      "nationality": null
    },
    "leader": {
      "name": "Eddy Merckx Drapeau belge Belgique",
      "nationality": null
    }
  },
  {
    "id": "E-1971-16b",
    "year": 1971,
    "leg": 16,
    "title": "Gourette/Les Eaux Bonnes - Pau",
    "start": {
      "city": "Gourette, Eaux-Bonnes",
      "country": "France",
      "lat": "42.958836",
      "lng": "-0.332111"
    },
    "finish": {
      "city": "Pau",
      "country": "France",
      "lat": "43.2951",
      "lng": "-0.370797"
    },
    "length": 57,
    "type": "(CLM)",
    "winner": {
      "name": "Herman Van Springel Drapeau belge Belgique",
      "nationality": null
    },
    "leader": {
      "name": "Eddy Merckx Drapeau belge Belgique",
      "nationality": null
    }
  },
  {
    "id": "E-1971-17",
    "year": 1971,
    "leg": 17,
    "title": "Mont-de-Marsan - Bordeaux",
    "start": {
      "city": "Mont-de-Marsan",
      "country": "France",
      "lat": "43.893485",
      "lng": "-0.499782"
    },
    "finish": {
      "city": "Bordeaux",
      "country": "France",
      "lat": "44.837789",
      "lng": "-0.57918"
    },
    "length": 188,
    "type": null,
    "winner": {
      "name": "Eddy Merckx Drapeau belge Belgique",
      "nationality": null
    },
    "leader": {
      "name": "Eddy Merckx Drapeau belge Belgique",
      "nationality": null
    }
  },
  {
    "id": "E-1971-18",
    "year": 1971,
    "leg": 18,
    "title": "Bordeaux - Poitiers",
    "start": {
      "city": "Bordeaux",
      "country": "France",
      "lat": "44.837789",
      "lng": "-0.57918"
    },
    "finish": {
      "city": "Poitiers",
      "country": "France",
      "lat": "46.580224",
      "lng": "0.340375"
    },
    "length": 244,
    "type": null,
    "winner": {
      "name": "Jean-Pierre Danguillaume Drapeau de France France",
      "nationality": null
    },
    "leader": {
      "name": "Eddy Merckx Drapeau belge Belgique",
      "nationality": null
    }
  },
  {
    "id": "E-1971-19",
    "year": 1971,
    "leg": 19,
    "title": "Blois - Versailles",
    "start": {
      "city": "Blois",
      "country": "France",
      "lat": "47.587952",
      "lng": "1.336272"
    },
    "finish": {
      "city": "Versailles",
      "country": "France",
      "lat": "48.801408",
      "lng": "2.130122"
    },
    "length": 185,
    "type": null,
    "winner": {
      "name": "Jan Krekels Drapeau : Pays-Bas Pays-Bas",
      "nationality": null
    },
    "leader": {
      "name": "Eddy Merckx Drapeau belge Belgique",
      "nationality": null
    }
  },
  {
    "id": "E-1971-20",
    "year": 1971,
    "leg": 20,
    "title": "Versailles - Paris",
    "start": {
      "city": "Versailles",
      "country": "France",
      "lat": "48.801408",
      "lng": "2.130122"
    },
    "finish": {
      "city": "Paris",
      "country": "France",
      "lat": "48.856614",
      "lng": "2.352222"
    },
    "length": 54,
    "type": "(CLM)",
    "winner": {
      "name": "Eddy Merckx Drapeau belge Belgique",
      "nationality": null
    },
    "leader": {
      "name": "Eddy Merckx Drapeau belge Belgique",
      "nationality": null
    }
  },
  {
    "id": "E-1968-1a",
    "year": 1968,
    "leg": 1,
    "title": "Vittel",
    "start": {
      "city": "Vittel",
      "country": "France",
      "lat": "48.202541",
      "lng": "5.943496"
    },
    "finish": {
      "city": "Vittel",
      "country": "France",
      "lat": "48.202541",
      "lng": "5.943496"
    },
    "length": 6,
    "type": "(CLM)",
    "winner": {
      "name": "Charly Grosskost Drapeau de France France",
      "nationality": null
    },
    "leader": {
      "name": "Charly Grosskost Drapeau de France France",
      "nationality": null
    }
  },
  {
    "id": "E-1968-1b",
    "year": 1968,
    "leg": 1,
    "title": "Vittel - Esch-sur-Alzette",
    "start": {
      "city": "Vittel",
      "country": "France",
      "lat": "48.202541",
      "lng": "5.943496"
    },
    "finish": {
      "city": "Esch-sur-Alzette",
      "country": "Luxembourg",
      "lat": "49.61162",
      "lng": "6.13193"
    },
    "length": 169,
    "type": null,
    "winner": {
      "name": "Charly Grosskost Drapeau de France France",
      "nationality": null
    },
    "leader": {
      "name": "Charly Grosskost Drapeau de France France",
      "nationality": null
    }
  },
  {
    "id": "E-1968-02",
    "year": 1968,
    "leg": 2,
    "title": "Arlon - Forest",
    "start": {
      "city": "Arlon",
      "country": "Belgique",
      "lat": "49.683333",
      "lng": "5.816667"
    },
    "finish": {
      "city": "Forest",
      "country": "Belgique",
      "lat": "50.8",
      "lng": "4.316667"
    },
    "length": 210,
    "type": null,
    "winner": {
      "name": "Eric De Vlaeminck Drapeau belge Belgique",
      "nationality": null
    },
    "leader": {
      "name": "Charly Grosskost Drapeau de France France",
      "nationality": null
    }
  },
  {
    "id": "E-1968-3a",
    "year": 1968,
    "leg": 3,
    "title": "Forest - Forest",
    "start": {
      "city": "Forest",
      "country": "Belgique",
      "lat": "50.8",
      "lng": "4.316667"
    },
    "finish": {
      "city": "Forest",
      "country": "Belgique",
      "lat": "50.8",
      "lng": "4.316667"
    },
    "length": 22,
    "type": "(CLM par équipes)",
    "winner": {
      "name": "Belgique équipe A",
      "nationality": null
    },
    "leader": {
      "name": "Herman Van Springel Drapeau belge Belgique",
      "nationality": null
    }
  },
  {
    "id": "E-1968-3b",
    "year": 1968,
    "leg": 3,
    "title": "Forest - Roubaix",
    "start": {
      "city": "Forest",
      "country": "Belgique",
      "lat": "50.8",
      "lng": "4.316667"
    },
    "finish": {
      "city": "Roubaix",
      "country": "France",
      "lat": "50.692705",
      "lng": "3.177847"
    },
    "length": 112,
    "type": null,
    "winner": {
      "name": "Walter Godefroot Drapeau belge Belgique",
      "nationality": null
    },
    "leader": {
      "name": "Herman Van Springel Drapeau belge Belgique",
      "nationality": null
    }
  },
  {
    "id": "E-1968-04",
    "year": 1968,
    "leg": 4,
    "title": "Roubaix - Rouen",
    "start": {
      "city": "Roubaix",
      "country": "France",
      "lat": "50.692705",
      "lng": "3.177847"
    },
    "finish": {
      "city": "Rouen",
      "country": "France",
      "lat": "49.443232",
      "lng": "1.099971"
    },
    "length": 238,
    "type": null,
    "winner": {
      "name": "Georges Chappe Drapeau de France France",
      "nationality": null
    },
    "leader": {
      "name": "Jean-Pierre Genet Drapeau de France France",
      "nationality": null
    }
  },
  {
    "id": "E-1968-5a",
    "year": 1968,
    "leg": 5,
    "title": "Rouen - Bagnoles-de-l'Orne",
    "start": {
      "city": "Rouen",
      "country": "France",
      "lat": "49.443232",
      "lng": "1.099971"
    },
    "finish": {
      "city": "Bagnoles-de-l'Orne",
      "country": "France",
      "lat": "48.558399",
      "lng": "-0.415091"
    },
    "length": 165,
    "type": null,
    "winner": {
      "name": "André Desvages Drapeau de France France",
      "nationality": null
    },
    "leader": {
      "name": "Georges Vandenberghe Drapeau belge Belgique",
      "nationality": null
    }
  },
  {
    "id": "E-1968-5b",
    "year": 1968,
    "leg": 5,
    "title": "Bagnoles-de-l'Orne - Dinard",
    "start": {
      "city": "Bagnoles-de-l'Orne",
      "country": "France",
      "lat": "48.558399",
      "lng": "-0.415091"
    },
    "finish": {
      "city": "Dinard",
      "country": "France",
      "lat": "48.633024",
      "lng": "-2.055125"
    },
    "length": 154,
    "type": null,
    "winner": {
      "name": "Jean Dumont Drapeau de France France",
      "nationality": null
    },
    "leader": {
      "name": "Georges Vandenberghe Drapeau belge Belgique",
      "nationality": null
    }
  },
  {
    "id": "E-1968-06",
    "year": 1968,
    "leg": 6,
    "title": "Dinard - Lorient",
    "start": {
      "city": "Dinard",
      "country": "France",
      "lat": "48.633024",
      "lng": "-2.055125"
    },
    "finish": {
      "city": "Lorient",
      "country": "France",
      "lat": "47.748252",
      "lng": "-3.370245"
    },
    "length": 188,
    "type": null,
    "winner": {
      "name": "Aurelio González Drapeau : EspagneEspagne",
      "nationality": null
    },
    "leader": {
      "name": "Georges Vandenberghe Drapeau belge Belgique",
      "nationality": null
    }
  },
  {
    "id": "E-1968-07",
    "year": 1968,
    "leg": 7,
    "title": "Lorient - Nantes",
    "start": {
      "city": "Lorient",
      "country": "France",
      "lat": "47.748252",
      "lng": "-3.370245"
    },
    "finish": {
      "city": "Nantes",
      "country": "France",
      "lat": "47.218371",
      "lng": "-1.553621"
    },
    "length": 190,
    "type": null,
    "winner": {
      "name": "Franco Bitossi Drapeau d'Italie Italie",
      "nationality": null
    },
    "leader": {
      "name": "Georges Vandenberghe Drapeau belge Belgique",
      "nationality": null
    }
  },
  {
    "id": "E-1968-08",
    "year": 1968,
    "leg": 8,
    "title": "Nantes - Royan",
    "start": {
      "city": "Nantes",
      "country": "France",
      "lat": "47.218371",
      "lng": "-1.553621"
    },
    "finish": {
      "city": "Royan",
      "country": "France",
      "lat": "45.623027",
      "lng": "-1.043182"
    },
    "length": 223,
    "type": null,
    "winner": {
      "name": "Daniel Van Ryckeghem Drapeau belge Belgique",
      "nationality": null
    },
    "leader": {
      "name": "Georges Vandenberghe Drapeau belge Belgique",
      "nationality": null
    }
  },
  {
    "id": "E-1968-09",
    "year": 1968,
    "leg": 9,
    "title": "Royan - Bordeaux",
    "start": {
      "city": "Royan",
      "country": "France",
      "lat": "45.623027",
      "lng": "-1.043182"
    },
    "finish": {
      "city": "Bordeaux",
      "country": "France",
      "lat": "44.837789",
      "lng": "-0.57918"
    },
    "length": 137,
    "type": null,
    "winner": {
      "name": "Walter Godefroot Drapeau belge Belgique",
      "nationality": null
    },
    "leader": {
      "name": "Georges Vandenberghe Drapeau belge Belgique",
      "nationality": null
    }
  },
  {
    "id": "E-1968-10",
    "year": 1968,
    "leg": 10,
    "title": "Bordeaux - Bayonne",
    "start": {
      "city": "Bordeaux",
      "country": "France",
      "lat": "44.837789",
      "lng": "-0.57918"
    },
    "finish": {
      "city": "Bayonne",
      "country": "France",
      "lat": "43.492949",
      "lng": "-1.474841"
    },
    "length": 202,
    "type": null,
    "winner": {
      "name": "Gilbert Bellone Drapeau de France France",
      "nationality": null
    },
    "leader": {
      "name": "Georges Vandenberghe Drapeau belge Belgique",
      "nationality": null
    }
  },
  {
    "id": "E-1968-11",
    "year": 1968,
    "leg": 11,
    "title": "Bayonne - Pau",
    "start": {
      "city": "Bayonne",
      "country": "France",
      "lat": "43.492949",
      "lng": "-1.474841"
    },
    "finish": {
      "city": "Pau",
      "country": "France",
      "lat": "43.2951",
      "lng": "-0.370797"
    },
    "length": 183,
    "type": null,
    "winner": {
      "name": "Daniel Van Ryckeghem Drapeau belge Belgique",
      "nationality": null
    },
    "leader": {
      "name": "Georges Vandenberghe Drapeau belge Belgique",
      "nationality": null
    }
  },
  {
    "id": "E-1968-12",
    "year": 1968,
    "leg": 12,
    "title": "Pau - Saint-Gaudens",
    "start": {
      "city": "Pau",
      "country": "France",
      "lat": "43.2951",
      "lng": "-0.370797"
    },
    "finish": {
      "city": "Saint-Gaudens",
      "country": "France",
      "lat": "43.106895",
      "lng": "0.723763"
    },
    "length": 226,
    "type": null,
    "winner": {
      "name": "Georges Pintens Drapeau belge Belgique",
      "nationality": null
    },
    "leader": {
      "name": "Georges Vandenberghe Drapeau belge Belgique",
      "nationality": null
    }
  },
  {
    "id": "E-1968-13",
    "year": 1968,
    "leg": 13,
    "title": "Saint-Gaudens - La Seu d'Urgell",
    "start": {
      "city": "Saint-Gaudens",
      "country": "France",
      "lat": "43.106895",
      "lng": "0.723763"
    },
    "finish": {
      "city": "La Seu d'Urgell",
      "country": "Espagne",
      "lat": "42.359105",
      "lng": "1.459173"
    },
    "length": 208,
    "type": null,
    "winner": {
      "name": "Herman Van Springel Drapeau belge Belgique",
      "nationality": null
    },
    "leader": {
      "name": "Georges Vandenberghe Drapeau belge Belgique",
      "nationality": null
    }
  },
  {
    "id": "E-1968-14",
    "year": 1968,
    "leg": 14,
    "title": "La Seu d'Urgell - Canet-Plage",
    "start": {
      "city": "La Seu d'Urgell",
      "country": "Espagne",
      "lat": "42.359105",
      "lng": "1.459173"
    },
    "finish": {
      "city": "Canet-Plage",
      "country": "France",
      "lat": "42.706091",
      "lng": "3.009898"
    },
    "length": 231,
    "type": null,
    "winner": {
      "name": "Jan Janssen Drapeau : Pays-Bas Pays-Bas",
      "nationality": null
    },
    "leader": {
      "name": "Georges Vandenberghe Drapeau belge Belgique",
      "nationality": null
    }
  },
  {
    "id": "E-1968-15",
    "year": 1968,
    "leg": 15,
    "title": "Font-Romeu - Albi",
    "start": {
      "city": "Font-Romeu",
      "country": "France",
      "lat": "42.4983",
      "lng": "2.0347"
    },
    "finish": {
      "city": "Albi",
      "country": "France",
      "lat": "43.926896",
      "lng": "2.146343"
    },
    "length": 250,
    "type": null,
    "winner": {
      "name": "Roger Pingeon Drapeau de France France",
      "nationality": null
    },
    "leader": {
      "name": "Georges Vandenberghe Drapeau belge Belgique",
      "nationality": null
    }
  },
  {
    "id": "E-1968-16",
    "year": 1968,
    "leg": 16,
    "title": "Albi - Aurillac",
    "start": {
      "city": "Albi",
      "country": "France",
      "lat": "43.926896",
      "lng": "2.146343"
    },
    "finish": {
      "city": "Aurillac",
      "country": "France",
      "lat": "44.930953",
      "lng": "2.444997"
    },
    "length": 199,
    "type": null,
    "winner": {
      "name": "Franco Bitossi Drapeau d'Italie Italie",
      "nationality": null
    },
    "leader": {
      "name": "Rolf Wolfshohl Drapeau d'Allemagne Allemagne",
      "nationality": null
    }
  },
  {
    "id": "E-1968-17",
    "year": 1968,
    "leg": 17,
    "title": "Aurillac - Saint-Étienne",
    "start": {
      "city": "Aurillac",
      "country": "France",
      "lat": "44.930953",
      "lng": "2.444997"
    },
    "finish": {
      "city": "Saint-Étienne",
      "country": "France",
      "lat": "45.439695",
      "lng": "4.387178"
    },
    "length": 236,
    "type": null,
    "winner": {
      "name": "Jean-Pierre Genet Drapeau de France France",
      "nationality": null
    },
    "leader": {
      "name": "Rolf Wolfshohl Drapeau d'Allemagne Allemagne",
      "nationality": null
    }
  },
  {
    "id": "E-1968-18",
    "year": 1968,
    "leg": 18,
    "title": "Saint-Étienne - Grenoble",
    "start": {
      "city": "Saint-Étienne",
      "country": "France",
      "lat": "45.439695",
      "lng": "4.387178"
    },
    "finish": {
      "city": "Grenoble",
      "country": "France",
      "lat": "45.188529",
      "lng": "5.724524"
    },
    "length": 235,
    "type": null,
    "winner": {
      "name": "Roger Pingeon Drapeau de France France",
      "nationality": null
    },
    "leader": {
      "name": "Gregorio San Miguel Drapeau : EspagneEspagne",
      "nationality": null
    }
  },
  {
    "id": "E-1968-19",
    "year": 1968,
    "leg": 19,
    "title": "Grenoble - Sallanches",
    "start": {
      "city": "Grenoble",
      "country": "France",
      "lat": "45.188529",
      "lng": "5.724524"
    },
    "finish": {
      "city": "Sallanches",
      "country": "France",
      "lat": "45.936661",
      "lng": "6.630557"
    },
    "length": 200,
    "type": null,
    "winner": {
      "name": "Barry Hoban Drapeau : Royaume-Uni Royaume-Uni",
      "nationality": null
    },
    "leader": {
      "name": "Herman Van Springel Drapeau belge Belgique",
      "nationality": null
    }
  },
  {
    "id": "E-1968-20",
    "year": 1968,
    "leg": 20,
    "title": "Sallanches - Besançon",
    "start": {
      "city": "Sallanches",
      "country": "France",
      "lat": "45.936661",
      "lng": "6.630557"
    },
    "finish": {
      "city": "Besançon",
      "country": "France",
      "lat": "47.237829",
      "lng": "6.024054"
    },
    "length": 242,
    "type": null,
    "winner": {
      "name": "Jos Huysmans Drapeau belge Belgique",
      "nationality": null
    },
    "leader": {
      "name": "Herman Van Springel Drapeau belge Belgique",
      "nationality": null
    }
  },
  {
    "id": "E-1968-21",
    "year": 1968,
    "leg": 21,
    "title": "Besançon - Auxerre",
    "start": {
      "city": "Besançon",
      "country": "France",
      "lat": "47.237829",
      "lng": "6.024054"
    },
    "finish": {
      "city": "Auxerre",
      "country": "France",
      "lat": "47.798202",
      "lng": "3.573781"
    },
    "length": 242,
    "type": null,
    "winner": {
      "name": "Éric Leman Drapeau belge Belgique",
      "nationality": null
    },
    "leader": {
      "name": "Herman Van Springel Drapeau belge Belgique",
      "nationality": null
    }
  },
  {
    "id": "E-1968-22a",
    "year": 1968,
    "leg": 22,
    "title": "Auxerre - Melun",
    "start": {
      "city": "Auxerre",
      "country": "France",
      "lat": "47.798202",
      "lng": "3.573781"
    },
    "finish": {
      "city": "Melun",
      "country": "France",
      "lat": "48.542105",
      "lng": "2.6554"
    },
    "length": 136,
    "type": null,
    "winner": {
      "name": "Maurice Izier Drapeau de France France",
      "nationality": null
    },
    "leader": {
      "name": "Herman Van Springel Drapeau belge Belgique",
      "nationality": null
    }
  },
  {
    "id": "E-1968-22b",
    "year": 1968,
    "leg": 22,
    "title": "Melun - Paris",
    "start": {
      "city": "Melun",
      "country": "France",
      "lat": "48.542105",
      "lng": "2.6554"
    },
    "finish": {
      "city": "Paris",
      "country": "France",
      "lat": "48.856614",
      "lng": "2.352222"
    },
    "length": 55,
    "type": "(CLM)",
    "winner": {
      "name": "Jan Janssen Drapeau : Pays-Bas Pays-Bas",
      "nationality": null
    },
    "leader": {
      "name": "Jan Janssen Drapeau : Pays-Bas Pays-Bas",
      "nationality": null
    }
  },
  {
    "id": "E-1936-01",
    "year": 1936,
    "leg": 1,
    "title": "Paris - Lille",
    "start": {
      "city": "Paris",
      "country": "France",
      "lat": "48.856614",
      "lng": "2.352222"
    },
    "finish": {
      "city": "Lille",
      "country": "France",
      "lat": "50.62925",
      "lng": "3.057256"
    },
    "length": 258,
    "type": null,
    "winner": {
      "name": "Paul Egli Drapeau de Suisse Suisse",
      "nationality": null
    },
    "leader": {
      "name": "Paul Egli Drapeau de Suisse Suisse",
      "nationality": null
    }
  },
  {
    "id": "E-1936-02",
    "year": 1936,
    "leg": 2,
    "title": "Lille - Charleville-Mézières",
    "start": {
      "city": "Lille",
      "country": "France",
      "lat": "50.62925",
      "lng": "3.057256"
    },
    "finish": {
      "city": "Charleville-Mézières",
      "country": "France",
      "lat": "49.762085",
      "lng": "4.726096"
    },
    "length": 192,
    "type": null,
    "winner": {
      "name": "Robert Wierinckx Drapeau belge Belgique",
      "nationality": null
    },
    "leader": {
      "name": "Maurice Archambaud Drapeau de France France",
      "nationality": null
    }
  },
  {
    "id": "E-1936-03",
    "year": 1936,
    "leg": 3,
    "title": "Charleville-Mézières - Metz",
    "start": {
      "city": "Charleville-Mézières",
      "country": "France",
      "lat": "49.762085",
      "lng": "4.726096"
    },
    "finish": {
      "city": "Metz",
      "country": "France",
      "lat": "49.119666",
      "lng": "6.176905"
    },
    "length": 161,
    "type": null,
    "winner": {
      "name": "Mathias Clemens Drapeau du Luxembourg Luxembourg",
      "nationality": null
    },
    "leader": {
      "name": "Arsène Mersch Drapeau du Luxembourg Luxembourg",
      "nationality": null
    }
  },
  {
    "id": "E-1936-04",
    "year": 1936,
    "leg": 4,
    "title": "Metz - Belfort",
    "start": {
      "city": "Metz",
      "country": "France",
      "lat": "49.119666",
      "lng": "6.176905"
    },
    "finish": {
      "city": "Belfort",
      "country": "France",
      "lat": "47.639674",
      "lng": "6.863849"
    },
    "length": 220,
    "type": null,
    "winner": {
      "name": "Maurice Archambaud Drapeau de France France",
      "nationality": null
    },
    "leader": {
      "name": "Maurice Archambaud Drapeau de France France",
      "nationality": null
    }
  },
  {
    "id": "E-1936-05",
    "year": 1936,
    "leg": 5,
    "title": "Belfort - Évian",
    "start": {
      "city": "Belfort",
      "country": "France",
      "lat": "47.639674",
      "lng": "6.863849"
    },
    "finish": {
      "city": "Évian",
      "country": "France",
      "lat": "46.401488",
      "lng": "6.590949"
    },
    "length": 298,
    "type": null,
    "winner": {
      "name": "René Le Grevès Drapeau de France France",
      "nationality": null
    },
    "leader": {
      "name": "Maurice Archambaud Drapeau de France France",
      "nationality": null
    }
  },
  {
    "id": "E-1936-06",
    "year": 1936,
    "leg": 6,
    "title": "Évian - Aix-les-Bains",
    "start": {
      "city": "Évian",
      "country": "France",
      "lat": "46.401488",
      "lng": "6.590949"
    },
    "finish": {
      "city": "Aix-les-Bains",
      "country": "France",
      "lat": "45.692341",
      "lng": "5.908998"
    },
    "length": 212,
    "type": null,
    "winner": {
      "name": "Éloi Meulenberg Drapeau belge Belgique",
      "nationality": null
    },
    "leader": {
      "name": "Maurice Archambaud Drapeau de France France",
      "nationality": null
    }
  },
  {
    "id": "E-1936-07",
    "year": 1936,
    "leg": 7,
    "title": "Aix-les-Bains - Grenoble",
    "start": {
      "city": "Aix-les-Bains",
      "country": "France",
      "lat": "45.692341",
      "lng": "5.908998"
    },
    "finish": {
      "city": "Grenoble",
      "country": "France",
      "lat": "45.188529",
      "lng": "5.724524"
    },
    "length": 230,
    "type": null,
    "winner": {
      "name": "Theofiel Middelkamp Drapeau : Pays-Bas Pays-Bas",
      "nationality": null
    },
    "leader": {
      "name": "Maurice Archambaud Drapeau de France France",
      "nationality": null
    }
  },
  {
    "id": "E-1936-08",
    "year": 1936,
    "leg": 8,
    "title": "Grenoble - Briançon",
    "start": {
      "city": "Grenoble",
      "country": "France",
      "lat": "45.188529",
      "lng": "5.724524"
    },
    "finish": {
      "city": "Briançon",
      "country": "France",
      "lat": "44.899416",
      "lng": "6.643179"
    },
    "length": 194,
    "type": null,
    "winner": {
      "name": "Jean-Marie Goasmat Drapeau de France France",
      "nationality": null
    },
    "leader": {
      "name": "Sylvère Maes Drapeau belge Belgique",
      "nationality": null
    }
  },
  {
    "id": "E-1936-09",
    "year": 1936,
    "leg": 9,
    "title": "Briançon - Digne-les-Bains",
    "start": {
      "city": "Briançon",
      "country": "France",
      "lat": "44.899416",
      "lng": "6.643179"
    },
    "finish": {
      "city": "Digne-les-Bains",
      "country": "France",
      "lat": "44.092193",
      "lng": "6.235976"
    },
    "length": 220,
    "type": null,
    "winner": {
      "name": "Léon Level Drapeau de France France",
      "nationality": null
    },
    "leader": {
      "name": "Sylvère Maes Drapeau belge Belgique",
      "nationality": null
    }
  },
  {
    "id": "E-1936-10",
    "year": 1936,
    "leg": 10,
    "title": "Digne-les-Bains - Nice",
    "start": {
      "city": "Digne-les-Bains",
      "country": "France",
      "lat": "44.092193",
      "lng": "6.235976"
    },
    "finish": {
      "city": "Nice",
      "country": "France",
      "lat": "43.696036",
      "lng": "7.265592"
    },
    "length": 156,
    "type": null,
    "winner": {
      "name": "Paul Maye Drapeau de France France",
      "nationality": null
    },
    "leader": {
      "name": "Sylvère Maes Drapeau belge Belgique",
      "nationality": null
    }
  },
  {
    "id": "E-1936-11",
    "year": 1936,
    "leg": 11,
    "title": "Nice - Cannes",
    "start": {
      "city": "Nice",
      "country": "France",
      "lat": "43.696036",
      "lng": "7.265592"
    },
    "finish": {
      "city": "Cannes",
      "country": "France",
      "lat": "43.552847",
      "lng": "7.017369"
    },
    "length": 126,
    "type": null,
    "winner": {
      "name": "Federico Ezquerra Drapeau : Seconde République espagnoleEspagne",
      "nationality": null
    },
    "leader": {
      "name": "Sylvère Maes Drapeau belge Belgique",
      "nationality": null
    }
  },
  {
    "id": "E-1936-12",
    "year": 1936,
    "leg": 12,
    "title": "Cannes - Marseille",
    "start": {
      "city": "Cannes",
      "country": "France",
      "lat": "43.552847",
      "lng": "7.017369"
    },
    "finish": {
      "city": "Marseille",
      "country": "France",
      "lat": "43.296482",
      "lng": "5.36978"
    },
    "length": 195,
    "type": null,
    "winner": {
      "name": "René Le Grevès Drapeau de France France",
      "nationality": null
    },
    "leader": {
      "name": "Sylvère Maes Drapeau belge Belgique",
      "nationality": null
    }
  },
  {
    "id": "E-1936-13a",
    "year": 1936,
    "leg": 13,
    "title": "Marseille - Nîmes",
    "start": {
      "city": "Marseille",
      "country": "France",
      "lat": "43.296482",
      "lng": "5.36978"
    },
    "finish": {
      "city": "Nîmes",
      "country": "France",
      "lat": "43.836699",
      "lng": "4.360054"
    },
    "length": 112,
    "type": null,
    "winner": {
      "name": "René Le Grevès Drapeau de France France",
      "nationality": null
    },
    "leader": {
      "name": "Sylvère Maes Drapeau belge Belgique",
      "nationality": null
    }
  },
  {
    "id": "E-1936-13b",
    "year": 1936,
    "leg": 13,
    "title": "Nîmes - Montpellier",
    "start": {
      "city": "Nîmes",
      "country": "France",
      "lat": "43.836699",
      "lng": "4.360054"
    },
    "finish": {
      "city": "Montpellier",
      "country": "France",
      "lat": "43.610769",
      "lng": "3.876716"
    },
    "length": 52,
    "type": "CLM indiv",
    "winner": {
      "name": "Sylvère Maes Drapeau belge Belgique",
      "nationality": null
    },
    "leader": {
      "name": "Sylvère Maes Drapeau belge Belgique",
      "nationality": null
    }
  },
  {
    "id": "E-1936-14a",
    "year": 1936,
    "leg": 14,
    "title": "Montpellier - Narbonne",
    "start": {
      "city": "Montpellier",
      "country": "France",
      "lat": "43.610769",
      "lng": "3.876716"
    },
    "finish": {
      "city": "Narbonne",
      "country": "France",
      "lat": "43.184277",
      "lng": "3.003078"
    },
    "length": 103,
    "type": null,
    "winner": {
      "name": "René Le Grevès Drapeau de France France",
      "nationality": null
    },
    "leader": {
      "name": "Sylvère Maes Drapeau belge Belgique",
      "nationality": null
    }
  },
  {
    "id": "E-1936-14b",
    "year": 1936,
    "leg": 14,
    "title": "Narbonne - Perpignan",
    "start": {
      "city": "Narbonne",
      "country": "France",
      "lat": "43.184277",
      "lng": "3.003078"
    },
    "finish": {
      "city": "Perpignan",
      "country": "France",
      "lat": "42.698684",
      "lng": "2.895872"
    },
    "length": 63,
    "type": "CLM indiv",
    "winner": {
      "name": "Sylvère Maes Drapeau belge Belgique",
      "nationality": null
    },
    "leader": {
      "name": "Sylvère Maes Drapeau belge Belgique",
      "nationality": null
    }
  },
  {
    "id": "E-1936-15",
    "year": 1936,
    "leg": 15,
    "title": "Perpignan - Luchon",
    "start": {
      "city": "Perpignan",
      "country": "France",
      "lat": "42.698684",
      "lng": "2.895872"
    },
    "finish": {
      "city": "Luchon",
      "country": "France",
      "lat": "42.788963",
      "lng": "0.592943"
    },
    "length": 325,
    "type": null,
    "winner": {
      "name": "Sauveur Ducazeaux Drapeau de France France",
      "nationality": null
    },
    "leader": {
      "name": "Sylvère Maes Drapeau belge Belgique",
      "nationality": null
    }
  },
  {
    "id": "E-1936-16",
    "year": 1936,
    "leg": 16,
    "title": "Luchon - Pau",
    "start": {
      "city": "Luchon",
      "country": "France",
      "lat": "42.788963",
      "lng": "0.592943"
    },
    "finish": {
      "city": "Pau",
      "country": "France",
      "lat": "43.2951",
      "lng": "-0.370797"
    },
    "length": 194,
    "type": null,
    "winner": {
      "name": "Sylvère Maes Drapeau belge Belgique",
      "nationality": null
    },
    "leader": {
      "name": "Sylvère Maes Drapeau belge Belgique",
      "nationality": null
    }
  },
  {
    "id": "E-1936-17",
    "year": 1936,
    "leg": 17,
    "title": "Pau - Bordeaux",
    "start": {
      "city": "Pau",
      "country": "France",
      "lat": "43.2951",
      "lng": "-0.370797"
    },
    "finish": {
      "city": "Bordeaux",
      "country": "France",
      "lat": "44.837789",
      "lng": "-0.57918"
    },
    "length": 229,
    "type": null,
    "winner": {
      "name": "René Le Grevès Drapeau de France France",
      "nationality": null
    },
    "leader": {
      "name": "Sylvère Maes Drapeau belge Belgique",
      "nationality": null
    }
  },
  {
    "id": "E-1936-18a",
    "year": 1936,
    "leg": 18,
    "title": "Bordeaux - Saintes",
    "start": {
      "city": "Bordeaux",
      "country": "France",
      "lat": "44.837789",
      "lng": "-0.57918"
    },
    "finish": {
      "city": "Saintes",
      "country": "France",
      "lat": "45.744175",
      "lng": "-0.633389"
    },
    "length": 117,
    "type": null,
    "winner": {
      "name": "Éloi Meulenberg Drapeau belge Belgique",
      "nationality": null
    },
    "leader": {
      "name": "Sylvère Maes Drapeau belge Belgique",
      "nationality": null
    }
  },
  {
    "id": "E-1936-18b",
    "year": 1936,
    "leg": 18,
    "title": "Saintes - La Rochelle",
    "start": {
      "city": "Saintes",
      "country": "France",
      "lat": "45.744175",
      "lng": "-0.633389"
    },
    "finish": {
      "city": "La Rochelle",
      "country": "France",
      "lat": "46.160329",
      "lng": "-1.151139"
    },
    "length": 75,
    "type": "CLM indiv",
    "winner": {
      "name": "Sylvère Maes Drapeau belge Belgique",
      "nationality": null
    },
    "leader": {
      "name": "Sylvère Maes Drapeau belge Belgique",
      "nationality": null
    }
  },
  {
    "id": "E-1936-19a",
    "year": 1936,
    "leg": 19,
    "title": "La Rochelle - La Roche-sur-Yon",
    "start": {
      "city": "La Rochelle",
      "country": "France",
      "lat": "46.160329",
      "lng": "-1.151139"
    },
    "finish": {
      "city": "La Roche-sur-Yon",
      "country": "France",
      "lat": "46.670511",
      "lng": "-1.426442"
    },
    "length": 81,
    "type": null,
    "winner": {
      "name": "Marcel Kint Drapeau belge Belgique",
      "nationality": null
    },
    "leader": {
      "name": "Sylvère Maes Drapeau belge Belgique",
      "nationality": null
    }
  },
  {
    "id": "E-1936-19b",
    "year": 1936,
    "leg": 19,
    "title": "La Roche-sur-Yon - Cholet",
    "start": {
      "city": "La Roche-sur-Yon",
      "country": "France",
      "lat": "46.670511",
      "lng": "-1.426442"
    },
    "finish": {
      "city": "Cholet",
      "country": "France",
      "lat": "47.059407",
      "lng": "-0.879787"
    },
    "length": 65,
    "type": "CLM indiv",
    "winner": {
      "name": "Félicien Vervaecke Drapeau belge Belgique",
      "nationality": null
    },
    "leader": {
      "name": "Sylvère Maes Drapeau belge Belgique",
      "nationality": null
    }
  },
  {
    "id": "E-1936-19c",
    "year": 1936,
    "leg": 19,
    "title": "Cholet - Angers",
    "start": {
      "city": "Cholet",
      "country": "France",
      "lat": "47.059407",
      "lng": "-0.879787"
    },