{
  "year": 1905,
  "edition": 3,
  "total_length": 2994,
  "nb_legs": 11,
  "has_prologue": false,
  "nb_concurrents": 60,
  "nb_finishers": 24,
  "pct_finishers": 40,
  "winner_first_name": "Louis",
  "winner_last_name": "Trousselier",
  "winner_id": "louis-trousselier",
  "winner_total_time": "110h 26' 58”",
  "winner_age": "24",
  "winner_country": "France",
  "winner_avg_speed": "27,107",
  "ahead_of_2nd": "n.a.",
  "second_name": "H. Aucouturier",
  "second_country": "France",
  "second_id": null,
  "ahead_of_3rd": "n.a.",
  "third_name": "JB. Dortignacq",
  "third_country": "France",
  "third_id": null,
  "legs": [
    {
      "id": "E-1905-01",
      "year": 1905,
      "leg": "1",
      "leg_num": 0,
      "title": "Paris",
      "start": {
        "city": "France",
        "country": "48.856614,2.352222",
        "lat": "Nancy",
        "lng": null
      },
      "finish": {
        "city": "France",
        "country": "48.692054,6.184417",
        "lat": "340",
        "lng": null
      },
      "length": 0
    },
    {
      "id": "E-1905-02",
      "year": 1905,
      "leg": "2",
      "leg_num": 0,
      "title": "Nancy",
      "start": {
        "city": "France",
        "country": "48.692054,6.184417",
        "lat": "Besançon",
        "lng": null
      },
      "finish": {
        "city": "France",
        "country": "47.237829,6.024054",
        "lat": "299",
        "lng": null
      },
      "length": 0
    },
    {
      "id": "E-1905-03",
      "year": 1905,
      "leg": "3",
      "leg_num": 0,
      "title": "Besançon",
      "start": {
        "city": "France",
        "country": "47.237829,6.024054",
        "lat": "Grenoble",
        "lng": null
      },
      "finish": {
        "city": "France",
        "country": "45.188529,5.724524",
        "lat": "327",
        "lng": null
      },
      "length": 0
    },
    {
      "id": "E-1905-04",
      "year": 1905,
      "leg": "4",
      "leg_num": 0,
      "title": "Grenoble",
      "start": {
        "city": "France",
        "country": "45.188529,5.724524",
        "lat": "Toulon",
        "lng": null
      },
      "finish": {
        "city": "France",
        "country": "43.124228,5.928",
        "lat": "348",
        "lng": null
      },
      "length": 0
    },
    {
      "id": "E-1905-05",
      "year": 1905,
      "leg": "5",
      "leg_num": 0,
      "title": "Toulon",
      "start": {
        "city": "France",
        "country": "43.124228,5.928",
        "lat": "Nîmes",
        "lng": null
      },
      "finish": {
        "city": "France",
        "country": "43.836699,4.360054",
        "lat": "192",
        "lng": null
      },
      "length": 0
    },
    {
      "id": "E-1905-06",
      "year": 1905,
      "leg": "6",
      "leg_num": 0,
      "title": "Nîmes",
      "start": {
        "city": "France",
        "country": "43.836699,4.360054",
        "lat": "Toulouse",
        "lng": null
      },
      "finish": {
        "city": "France",
        "country": "43.604652,1.444209",
        "lat": "307",
        "lng": null
      },
      "length": 0
    },
    {
      "id": "E-1905-07",
      "year": 1905,
      "leg": "7",
      "leg_num": 0,
      "title": "Toulouse",
      "start": {
        "city": "France",
        "country": "43.604652,1.444209",
        "lat": "Bordeaux",
        "lng": null
      },
      "finish": {
        "city": "France",
        "country": "44.837789,-0.57918",
        "lat": "268",
        "lng": null
      },
      "length": 0
    },
    {
      "id": "E-1905-08",
      "year": 1905,
      "leg": "8",
      "leg_num": 0,
      "title": "Bordeaux",
      "start": {
        "city": "France",
        "country": "44.837789,-0.57918",
        "lat": "La Rochelle",
        "lng": null
      },
      "finish": {
        "city": "France",
        "country": "46.160329,-1.151139",
        "lat": "257",
        "lng": null
      },
      "length": 0
    },
    {
      "id": "E-1905-09",
      "year": 1905,
      "leg": "9",
      "leg_num": 0,
      "title": "La Rochelle",
      "start": {
        "city": "France",
        "country": "46.160329,-1.151139",
        "lat": "Rennes",
        "lng": null
      },
      "finish": {
        "city": "France",
        "country": "48.113475,-1.675708",
        "lat": "263",
        "lng": null
      },
      "length": 0
    },
    {
      "id": "E-1905-10",
      "year": 1905,
      "leg": "10",
      "leg_num": 0,
      "title": "Rennes",
      "start": {
        "city": "France",
        "country": "48.113475,-1.675708",
        "lat": "Caen",
        "lng": null
      },
      "finish": {
        "city": "France",
        "country": "49.182863,-0.370679",
        "lat": "167",
        "lng": null
      },
      "length": 0
    },
    {
      "id": "E-1905-11",
      "year": 1905,
      "leg": "11",
      "leg_num": 0,
      "title": "Caen",
      "start": {
        "city": "France",
        "country": "49.182863,-0.370679",
        "lat": "Paris",
        "lng": null
      },
      "finish": {
        "city": "France",
        "country": "48.856614,2.352222",
        "lat": "253",
        "lng": null
      },
      "length": 0
    }
  ]
}