{
  "year": 1905,
  "edition": 3,
  "total_length": 2994,
  "nb_legs": 11,
  "has_prologue": false,
  "nb_concurrents": 60,
  "nb_finishers": 24,
  "pct_finishers": 40,
  "winner_first_name": "Louis",
  "winner_last_name": "Trousselier",
  "winner_id": "louis-trousselier",
  "winner_total_time": "110h 26' 58”",
  "winner_age": "24",
  "winner_country": "France",
  "winner_avg_speed": "27,107",
  "ahead_of_2nd": "n.a.",
  "second_name": "H. Aucouturier",
  "second_country": "France",
  "second_id": null,
  "ahead_of_3rd": "n.a.",
  "third_name": "JB. Dortignacq",
  "third_country": "France",
  "third_id": null,
  "legs": [
    {
      "id": "E-1905-02",
      "year": 1905,
      "leg": "2",
      "leg_num": 1,
      "title": "Nancy - Besançon",
      "start": {
        "city": "Nancy",
        "country": "France",
        "lat": "48.692054",
        "lng": "6.184417"
      },
      "finish": {
        "city": "Besançon",
        "country": "France",
        "lat": "47.237829",
        "lng": "6.024054"
      },
      "length": 299,
      "type": null,
      "winner": {
        "name": null,
        "nationality": null
      },
      "leader": {
        "name": null,
        "nationality": null
      }
    },
    {
      "id": "E-1905-03",
      "year": 1905,
      "leg": "3",
      "leg_num": 2,
      "title": "Besançon - Grenoble",
      "start": {
        "city": "Besançon",
        "country": "France",
        "lat": "47.237829",
        "lng": "6.024054"
      },
      "finish": {
        "city": "Grenoble",
        "country": "France",
        "lat": "45.188529",
        "lng": "5.724524"
      },
      "length": 327,
      "type": null,
      "winner": {
        "name": null,
        "nationality": null
      },
      "leader": {
        "name": null,
        "nationality": null
      }
    },
    {
      "id": "E-1905-04",
      "year": 1905,
      "leg": "4",
      "leg_num": 3,
      "title": "Grenoble - Toulon",
      "start": {
        "city": "Grenoble",
        "country": "France",
        "lat": "45.188529",
        "lng": "5.724524"
      },
      "finish": {
        "city": "Toulon",
        "country": "France",
        "lat": "43.124228",
        "lng": "5.928"
      },
      "length": 348,
      "type": null,
      "winner": {
        "name": null,
        "nationality": null
      },
      "leader": {
        "name": null,
        "nationality": null
      }
    },
    {
      "id": "E-1905-05",
      "year": 1905,
      "leg": "5",
      "leg_num": 4,
      "title": "Toulon - Nîmes",
      "start": {
        "city": "Toulon",
        "country": "France",
        "lat": "43.124228",
        "lng": "5.928"
      },
      "finish": {
        "city": "Nîmes",
        "country": "France",
        "lat": "43.836699",
        "lng": "4.360054"
      },
      "length": 192,
      "type": null,
      "winner": {
        "name": null,
        "nationality": null
      },
      "leader": {
        "name": null,
        "nationality": null
      }
    },
    {
      "id": "E-1905-06",
      "year": 1905,
      "leg": "6",
      "leg_num": 5,
      "title": "Nîmes - Toulouse",
      "start": {
        "city": "Nîmes",
        "country": "France",
        "lat": "43.836699",
        "lng": "4.360054"
      },
      "finish": {
        "city": "Toulouse",
        "country": "France",
        "lat": "43.604652",
        "lng": "1.444209"
      },
      "length": 307,
      "type": null,
      "winner": {
        "name": null,
        "nationality": null
      },
      "leader": {
        "name": null,
        "nationality": null
      }
    },
    {
      "id": "E-1905-07",
      "year": 1905,
      "leg": "7",
      "leg_num": 6,
      "title": "Toulouse - Bordeaux",
      "start": {
        "city": "Toulouse",
        "country": "France",
        "lat": "43.604652",
        "lng": "1.444209"
      },
      "finish": {
        "city": "Bordeaux",
        "country": "France",
        "lat": "44.837789",
        "lng": "-0.57918"
      },
      "length": 268,
      "type": null,
      "winner": {
        "name": null,
        "nationality": null
      },
      "leader": {
        "name": null,
        "nationality": null
      }
    },
    {
      "id": "E-1905-08",
      "year": 1905,
      "leg": "8",
      "leg_num": 7,
      "title": "Bordeaux - La Rochelle",
      "start": {
        "city": "Bordeaux",
        "country": "France",
        "lat": "44.837789",
        "lng": "-0.57918"
      },
      "finish": {
        "city": "La Rochelle",
        "country": "France",
        "lat": "46.160329",
        "lng": "-1.151139"
      },
      "length": 257,
      "type": null,
      "winner": {
        "name": null,
        "nationality": null
      },
      "leader": {
        "name": null,
        "nationality": null
      }
    },
    {
      "id": "E-1905-09",
      "year": 1905,
      "leg": "9",
      "leg_num": 8,
      "title": "La Rochelle - Rennes",
      "start": {
        "city": "La Rochelle",
        "country": "France",
        "lat": "46.160329",
        "lng": "-1.151139"
      },
      "finish": {
        "city": "Rennes",
        "country": "France",
        "lat": "48.113475",
        "lng": "-1.675708"
      },
      "length": 263,
      "type": null,
      "winner": {
        "name": null,
        "nationality": null
      },
      "leader": {
        "name": null,
        "nationality": null
      }
    },
    {
      "id": "E-1905-10",
      "year": 1905,
      "leg": "10",
      "leg_num": 9,
      "title": "Rennes - Caen",
      "start": {
        "city": "Rennes",
        "country": "France",
        "lat": "48.113475",
        "lng": "-1.675708"
      },
      "finish": {
        "city": "Caen",
        "country": "France",
        "lat": "49.182863",
        "lng": "-0.370679"
      },
      "length": 167,
      "type": null,
      "winner": {
        "name": null,
        "nationality": null
      },
      "leader": {
        "name": null,
        "nationality": null
      }
    },
    {
      "id": "E-1905-11",
      "year": 1905,
      "leg": "11",
      "leg_num": 10,
      "title": "Caen - Paris",
      "start": {
        "city": "Caen",
        "country": "France",
        "lat": "49.182863",
        "lng": "-0.370679"
      },
      "finish": {
        "city": "Paris",
        "country": "France",
        "lat": "48.856614",
        "lng": "2.352222"
      },
      "length": 253,
      "type": null,
      "winner": {
        "name": null,
        "nationality": null
      },
      "leader": {
        "name": null,
        "nationality": null
      }
    },
    {
      "id": "E-1905-01",
      "year": 1905,
      "leg": "1",
      "leg_num": 13,
      "title": "Paris - Nancy",
      "start": {
        "city": "Paris",
        "country": "France",
        "lat": "48.856614",
        "lng": "2.352222"
      },
      "finish": {
        "city": "Nancy",
        "country": "France",
        "lat": "48.692054",
        "lng": "6.184417"
      },
      "length": 340,
      "type": null,
      "winner": {
        "name": null,
        "nationality": null
      },
      "leader": {
        "name": null,
        "nationality": null
      }
    }
  ]
}