{
  "year": 1906,
  "edition": 4,
  "total_length": 4637,
  "nb_legs": 13,
  "has_prologue": false,
  "nb_concurrents": 82,
  "nb_finishers": 14,
  "pct_finishers": 17,
  "winner_first_name": "Ren√©",
  "winner_last_name": "Pottier",
  "winner_id": "rene-pottier",
  "winner_total_time": "189h 34' 00\"",
  "winner_age": "27",
  "winner_country": "France",
  "winner_avg_speed": "24,463",
  "ahead_of_2nd": "n.a.",
  "second_name": "G. Passerieu",
  "second_country": "France",
  "second_id": null,
  "ahead_of_3rd": "n.a.",
  "third_name": "L. Trousselier",
  "third_country": "France",
  "third_id": "louis-trousselier",
  "legs": [
    {
      "id": "E-1906-01",
      "year": 1906,
      "leg": "1",
      "leg_num": 0,
      "title": "Paris",
      "start": {
        "city": "France",
        "country": "48.856614,2.352222",
        "lat": "Lille",
        "lng": null
      },
      "finish": {
        "city": "France",
        "country": "50.62925,3.057256",
        "lat": "275",
        "lng": null
      },
      "length": 0
    },
    {
      "id": "E-1906-02",
      "year": 1906,
      "leg": "2",
      "leg_num": 0,
      "title": "Douai",
      "start": {
        "city": "France",
        "country": "50.367874,3.080602",
        "lat": "Nancy",
        "lng": null
      },
      "finish": {
        "city": "France",
        "country": "48.692054,6.184417",
        "lat": "400",
        "lng": null
      },
      "length": 0
    },
    {
      "id": "E-1906-03",
      "year": 1906,
      "leg": "3",
      "leg_num": 0,
      "title": "Nancy",
      "start": {
        "city": "France",
        "country": "48.692054,6.184417",
        "lat": "Dijon",
        "lng": null
      },
      "finish": {
        "city": "France",
        "country": "47.322047,5.04148",
        "lat": "416",
        "lng": null
      },
      "length": 0
    },
    {
      "id": "E-1906-04",
      "year": 1906,
      "leg": "4",
      "leg_num": 0,
      "title": "Dijon",
      "start": {
        "city": "France",
        "country": "47.322047,5.04148",
        "lat": "Grenoble",
        "lng": null
      },
      "finish": {
        "city": "France",
        "country": "45.188529,5.724524",
        "lat": "311",
        "lng": null
      },
      "length": 0
    },
    {
      "id": "E-1906-05",
      "year": 1906,
      "leg": "5",
      "leg_num": 0,
      "title": "Grenoble",
      "start": {
        "city": "France",
        "country": "45.188529,5.724524",
        "lat": "Nice",
        "lng": null
      },
      "finish": {
        "city": "France",
        "country": "43.696036,7.265592",
        "lat": "345",
        "lng": null
      },
      "length": 0
    },
    {
      "id": "E-1906-06",
      "year": 1906,
      "leg": "6",
      "leg_num": 0,
      "title": "Nice",
      "start": {
        "city": "France",
        "country": "43.696036,7.265592",
        "lat": "Marseille",
        "lng": null
      },
      "finish": {
        "city": "France",
        "country": "43.296482,5.36978",
        "lat": "292",
        "lng": null
      },
      "length": 0
    },
    {
      "id": "E-1906-07",
      "year": 1906,
      "leg": "7",
      "leg_num": 0,
      "title": "Marseille",
      "start": {
        "city": "France",
        "country": "43.296482,5.36978",
        "lat": "Toulouse",
        "lng": null
      },
      "finish": {
        "city": "France",
        "country": "43.604652,1.444209",
        "lat": "480",
        "lng": null
      },
      "length": 0
    },
    {
      "id": "E-1906-08",
      "year": 1906,
      "leg": "8",
      "leg_num": 0,
      "title": "Toulouse",
      "start": {
        "city": "France",
        "country": "43.604652,1.444209",
        "lat": "Bayonne",
        "lng": null
      },
      "finish": {
        "city": "France",
        "country": "43.492949,-1.474841",
        "lat": "300",
        "lng": null
      },
      "length": 0
    },
    {
      "id": "E-1906-09",
      "year": 1906,
      "leg": "9",
      "leg_num": 0,
      "title": "Bayonne",
      "start": {
        "city": "France",
        "country": "43.492949,-1.474841",
        "lat": "Bordeaux",
        "lng": null
      },
      "finish": {
        "city": "France",
        "country": "44.837789,-0.57918",
        "lat": "338",
        "lng": null
      },
      "length": 0
    },
    {
      "id": "E-1906-10",
      "year": 1906,
      "leg": "10",
      "leg_num": 0,
      "title": "Bordeaux",
      "start": {
        "city": "France",
        "country": "44.837789,-0.57918",
        "lat": "Nantes",
        "lng": null
      },
      "finish": {
        "city": "France",
        "country": "47.218371,-1.553621",
        "lat": "391",
        "lng": null
      },
      "length": 0
    },
    {
      "id": "E-1906-11",
      "year": 1906,
      "leg": "11",
      "leg_num": 0,
      "title": "Nantes",
      "start": {
        "city": "France",
        "country": "47.218371,-1.553621",
        "lat": "Brest",
        "lng": null
      },
      "finish": {
        "city": "France",
        "country": "48.390394,-4.486076",
        "lat": "321",
        "lng": null
      },
      "length": 0
    },
    {
      "id": "E-1906-12",
      "year": 1906,
      "leg": "12",
      "leg_num": 0,
      "title": "Brest",
      "start": {
        "city": "France",
        "country": "48.390394,-4.486076",
        "lat": "Caen",
        "lng": null
      },
      "finish": {
        "city": "France",
        "country": "49.182863,-0.370679",
        "lat": "415",
        "lng": null
      },
      "length": 0
    },
    {
      "id": "E-1906-13",
      "year": 1906,
      "leg": "13",
      "leg_num": 0,
      "title": "Caen",
      "start": {
        "city": "France",
        "country": "49.182863,-0.370679",
        "lat": "Paris",
        "lng": null
      },
      "finish": {
        "city": "France",
        "country": "48.856614,2.352222",
        "lat": "259",
        "lng": null
      },
      "length": 0
    }
  ]
}