{
  "year": 1907,
  "edition": 5,
  "total_length": 4488,
  "nb_legs": 14,
  "has_prologue": false,
  "nb_concurrents": 93,
  "nb_finishers": 33,
  "pct_finishers": 35,
  "winner_first_name": "Lucien",
  "winner_last_name": "Petit-Breton",
  "winner_id": "lucien-petit-breton",
  "winner_total_time": "158h 45' 05\"",
  "winner_age": "24",
  "winner_country": "France",
  "winner_avg_speed": "28,470",
  "ahead_of_2nd": "n.a.",
  "second_name": "G. Garrigou",
  "second_country": "France",
  "second_id": null,
  "ahead_of_3rd": "n.a.",
  "third_name": "E. Georget",
  "third_country": "France",
  "third_id": null,
  "legs": [
    {
      "id": "E-1907-01",
      "year": 1907,
      "leg": "1",
      "leg_num": 0,
      "title": "Paris",
      "start": {
        "city": "France",
        "country": "48.856614,2.352222",
        "lat": "Roubaix",
        "lng": null
      },
      "finish": {
        "city": "France",
        "country": "50.692705,3.177847",
        "lat": "272",
        "lng": null
      },
      "length": 0
    },
    {
      "id": "E-1907-02",
      "year": 1907,
      "leg": "2",
      "leg_num": 0,
      "title": "Roubaix",
      "start": {
        "city": "France",
        "country": "50.692705,3.177847",
        "lat": "Metz",
        "lng": null
      },
      "finish": {
        "city": "France",
        "country": "49.119666,6.176905",
        "lat": "398",
        "lng": null
      },
      "length": 0
    },
    {
      "id": "E-1907-03",
      "year": 1907,
      "leg": "3",
      "leg_num": 0,
      "title": "Metz",
      "start": {
        "city": "France",
        "country": "49.119666,6.176905",
        "lat": "Belfort",
        "lng": null
      },
      "finish": {
        "city": "France",
        "country": "47.639674,6.863849",
        "lat": "259",
        "lng": null
      },
      "length": 0
    },
    {
      "id": "E-1907-04",
      "year": 1907,
      "leg": "4",
      "leg_num": 0,
      "title": "Belfort",
      "start": {
        "city": "France",
        "country": "47.639674,6.863849",
        "lat": "Lyon",
        "lng": null
      },
      "finish": {
        "city": "France",
        "country": "45.764043,4.835659",
        "lat": "309",
        "lng": null
      },
      "length": 0
    },
    {
      "id": "E-1907-05",
      "year": 1907,
      "leg": "5",
      "leg_num": 0,
      "title": "Lyon",
      "start": {
        "city": "France",
        "country": "45.764043,4.835659",
        "lat": "Grenoble",
        "lng": null
      },
      "finish": {
        "city": "France",
        "country": "45.188529,5.724524",
        "lat": "311",
        "lng": null
      },
      "length": 0
    },
    {
      "id": "E-1907-06",
      "year": 1907,
      "leg": "6",
      "leg_num": 0,
      "title": "Grenoble",
      "start": {
        "city": "France",
        "country": "45.188529,5.724524",
        "lat": "Nice",
        "lng": null
      },
      "finish": {
        "city": "France",
        "country": "43.696036,7.265592",
        "lat": "345",
        "lng": null
      },
      "length": 0
    },
    {
      "id": "E-1907-07",
      "year": 1907,
      "leg": "7",
      "leg_num": 0,
      "title": "Nice",
      "start": {
        "city": "France",
        "country": "43.696036,7.265592",
        "lat": "Nîmes",
        "lng": null
      },
      "finish": {
        "city": "France",
        "country": "43.836699,4.360054",
        "lat": "345",
        "lng": null
      },
      "length": 0
    },
    {
      "id": "E-1907-08",
      "year": 1907,
      "leg": "8",
      "leg_num": 0,
      "title": "Nîmes",
      "start": {
        "city": "France",
        "country": "43.836699,4.360054",
        "lat": "Toulouse",
        "lng": null
      },
      "finish": {
        "city": "France",
        "country": "43.604652,1.444209",
        "lat": "303",
        "lng": null
      },
      "length": 0
    },
    {
      "id": "E-1907-09",
      "year": 1907,
      "leg": "9",
      "leg_num": 0,
      "title": "Toulouse",
      "start": {
        "city": "France",
        "country": "43.604652,1.444209",
        "lat": "Bayonne",
        "lng": null
      },
      "finish": {
        "city": "France",
        "country": "43.492949,-1.474841",
        "lat": "299",
        "lng": null
      },
      "length": 0
    },
    {
      "id": "E-1907-10",
      "year": 1907,
      "leg": "10",
      "leg_num": 0,
      "title": "Bayonne",
      "start": {
        "city": "France",
        "country": "43.492949,-1.474841",
        "lat": "Bordeaux",
        "lng": null
      },
      "finish": {
        "city": "France",
        "country": "44.837789,-0.57918",
        "lat": "269",
        "lng": null
      },
      "length": 0
    },
    {
      "id": "E-1907-11",
      "year": 1907,
      "leg": "11",
      "leg_num": 0,
      "title": "Bordeaux",
      "start": {
        "city": "France",
        "country": "44.837789,-0.57918",
        "lat": "Nantes",
        "lng": null
      },
      "finish": {
        "city": "France",
        "country": "47.218371,-1.553621",
        "lat": "391",
        "lng": null
      },
      "length": 0
    },
    {
      "id": "E-1907-12",
      "year": 1907,
      "leg": "12",
      "leg_num": 0,
      "title": "Nantes",
      "start": {
        "city": "France",
        "country": "47.218371,-1.553621",
        "lat": "Brest",
        "lng": null
      },
      "finish": {
        "city": "France",
        "country": "48.390394,-4.486076",
        "lat": "321",
        "lng": null
      },
      "length": 0
    },
    {
      "id": "E-1907-13",
      "year": 1907,
      "leg": "13",
      "leg_num": 0,
      "title": "Brest",
      "start": {
        "city": "France",
        "country": "48.390394,-4.486076",
        "lat": "Caen",
        "lng": null
      },
      "finish": {
        "city": "France",
        "country": "49.182863,-0.370679",
        "lat": "415",
        "lng": null
      },
      "length": 0
    },
    {
      "id": "E-1907-14",
      "year": 1907,
      "leg": "14",
      "leg_num": 0,
      "title": "Caen",
      "start": {
        "city": "France",
        "country": "49.182863,-0.370679",
        "lat": "Paris",
        "lng": null
      },
      "finish": {
        "city": "France",
        "country": "48.856614,2.352222",
        "lat": "251",
        "lng": null
      },
      "length": 0
    }
  ]
}