{
  "year": 1908,
  "edition": 6,
  "total_length": 4488,
  "nb_legs": 14,
  "has_prologue": false,
  "nb_concurrents": 110,
  "nb_finishers": 36,
  "pct_finishers": 33,
  "winner_name": "Lucien Petit-Breton",
  "winner_time": "156h 53’ 29”",
  "ahead_of_2nd": "n.a.",
  "second_name": "F. Faber",
  "second_country": "Luxembourg",
  "ahead_of_3rd": "n.a.",
  "third_name": "G. Passerieu",
  "third_country": "G. Passerieu",
  "legs": [
    {
      "id": "E-1908-01",
      "year": 1908,
      "leg": 1,
      "title": "Paris – Roubaix",
      "start": {
        "city": "Paris",
        "country": "France",
        "lat": "48.856614",
        "lng": "2.352222"
      },
      "finish": {
        "city": "Roubaix",
        "country": "France",
        "lat": "50.692705",
        "lng": "3.177847"
      },
      "length": 272,
      "type": null,
      "winner": {
        "name": "Drapeau : FranceGeorges Passerieu",
        "nationality": null
      },
      "leader": {
        "name": "Drapeau : FranceGeorges Passerieu",
        "nationality": null
      }
    },
    {
      "id": "E-1908-02",
      "year": 1908,
      "leg": 2,
      "title": "Roubaix – Metz",
      "start": {
        "city": "Roubaix",
        "country": "France",
        "lat": "50.692705",
        "lng": "3.177847"
      },
      "finish": {
        "city": "Metz",
        "country": "Empire Allemand",
        "lat": "49.119666",
        "lng": "6.176905"
      },
      "length": 398,
      "type": null,
      "winner": {
        "name": "Drapeau : FranceLucien Petit-Breton",
        "nationality": null
      },
      "leader": {
        "name": "Drapeau : FranceGeorges Passerieu || Drapeau : FranceLucien Petit-Breton",
        "nationality": null
      }
    },
    {
      "id": "E-1908-03",
      "year": 1908,
      "leg": 3,
      "title": "Metz – Belfort",
      "start": {
        "city": "Metz",
        "country": "Empire Allemand",
        "lat": "49.119666",
        "lng": "6.176905"
      },
      "finish": {
        "city": "Belfort",
        "country": "France",
        "lat": "47.639674",
        "lng": "6.863849"
      },
      "length": 259,
      "type": null,
      "winner": {
        "name": "Drapeau : LuxembourgFrançois Faber",
        "nationality": null
      },
      "leader": {
        "name": "Drapeau : FranceLucien Petit-Breton",
        "nationality": null
      }
    },
    {
      "id": "E-1908-04",
      "year": 1908,
      "leg": 4,
      "title": "Belfort – Lyon",
      "start": {
        "city": "Belfort",
        "country": "France",
        "lat": "47.639674",
        "lng": "6.863849"
      },
      "finish": {
        "city": "Lyon",
        "country": "France",
        "lat": "45.764043",
        "lng": "4.835659"
      },
      "length": 309,
      "type": null,
      "winner": {
        "name": "Drapeau : LuxembourgFrançois Faber",
        "nationality": null
      },
      "leader": {
        "name": "Drapeau : FranceLucien Petit-Breton",
        "nationality": null
      }
    },
    {
      "id": "E-1908-05",
      "year": 1908,
      "leg": 5,
      "title": "Lyon – Grenoble",
      "start": {
        "city": "Lyon",
        "country": "France",
        "lat": "45.764043",
        "lng": "4.835659"
      },
      "finish": {
        "city": "Grenoble",
        "country": "France",
        "lat": "45.188529",
        "lng": "5.724524"
      },
      "length": 311,
      "type": null,
      "winner": {
        "name": "Drapeau : FranceGeorges Passerieu",
        "nationality": null
      },
      "leader": {
        "name": "Drapeau : FranceLucien Petit-Breton",
        "nationality": null
      }
    },
    {
      "id": "E-1908-06",
      "year": 1908,
      "leg": 6,
      "title": "Grenoble – Nice",
      "start": {
        "city": "Grenoble",
        "country": "France",
        "lat": "45.188529",
        "lng": "5.724524"
      },
      "finish": {
        "city": "Nice",
        "country": "France",
        "lat": "43.696036",
        "lng": "7.265592"
      },
      "length": 345,
      "type": null,
      "winner": {
        "name": "Drapeau : FranceJean-Baptiste Dortignacq",
        "nationality": null
      },
      "leader": {
        "name": "Drapeau : FranceLucien Petit-Breton",
        "nationality": null
      }
    },
    {
      "id": "E-1908-07",
      "year": 1908,
      "leg": 7,
      "title": "Nice – Nîmes",
      "start": {
        "city": "Nice",
        "country": "France",
        "lat": "43.696036",
        "lng": "7.265592"
      },
      "finish": {
        "city": "Nîmes",
        "country": "France",
        "lat": "43.836699",
        "lng": "4.360054"
      },
      "length": 345,
      "type": null,
      "winner": {
        "name": "Drapeau : FranceLucien Petit-Breton",
        "nationality": null
      },
      "leader": {
        "name": "Drapeau : FranceLucien Petit-Breton",
        "nationality": null
      }
    },
    {
      "id": "E-1908-08",
      "year": 1908,
      "leg": 8,
      "title": "Nîmes – Toulouse",
      "start": {
        "city": "Nîmes",
        "country": "France",
        "lat": "43.836699",
        "lng": "4.360054"
      },
      "finish": {
        "city": "Toulouse",
        "country": "France",
        "lat": "43.604652",
        "lng": "1.444209"
      },
      "length": 303,
      "type": null,
      "winner": {
        "name": "Drapeau : LuxembourgFrançois Faber",
        "nationality": null
      },
      "leader": {
        "name": "Drapeau : FranceLucien Petit-Breton",
        "nationality": null
      }
    },
    {
      "id": "E-1908-09",
      "year": 1908,
      "leg": 9,
      "title": "Toulouse – Bayonne",
      "start": {
        "city": "Toulouse",
        "country": "France",
        "lat": "43.604652",
        "lng": "1.444209"
      },
      "finish": {
        "city": "Bayonne",
        "country": "France",
        "lat": "43.492949",
        "lng": "-1.474841"
      },
      "length": 299,
      "type": null,
      "winner": {
        "name": "Drapeau : FranceLucien Petit-Breton",
        "nationality": null
      },
      "leader": {
        "name": "Drapeau : FranceLucien Petit-Breton",
        "nationality": null
      }
    },
    {
      "id": "E-1908-10",
      "year": 1908,
      "leg": 10,
      "title": "Bayonne – Bordeaux",
      "start": {
        "city": "Bayonne",
        "country": "France",
        "lat": "43.492949",
        "lng": "-1.474841"
      },
      "finish": {
        "city": "Bordeaux",
        "country": "France",
        "lat": "44.837789",
        "lng": "-0.57918"
      },
      "length": 269,
      "type": null,
      "winner": {
        "name": "Drapeau : FranceGeorges Paulmier",
        "nationality": null
      },
      "leader": {
        "name": "Drapeau : FranceLucien Petit-Breton",
        "nationality": null
      }
    },
    {
      "id": "E-1908-11",
      "year": 1908,
      "leg": 11,
      "title": "Bordeaux – Nantes",
      "start": {
        "city": "Bordeaux",
        "country": "France",
        "lat": "44.837789",
        "lng": "-0.57918"
      },
      "finish": {
        "city": "Nantes",
        "country": "France",
        "lat": "47.218371",
        "lng": "-1.553621"
      },
      "length": 391,
      "type": null,
      "winner": {
        "name": "Drapeau : FranceLucien Petit-Breton",
        "nationality": null
      },
      "leader": {
        "name": "Drapeau : FranceLucien Petit-Breton",
        "nationality": null
      }
    },
    {
      "id": "E-1908-12",
      "year": 1908,
      "leg": 12,
      "title": "Nantes – Brest",
      "start": {
        "city": "Nantes",
        "country": "France",
        "lat": "47.218371",
        "lng": "-1.553621"
      },
      "finish": {
        "city": "Brest",
        "country": "France",
        "lat": "48.390394",
        "lng": "-4.486076"
      },
      "length": 321,
      "type": null,
      "winner": {
        "name": "Drapeau : LuxembourgFrançois Faber",
        "nationality": null
      },
      "leader": {
        "name": "Drapeau : FranceLucien Petit-Breton",
        "nationality": null
      }
    },
    {
      "id": "E-1908-13",
      "year": 1908,
      "leg": 13,
      "title": "Brest – Caen",
      "start": {
        "city": "Brest",
        "country": "France",
        "lat": "48.390394",
        "lng": "-4.486076"
      },
      "finish": {
        "city": "Caen",
        "country": "France",
        "lat": "49.182863",
        "lng": "-0.370679"
      },
      "length": 415,
      "type": null,
      "winner": {
        "name": "Drapeau : FranceGeorges Passerieu",
        "nationality": null
      },
      "leader": {
        "name": "Drapeau : FranceLucien Petit-Breton",
        "nationality": null
      }
    },
    {
      "id": "E-1908-14",
      "year": 1908,
      "leg": 14,
      "title": "Caen – Paris",
      "start": {
        "city": "Caen",
        "country": "France",
        "lat": "49.182863",
        "lng": "-0.370679"
      },
      "finish": {
        "city": "Paris",
        "country": "France",
        "lat": "48.856614",
        "lng": "2.352222"
      },
      "length": 251,
      "type": null,
      "winner": {
        "name": "Drapeau : FranceLucien Petit-Breton",
        "nationality": null
      },
      "leader": {
        "name": "Drapeau : FranceLucien Petit-Breton",
        "nationality": null
      }
    }
  ]
}