{
  "year": 1910,
  "edition": 8,
  "total_length": 4734,
  "nb_legs": 15,
  "has_prologue": false,
  "nb_concurrents": 110,
  "nb_finishers": 41,
  "pct_finishers": 37,
  "winner_first_name": "Octave",
  "winner_last_name": "Lapize",
  "winner_id": "octave-lapize",
  "winner_total_time": "162h 41' 30\"",
  "winner_age": "22",
  "winner_country": "France",
  "winner_avg_speed": "29,099",
  "ahead_of_2nd": "n.a.",
  "second_name": "F. Faber",
  "second_country": "Luxembourg",
  "second_id": "francois-faber",
  "ahead_of_3rd": "n.a.",
  "third_name": "G. Garrigou",
  "third_country": "France",
  "third_id": "gustave-garrigou",
  "legs": [
    {
      "id": "E-1910-02",
      "year": 1910,
      "leg": "2",
      "leg_num": 1,
      "title": "Roubaix - Metz",
      "start": {
        "city": "Roubaix",
        "country": "France",
        "lat": "50.692705",
        "lng": "3.177847"
      },
      "finish": {
        "city": "Metz",
        "country": "Empire allemand",
        "lat": "49.119666",
        "lng": "6.176905"
      },
      "length": 398,
      "type": null,
      "winner": {
        "name": null,
        "nationality": null
      },
      "leader": {
        "name": null,
        "nationality": null
      }
    },
    {
      "id": "E-1910-03",
      "year": 1910,
      "leg": "3",
      "leg_num": 2,
      "title": "Metz - Belfort",
      "start": {
        "city": "Metz",
        "country": "Empire allemand",
        "lat": "49.119666",
        "lng": "6.176905"
      },
      "finish": {
        "city": "Belfort",
        "country": "France",
        "lat": "47.639674",
        "lng": "6.863849"
      },
      "length": 259,
      "type": null,
      "winner": {
        "name": null,
        "nationality": null
      },
      "leader": {
        "name": null,
        "nationality": null
      }
    },
    {
      "id": "E-1910-04",
      "year": 1910,
      "leg": "4",
      "leg_num": 3,
      "title": "Belfort - Lyon",
      "start": {
        "city": "Belfort",
        "country": "France",
        "lat": "47.639674",
        "lng": "6.863849"
      },
      "finish": {
        "city": "Lyon",
        "country": "France",
        "lat": "45.764043",
        "lng": "4.835659"
      },
      "length": 309,
      "type": null,
      "winner": {
        "name": null,
        "nationality": null
      },
      "leader": {
        "name": null,
        "nationality": null
      }
    },
    {
      "id": "E-1910-05",
      "year": 1910,
      "leg": "5",
      "leg_num": 4,
      "title": "Lyon - Grenoble",
      "start": {
        "city": "Lyon",
        "country": "France",
        "lat": "45.764043",
        "lng": "4.835659"
      },
      "finish": {
        "city": "Grenoble",
        "country": "France",
        "lat": "45.188529",
        "lng": "5.724524"
      },
      "length": 311,
      "type": null,
      "winner": {
        "name": null,
        "nationality": null
      },
      "leader": {
        "name": null,
        "nationality": null
      }
    },
    {
      "id": "E-1910-06",
      "year": 1910,
      "leg": "6",
      "leg_num": 5,
      "title": "Grenoble - Nice",
      "start": {
        "city": "Grenoble",
        "country": "France",
        "lat": "45.188529",
        "lng": "5.724524"
      },
      "finish": {
        "city": "Nice",
        "country": "France",
        "lat": "43.696036",
        "lng": "7.265592"
      },
      "length": 345,
      "type": null,
      "winner": {
        "name": null,
        "nationality": null
      },
      "leader": {
        "name": null,
        "nationality": null
      }
    },
    {
      "id": "E-1910-07",
      "year": 1910,
      "leg": "7",
      "leg_num": 6,
      "title": "Nice - Nîmes",
      "start": {
        "city": "Nice",
        "country": "France",
        "lat": "43.696036",
        "lng": "7.265592"
      },
      "finish": {
        "city": "Nîmes",
        "country": "France",
        "lat": "43.836699",
        "lng": "4.360054"
      },
      "length": 345,
      "type": null,
      "winner": {
        "name": null,
        "nationality": null
      },
      "leader": {
        "name": null,
        "nationality": null
      }
    },
    {
      "id": "E-1910-08",
      "year": 1910,
      "leg": "8",
      "leg_num": 7,
      "title": "Nîmes - Perpignan",
      "start": {
        "city": "Nîmes",
        "country": "France",
        "lat": "43.836699",
        "lng": "4.360054"
      },
      "finish": {
        "city": "Perpignan",
        "country": "France",
        "lat": "42.698684",
        "lng": "2.895872"
      },
      "length": 216,
      "type": null,
      "winner": {
        "name": null,
        "nationality": null
      },
      "leader": {
        "name": null,
        "nationality": null
      }
    },
    {
      "id": "E-1910-09",
      "year": 1910,
      "leg": "9",
      "leg_num": 8,
      "title": "Perpignan - Luchon",
      "start": {
        "city": "Perpignan",
        "country": "France",
        "lat": "42.698684",
        "lng": "2.895872"
      },
      "finish": {
        "city": "Luchon",
        "country": "France",
        "lat": "42.788963",
        "lng": "0.592943"
      },
      "length": 289,
      "type": null,
      "winner": {
        "name": null,
        "nationality": null
      },
      "leader": {
        "name": null,
        "nationality": null
      }
    },
    {
      "id": "E-1910-10",
      "year": 1910,
      "leg": "10",
      "leg_num": 9,
      "title": "Luchon - Bayonne",
      "start": {
        "city": "Luchon",
        "country": "France",
        "lat": "42.788963",
        "lng": "0.592943"
      },
      "finish": {
        "city": "Bayonne",
        "country": "France",
        "lat": "43.492949",
        "lng": "-1.474841"
      },
      "length": 326,
      "type": null,
      "winner": {
        "name": null,
        "nationality": null
      },
      "leader": {
        "name": null,
        "nationality": null
      }
    },
    {
      "id": "E-1910-11",
      "year": 1910,
      "leg": "11",
      "leg_num": 10,
      "title": "Bayonne - Bordeaux",
      "start": {
        "city": "Bayonne",
        "country": "France",
        "lat": "43.492949",
        "lng": "-1.474841"
      },
      "finish": {
        "city": "Bordeaux",
        "country": "France",
        "lat": "44.837789",
        "lng": "-0.57918"
      },
      "length": 326,
      "type": null,
      "winner": {
        "name": null,
        "nationality": null
      },
      "leader": {
        "name": null,
        "nationality": null
      }
    },
    {
      "id": "E-1910-12",
      "year": 1910,
      "leg": "12",
      "leg_num": 11,
      "title": "Bordeaux - Nantes",
      "start": {
        "city": "Bordeaux",
        "country": "France",
        "lat": "44.837789",
        "lng": "-0.57918"
      },
      "finish": {
        "city": "Nantes",
        "country": "France",
        "lat": "47.218371",
        "lng": "-1.553621"
      },
      "length": 391,
      "type": null,
      "winner": {
        "name": null,
        "nationality": null
      },
      "leader": {
        "name": null,
        "nationality": null
      }
    },
    {
      "id": "E-1910-13",
      "year": 1910,
      "leg": "13",
      "leg_num": 12,
      "title": "Nantes - Brest",
      "start": {
        "city": "Nantes",
        "country": "France",
        "lat": "47.218371",
        "lng": "-1.553621"
      },
      "finish": {
        "city": "Brest",
        "country": "France",
        "lat": "48.390394",
        "lng": "-4.486076"
      },
      "length": 321,
      "type": null,
      "winner": {
        "name": null,
        "nationality": null
      },
      "leader": {
        "name": null,
        "nationality": null
      }
    },
    {
      "id": "E-1910-14",
      "year": 1910,
      "leg": "14",
      "leg_num": 13,
      "title": "Brest - Caen",
      "start": {
        "city": "Brest",
        "country": "France",
        "lat": "48.390394",
        "lng": "-4.486076"
      },
      "finish": {
        "city": "Caen",
        "country": "France",
        "lat": "49.182863",
        "lng": "-0.370679"
      },
      "length": 424,
      "type": null,
      "winner": {
        "name": null,
        "nationality": null
      },
      "leader": {
        "name": null,
        "nationality": null
      }
    },
    {
      "id": "E-1910-15",
      "year": 1910,
      "leg": "15",
      "leg_num": 14,
      "title": "Caen - Paris",
      "start": {
        "city": "Caen",
        "country": "France",
        "lat": "49.182863",
        "lng": "-0.370679"
      },
      "finish": {
        "city": "Paris",
        "country": "France",
        "lat": "48.856614",
        "lng": "2.352222"
      },
      "length": 262,
      "type": null,
      "winner": {
        "name": null,
        "nationality": null
      },
      "leader": {
        "name": null,
        "nationality": null
      }
    },
    {
      "id": "E-1910-01",
      "year": 1910,
      "leg": "1",
      "leg_num": 15,
      "title": "Paris - Roubaix",
      "start": {
        "city": "Paris",
        "country": "France",
        "lat": "48.856614",
        "lng": "2.352222"
      },
      "finish": {
        "city": "Roubaix",
        "country": "France",
        "lat": "50.692705",
        "lng": "3.177847"
      },
      "length": 272,
      "type": null,
      "winner": {
        "name": null,
        "nationality": null
      },
      "leader": {
        "name": null,
        "nationality": null
      }
    }
  ]
}