{
  "year": 1911,
  "edition": 9,
  "total_length": 5343,
  "nb_legs": 15,
  "has_prologue": false,
  "nb_concurrents": 84,
  "nb_finishers": 28,
  "pct_finishers": 33,
  "winner_first_name": "Gustave",
  "winner_last_name": "Garrigou",
  "winner_id": "gustave-garrigou",
  "winner_total_time": "195h 37' 00\"",
  "winner_age": "26",
  "winner_country": "France",
  "winner_avg_speed": "27,322",
  "ahead_of_2nd": "n.a.",
  "second_name": "P. Duboc",
  "second_country": "France",
  "second_id": null,
  "ahead_of_3rd": "n.a.",
  "third_name": "E. Georget",
  "third_country": "France",
  "third_id": null,
  "legs": [
    {
      "id": "E-1911-01",
      "year": 1911,
      "leg": "1",
      "leg_num": 1,
      "title": "Paris - Dunkerque",
      "start": {
        "city": "Paris",
        "country": "France",
        "lat": "48.856614",
        "lng": "2.352222"
      },
      "finish": {
        "city": "Dunkerque",
        "country": "France",
        "lat": "51.03456",
        "lng": "2.375202"
      },
      "length": 351
    },
    {
      "id": "E-1911-02",
      "year": 1911,
      "leg": "2",
      "leg_num": 2,
      "title": "Dunkerque - Longwy",
      "start": {
        "city": "Dunkerque",
        "country": "France",
        "lat": "51.03456",
        "lng": "2.375202"
      },
      "finish": {
        "city": "Longwy",
        "country": "France",
        "lat": "49.519919",
        "lng": "5.761773"
      },
      "length": 388
    },
    {
      "id": "E-1911-03",
      "year": 1911,
      "leg": "3",
      "leg_num": 3,
      "title": "Longwy - Belfort",
      "start": {
        "city": "Longwy",
        "country": "France",
        "lat": "49.519919",
        "lng": "5.761773"
      },
      "finish": {
        "city": "Belfort",
        "country": "France",
        "lat": "47.639674",
        "lng": "6.863849"
      },
      "length": 331
    },
    {
      "id": "E-1911-04",
      "year": 1911,
      "leg": "4",
      "leg_num": 4,
      "title": "Belfort - Chamonix",
      "start": {
        "city": "Belfort",
        "country": "France",
        "lat": "47.639674",
        "lng": "6.863849"
      },
      "finish": {
        "city": "Chamonix",
        "country": "France",
        "lat": "45.923697",
        "lng": "6.869433"
      },
      "length": 344
    },
    {
      "id": "E-1911-05",
      "year": 1911,
      "leg": "5",
      "leg_num": 5,
      "title": "Chamonix - Grenoble",
      "start": {
        "city": "Chamonix",
        "country": "France",
        "lat": "45.923697",
        "lng": "6.869433"
      },
      "finish": {
        "city": "Grenoble",
        "country": "France",
        "lat": "45.188529",
        "lng": "5.724524"
      },
      "length": 366
    },
    {
      "id": "E-1911-06",
      "year": 1911,
      "leg": "6",
      "leg_num": 6,
      "title": "Grenoble - Nice",
      "start": {
        "city": "Grenoble",
        "country": "France",
        "lat": "45.188529",
        "lng": "5.724524"
      },
      "finish": {
        "city": "Nice",
        "country": "France",
        "lat": "43.696036",
        "lng": "7.265592"
      },
      "length": 348
    },
    {
      "id": "E-1911-07",
      "year": 1911,
      "leg": "7",
      "leg_num": 7,
      "title": "Nice - Marseille",
      "start": {
        "city": "Nice",
        "country": "France",
        "lat": "43.696036",
        "lng": "7.265592"
      },
      "finish": {
        "city": "Marseille",
        "country": "France",
        "lat": "43.296482",
        "lng": "5.36978"
      },
      "length": 334
    },
    {
      "id": "E-1911-08",
      "year": 1911,
      "leg": "8",
      "leg_num": 8,
      "title": "Marseille - Perpignan",
      "start": {
        "city": "Marseille",
        "country": "France",
        "lat": "43.296482",
        "lng": "5.36978"
      },
      "finish": {
        "city": "Perpignan",
        "country": "France",
        "lat": "42.698684",
        "lng": "2.895872"
      },
      "length": 335
    },
    {
      "id": "E-1911-09",
      "year": 1911,
      "leg": "9",
      "leg_num": 9,
      "title": "Perpignan - Luchon",
      "start": {
        "city": "Perpignan",
        "country": "France",
        "lat": "42.698684",
        "lng": "2.895872"
      },
      "finish": {
        "city": "Luchon",
        "country": "France",
        "lat": "42.788963",
        "lng": "0.592943"
      },
      "length": 289
    },
    {
      "id": "E-1911-10",
      "year": 1911,
      "leg": "10",
      "leg_num": 10,
      "title": "Luchon - Bayonne",
      "start": {
        "city": "Luchon",
        "country": "France",
        "lat": "42.788963",
        "lng": "0.592943"
      },
      "finish": {
        "city": "Bayonne",
        "country": "France",
        "lat": "43.492949",
        "lng": "-1.474841"
      },
      "length": 326
    },
    {
      "id": "E-1911-11",
      "year": 1911,
      "leg": "11",
      "leg_num": 11,
      "title": "Bayonne - La Rochelle",
      "start": {
        "city": "Bayonne",
        "country": "France",
        "lat": "43.492949",
        "lng": "-1.474841"
      },
      "finish": {
        "city": "La Rochelle",
        "country": "France",
        "lat": "46.160329",
        "lng": "-1.151139"
      },
      "length": 379
    },
    {
      "id": "E-1911-12",
      "year": 1911,
      "leg": "12",
      "leg_num": 12,
      "title": "La Rochelle - Brest",
      "start": {
        "city": "La Rochelle",
        "country": "France",
        "lat": "46.160329",
        "lng": "-1.151139"
      },
      "finish": {
        "city": "Brest",
        "country": "France",
        "lat": "48.390394",
        "lng": "-4.486076"
      },
      "length": 470
    },
    {
      "id": "E-1911-13",
      "year": 1911,
      "leg": "13",
      "leg_num": 13,
      "title": "Brest - Cherbourg",
      "start": {
        "city": "Brest",
        "country": "France",
        "lat": "48.390394",
        "lng": "-4.486076"
      },
      "finish": {
        "city": "Cherbourg",
        "country": "France",
        "lat": "49.639093",
        "lng": "-1.625298"
      },
      "length": 405
    },
    {
      "id": "E-1911-14",
      "year": 1911,
      "leg": "14",
      "leg_num": 14,
      "title": "Cherbourg - Le Havre",
      "start": {
        "city": "Cherbourg",
        "country": "France",
        "lat": "49.639093",
        "lng": "-1.625298"
      },
      "finish": {
        "city": "Le Havre",
        "country": "France",
        "lat": "49.49437",
        "lng": "0.107929"
      },
      "length": 361
    },
    {
      "id": "E-1911-15",
      "year": 1911,
      "leg": "15",
      "leg_num": 15,
      "title": "Le Havre - Paris",
      "start": {
        "city": "Le Havre",
        "country": "France",
        "lat": "49.49437",
        "lng": "0.107929"
      },
      "finish": {
        "city": "Paris",
        "country": "France",
        "lat": "48.856614",
        "lng": "2.352222"
      },
      "length": 317
    }
  ]
}