{
  "year": 1913,
  "edition": 11,
  "total_length": 5287,
  "nb_legs": 15,
  "has_prologue": false,
  "nb_concurrents": 140,
  "nb_finishers": 25,
  "pct_finishers": 18,
  "winner_first_name": "Philippe",
  "winner_last_name": "Thys",
  "winner_id": "philippe-thys",
  "winner_total_time": "197h 54' 00\"",
  "winner_age": "23",
  "winner_country": "Belgique",
  "winner_avg_speed": "26,715",
  "ahead_of_2nd": "0h 08' 37\" ",
  "second_name": "G. Garrigou",
  "second_country": "France",
  "second_id": "gustave-garrigou",
  "ahead_of_3rd": "0h 30' 55\"",
  "third_name": "M. Buysse",
  "third_country": "Belgique",
  "third_id": null,
  "legs": [
    {
      "id": "E-1913-01",
      "year": 1913,
      "leg": "1",
      "leg_num": 0,
      "title": "Paris",
      "start": {
        "city": "France",
        "country": "48.856614,2.352222",
        "lat": "Le Havre",
        "lng": null
      },
      "finish": {
        "city": "France",
        "country": "49.49437,0.107929",
        "lat": "388",
        "lng": null
      },
      "length": 0
    },
    {
      "id": "E-1913-02",
      "year": 1913,
      "leg": "2",
      "leg_num": 0,
      "title": "Le Havre",
      "start": {
        "city": "France",
        "country": "49.49437,0.107929",
        "lat": "Cherbourg",
        "lng": null
      },
      "finish": {
        "city": "France",
        "country": "49.639093,-1.625298",
        "lat": "364",
        "lng": null
      },
      "length": 0
    },
    {
      "id": "E-1913-03",
      "year": 1913,
      "leg": "3",
      "leg_num": 0,
      "title": "Cherbourg",
      "start": {
        "city": "France",
        "country": "49.639093,-1.625298",
        "lat": "Brest",
        "lng": null
      },
      "finish": {
        "city": "France",
        "country": "48.390394,-4.486076",
        "lat": "405",
        "lng": null
      },
      "length": 0
    },
    {
      "id": "E-1913-04",
      "year": 1913,
      "leg": "4",
      "leg_num": 0,
      "title": "Brest",
      "start": {
        "city": "France",
        "country": "48.390394,-4.486076",
        "lat": "La Rochelle",
        "lng": null
      },
      "finish": {
        "city": "France",
        "country": "46.160329,-1.151139",
        "lat": "470",
        "lng": null
      },
      "length": 0
    },
    {
      "id": "E-1913-05",
      "year": 1913,
      "leg": "5",
      "leg_num": 0,
      "title": "La Rochelle",
      "start": {
        "city": "France",
        "country": "46.160329,-1.151139",
        "lat": "Bayonne",
        "lng": null
      },
      "finish": {
        "city": "France",
        "country": "43.492949,-1.474841",
        "lat": "379",
        "lng": null
      },
      "length": 0
    },
    {
      "id": "E-1913-06",
      "year": 1913,
      "leg": "6",
      "leg_num": 0,
      "title": "Bayonne",
      "start": {
        "city": "France",
        "country": "43.492949,-1.474841",
        "lat": "Luchon",
        "lng": null
      },
      "finish": {
        "city": "France",
        "country": "42.788963,0.592943",
        "lat": "326",
        "lng": null
      },
      "length": 0
    },
    {
      "id": "E-1913-07",
      "year": 1913,
      "leg": "7",
      "leg_num": 0,
      "title": "Luchon",
      "start": {
        "city": "France",
        "country": "42.788963,0.592943",
        "lat": "Perpignan",
        "lng": null
      },
      "finish": {
        "city": "France",
        "country": "42.698684,2.895872",
        "lat": "324",
        "lng": null
      },
      "length": 0
    },
    {
      "id": "E-1913-08",
      "year": 1913,
      "leg": "8",
      "leg_num": 0,
      "title": "Perpignan",
      "start": {
        "city": "France",
        "country": "42.698684,2.895872",
        "lat": "Aix-en-Provence",
        "lng": null
      },
      "finish": {
        "city": "France",
        "country": "43.529742,5.447427",
        "lat": "325",
        "lng": null
      },
      "length": 0
    },
    {
      "id": "E-1913-09",
      "year": 1913,
      "leg": "9",
      "leg_num": 0,
      "title": "Aix-en-Provence",
      "start": {
        "city": "France",
        "country": "43.529742,5.447427",
        "lat": "Nice",
        "lng": null
      },
      "finish": {
        "city": "France",
        "country": "43.696036,7.265592",
        "lat": "356",
        "lng": null
      },
      "length": 0
    },
    {
      "id": "E-1913-10",
      "year": 1913,
      "leg": "10",
      "leg_num": 0,
      "title": "Nice",
      "start": {
        "city": "France",
        "country": "43.696036,7.265592",
        "lat": "Grenoble",
        "lng": null
      },
      "finish": {
        "city": "France",
        "country": "45.188529,5.724524",
        "lat": "333",
        "lng": null
      },
      "length": 0
    },
    {
      "id": "E-1913-11",
      "year": 1913,
      "leg": "11",
      "leg_num": 0,
      "title": "Grenoble",
      "start": {
        "city": "France",
        "country": "45.188529,5.724524",
        "lat": "Genève",
        "lng": null
      },
      "finish": {
        "city": "France",
        "country": "46.198392,6.142296",
        "lat": "325",
        "lng": null
      },
      "length": 0
    },
    {
      "id": "E-1913-12",
      "year": 1913,
      "leg": "12",
      "leg_num": 0,
      "title": "Genève",
      "start": {
        "city": "France",
        "country": "46.198392,6.142296",
        "lat": "Belfort",
        "lng": null
      },
      "finish": {
        "city": "France",
        "country": "47.639674,6.863849",
        "lat": "335",
        "lng": null
      },
      "length": 0
    },
    {
      "id": "E-1913-13",
      "year": 1913,
      "leg": "13",
      "leg_num": 0,
      "title": "Belfort",
      "start": {
        "city": "France",
        "country": "47.639674,6.863849",
        "lat": "Longwy",
        "lng": null
      },
      "finish": {
        "city": "France",
        "country": "49.519919,5.761773",
        "lat": "325",
        "lng": null
      },
      "length": 0
    },
    {
      "id": "E-1913-14",
      "year": 1913,
      "leg": "14",
      "leg_num": 0,
      "title": "Longwy",
      "start": {
        "city": "France",
        "country": "49.519919,5.761773",
        "lat": "Dunkerque",
        "lng": null
      },
      "finish": {
        "city": "France",
        "country": "51.03456,2.375202",
        "lat": "393",
        "lng": null
      },
      "length": 0
    },
    {
      "id": "E-1913-15",
      "year": 1913,
      "leg": "15",
      "leg_num": 0,
      "title": "Dunkerque",
      "start": {
        "city": "France",
        "country": "51.03456,2.375202",
        "lat": "Paris",
        "lng": null
      },
      "finish": {
        "city": "France",
        "country": "48.856614,2.352222",
        "lat": "340",
        "lng": null
      },
      "length": 0
    }
  ]
}