{
  "year": 1919,
  "edition": 13,
  "total_length": 5560,
  "nb_legs": 15,
  "has_prologue": false,
  "nb_concurrents": 69,
  "nb_finishers": 11,
  "pct_finishers": 16,
  "winner_first_name": "Firmin",
  "winner_last_name": "Lambot",
  "winner_id": "firmin-lambot",
  "winner_total_time": "231h 07' 15\"",
  "winner_age": "33",
  "winner_country": "Belgique",
  "winner_avg_speed": "24,056",
  "ahead_of_2nd": "1h 32' 54\" ",
  "second_name": "J. Alavoine",
  "second_country": "France",
  "second_id": null,
  "ahead_of_3rd": "2h 16' 31\"",
  "third_name": "E. Christophe",
  "third_country": "France",
  "third_id": null,
  "legs": [
    {
      "id": "E-1919-01",
      "year": 1919,
      "leg": "1",
      "leg_num": 0,
      "title": "Paris",
      "start": {
        "city": "France",
        "country": "48.856614,2.352222",
        "lat": "Le Havre",
        "lng": null
      },
      "finish": {
        "city": "France",
        "country": "49.49437,0.107929",
        "lat": "388",
        "lng": null
      },
      "length": 0
    },
    {
      "id": "E-1919-02",
      "year": 1919,
      "leg": "2",
      "leg_num": 0,
      "title": "Le Havre",
      "start": {
        "city": "France",
        "country": "49.49437,0.107929",
        "lat": "Cherbourg",
        "lng": null
      },
      "finish": {
        "city": "France",
        "country": "49.639093,-1.625298",
        "lat": "364",
        "lng": null
      },
      "length": 0
    },
    {
      "id": "E-1919-03",
      "year": 1919,
      "leg": "3",
      "leg_num": 0,
      "title": "Cherbourg",
      "start": {
        "city": "France",
        "country": "49.639093,-1.625298",
        "lat": "Brest",
        "lng": null
      },
      "finish": {
        "city": "France",
        "country": "48.390394,-4.486076",
        "lat": "405",
        "lng": null
      },
      "length": 0
    },
    {
      "id": "E-1919-04",
      "year": 1919,
      "leg": "4",
      "leg_num": 0,
      "title": "Brest",
      "start": {
        "city": "France",
        "country": "48.390394,-4.486076",
        "lat": "Les Sables-d'Olonne",
        "lng": null
      },
      "finish": {
        "city": "France",
        "country": "46.492958,-1.795493",
        "lat": "412",
        "lng": null
      },
      "length": 0
    },
    {
      "id": "E-1919-05",
      "year": 1919,
      "leg": "5",
      "leg_num": 0,
      "title": "Les Sables-d'Olonne",
      "start": {
        "city": "France",
        "country": "46.492958,-1.795493",
        "lat": "Bayonne",
        "lng": null
      },
      "finish": {
        "city": "France",
        "country": "43.492949,-1.474841",
        "lat": "482",
        "lng": null
      },
      "length": 0
    },
    {
      "id": "E-1919-06",
      "year": 1919,
      "leg": "6",
      "leg_num": 0,
      "title": "Bayonne",
      "start": {
        "city": "France",
        "country": "43.492949,-1.474841",
        "lat": "Luchon",
        "lng": null
      },
      "finish": {
        "city": "France",
        "country": "42.788963,0.592943",
        "lat": "326",
        "lng": null
      },
      "length": 0
    },
    {
      "id": "E-1919-07",
      "year": 1919,
      "leg": "7",
      "leg_num": 0,
      "title": "Luchon",
      "start": {
        "city": "France",
        "country": "42.788963,0.592943",
        "lat": "Perpignan",
        "lng": null
      },
      "finish": {
        "city": "France",
        "country": "42.698684,2.895872",
        "lat": "323",
        "lng": null
      },
      "length": 0
    },
    {
      "id": "E-1919-08",
      "year": 1919,
      "leg": "8",
      "leg_num": 0,
      "title": "Perpignan",
      "start": {
        "city": "France",
        "country": "42.698684,2.895872",
        "lat": "Marseille",
        "lng": null
      },
      "finish": {
        "city": "France",
        "country": "43.296482,5.36978",
        "lat": "370",
        "lng": null
      },
      "length": 0
    },
    {
      "id": "E-1919-09",
      "year": 1919,
      "leg": "9",
      "leg_num": 0,
      "title": "Marseille",
      "start": {
        "city": "France",
        "country": "43.296482,5.36978",
        "lat": "Nice",
        "lng": null
      },
      "finish": {
        "city": "France",
        "country": "43.696036,7.265592",
        "lat": "338",
        "lng": null
      },
      "length": 0
    },
    {
      "id": "E-1919-10",
      "year": 1919,
      "leg": "10",
      "leg_num": 0,
      "title": "Nice",
      "start": {
        "city": "France",
        "country": "43.696036,7.265592",
        "lat": "Grenoble",
        "lng": null
      },
      "finish": {
        "city": "France",
        "country": "45.188529,5.724524",
        "lat": "333",
        "lng": null
      },
      "length": 0
    },
    {
      "id": "E-1919-11",
      "year": 1919,
      "leg": "11",
      "leg_num": 0,
      "title": "Grenoble",
      "start": {
        "city": "France",
        "country": "45.188529,5.724524",
        "lat": "Genève",
        "lng": null
      },
      "finish": {
        "city": "Suisse",
        "country": "46.198392,6.142296",
        "lat": "325",
        "lng": null
      },
      "length": 0
    },
    {
      "id": "E-1919-12",
      "year": 1919,
      "leg": "12",
      "leg_num": 0,
      "title": "Genève",
      "start": {
        "city": "Suisse",
        "country": "46.198392,6.142296",
        "lat": "Strasbourg",
        "lng": null
      },
      "finish": {
        "city": "France",
        "country": "48.583148,7.747882",
        "lat": "371",
        "lng": null
      },
      "length": 0
    },
    {
      "id": "E-1919-13",
      "year": 1919,
      "leg": "13",
      "leg_num": 0,
      "title": "Strasbourg",
      "start": {
        "city": "France",
        "country": "48.583148,7.747882",
        "lat": "Metz",
        "lng": null
      },
      "finish": {
        "city": "France",
        "country": "49.119666,6.176905",
        "lat": "315",
        "lng": null
      },
      "length": 0
    },
    {
      "id": "E-1919-14",
      "year": 1919,
      "leg": "14",
      "leg_num": 0,
      "title": "Metz",
      "start": {
        "city": "France",
        "country": "49.119666,6.176905",
        "lat": "Dunkerque",
        "lng": null
      },
      "finish": {
        "city": "France",
        "country": "51.03456,2.375202",
        "lat": "468",
        "lng": null
      },
      "length": 0
    },
    {
      "id": "E-1919-15",
      "year": 1919,
      "leg": "15",
      "leg_num": 0,
      "title": "Dunkerque",
      "start": {
        "city": "France",
        "country": "51.03456,2.375202",
        "lat": "Paris",
        "lng": null
      },
      "finish": {
        "city": "France",
        "country": "48.856614,2.352222",
        "lat": "340",
        "lng": null
      },
      "length": 0
    }
  ]
}