{
  "year": 1921,
  "edition": 15,
  "total_length": 5485,
  "nb_legs": 15,
  "has_prologue": false,
  "nb_concurrents": 123,
  "nb_finishers": 38,
  "pct_finishers": 31,
  "winner_first_name": "Léon",
  "winner_last_name": "Scieur",
  "winner_id": "leon-scieur",
  "winner_total_time": "221h 50' 26\"",
  "winner_age": "33",
  "winner_country": "Belgique",
  "winner_avg_speed": "24,724",
  "ahead_of_2nd": "0h 18' 36\" ",
  "second_name": "H. Heusghem",
  "second_country": "Belgique",
  "second_id": null,
  "ahead_of_3rd": "2h 01' 00\"",
  "third_name": "H. Barthelemy",
  "third_country": "France",
  "third_id": null,
  "legs": [
    {
      "id": "E-1921-01",
      "year": 1921,
      "leg": "1",
      "leg_num": 1,
      "title": "Paris - Le Havre",
      "start": {
        "city": "Paris",
        "country": "France",
        "lat": "48.856614",
        "lng": "2.352222"
      },
      "finish": {
        "city": "Le Havre",
        "country": "France",
        "lat": "49.49437",
        "lng": "0.107929"
      },
      "length": 388
    },
    {
      "id": "E-1921-02",
      "year": 1921,
      "leg": "2",
      "leg_num": 2,
      "title": "Le Havre - Cherbourg",
      "start": {
        "city": "Le Havre",
        "country": "France",
        "lat": "49.49437",
        "lng": "0.107929"
      },
      "finish": {
        "city": "Cherbourg",
        "country": "France",
        "lat": "49.639093",
        "lng": "-1.625298"
      },
      "length": 364
    },
    {
      "id": "E-1921-03",
      "year": 1921,
      "leg": "3",
      "leg_num": 3,
      "title": "Cherbourg - Brest",
      "start": {
        "city": "Cherbourg",
        "country": "France",
        "lat": "49.639093",
        "lng": "-1.625298"
      },
      "finish": {
        "city": "Brest",
        "country": "France",
        "lat": "48.390394",
        "lng": "-4.486076"
      },
      "length": 405
    },
    {
      "id": "E-1921-04",
      "year": 1921,
      "leg": "4",
      "leg_num": 4,
      "title": "Brest - Les Sables-d'Olonne",
      "start": {
        "city": "Brest",
        "country": "France",
        "lat": "48.390394",
        "lng": "-4.486076"
      },
      "finish": {
        "city": "Les Sables-d'Olonne",
        "country": "France",
        "lat": "46.492958",
        "lng": "-1.795493"
      },
      "length": 412
    },
    {
      "id": "E-1921-05",
      "year": 1921,
      "leg": "5",
      "leg_num": 5,
      "title": "Les Sables-d'Olonne - Bayonne",
      "start": {
        "city": "Les Sables-d'Olonne",
        "country": "France",
        "lat": "46.492958",
        "lng": "-1.795493"
      },
      "finish": {
        "city": "Bayonne",
        "country": "France",
        "lat": "43.492949",
        "lng": "-1.474841"
      },
      "length": 482
    },
    {
      "id": "E-1921-06",
      "year": 1921,
      "leg": "6",
      "leg_num": 6,
      "title": "Bayonne - Luchon",
      "start": {
        "city": "Bayonne",
        "country": "France",
        "lat": "43.492949",
        "lng": "-1.474841"
      },
      "finish": {
        "city": "Luchon",
        "country": "France",
        "lat": "42.788963",
        "lng": "0.592943"
      },
      "length": 326
    },
    {
      "id": "E-1921-07",
      "year": 1921,
      "leg": "7",
      "leg_num": 7,
      "title": "Luchon - Perpignan",
      "start": {
        "city": "Luchon",
        "country": "France",
        "lat": "42.788963",
        "lng": "0.592943"
      },
      "finish": {
        "city": "Perpignan",
        "country": "France",
        "lat": "42.698684",
        "lng": "2.895872"
      },
      "length": 323
    },
    {
      "id": "E-1921-08",
      "year": 1921,
      "leg": "8",
      "leg_num": 8,
      "title": "Perpignan - Toulon",
      "start": {
        "city": "Perpignan",
        "country": "France",
        "lat": "42.698684",
        "lng": "2.895872"
      },
      "finish": {
        "city": "Toulon",
        "country": "France",
        "lat": "43.124228",
        "lng": "5.928"
      },
      "length": 411
    },
    {
      "id": "E-1921-09",
      "year": 1921,
      "leg": "9",
      "leg_num": 9,
      "title": "Toulon - Nice",
      "start": {
        "city": "Toulon",
        "country": "France",
        "lat": "43.124228",
        "lng": "5.928"
      },
      "finish": {
        "city": "Nice",
        "country": "France",
        "lat": "43.696036",
        "lng": "7.265592"
      },
      "length": 272
    },
    {
      "id": "E-1921-10",
      "year": 1921,
      "leg": "10",
      "leg_num": 10,
      "title": "Nice - Grenoble",
      "start": {
        "city": "Nice",
        "country": "France",
        "lat": "43.696036",
        "lng": "7.265592"
      },
      "finish": {
        "city": "Grenoble",
        "country": "France",
        "lat": "45.188529",
        "lng": "5.724524"
      },
      "length": 333
    },
    {
      "id": "E-1921-11",
      "year": 1921,
      "leg": "11",
      "leg_num": 11,
      "title": "Grenoble - Genève",
      "start": {
        "city": "Grenoble",
        "country": "France",
        "lat": "45.188529",
        "lng": "5.724524"
      },
      "finish": {
        "city": "Genève",
        "country": "Suisse",
        "lat": "46.198392",
        "lng": "6.142296"
      },
      "length": 325
    },
    {
      "id": "E-1921-12",
      "year": 1921,
      "leg": "12",
      "leg_num": 12,
      "title": "Genève - Strasbourg",
      "start": {
        "city": "Genève",
        "country": "Suisse",
        "lat": "46.198392",
        "lng": "6.142296"
      },
      "finish": {
        "city": "Strasbourg",
        "country": "France",
        "lat": "48.583148",
        "lng": "7.747882"
      },
      "length": 371
    },
    {
      "id": "E-1921-13",
      "year": 1921,
      "leg": "13",
      "leg_num": 13,
      "title": "Strasbourg - Metz",
      "start": {
        "city": "Strasbourg",
        "country": "France",
        "lat": "48.583148",
        "lng": "7.747882"
      },
      "finish": {
        "city": "Metz",
        "country": "France",
        "lat": "49.119666",
        "lng": "6.176905"
      },
      "length": 300
    },
    {
      "id": "E-1921-14",
      "year": 1921,
      "leg": "14",
      "leg_num": 14,
      "title": "Metz - Dunkerque",
      "start": {
        "city": "Metz",
        "country": "France",
        "lat": "49.119666",
        "lng": "6.176905"
      },
      "finish": {
        "city": "Dunkerque",
        "country": "France",
        "lat": "51.03456",
        "lng": "2.375202"
      },
      "length": 433
    },
    {
      "id": "E-1921-15",
      "year": 1921,
      "leg": "15",
      "leg_num": 15,
      "title": "Dunkerque - Paris",
      "start": {
        "city": "Dunkerque",
        "country": "France",
        "lat": "51.03456",
        "lng": "2.375202"
      },
      "finish": {
        "city": "Paris",
        "country": "France",
        "lat": "48.856614",
        "lng": "2.352222"
      },
      "length": 340
    }
  ]
}