{
  "year": 1921,
  "edition": 15,
  "total_length": 5485,
  "nb_legs": 15,
  "has_prologue": false,
  "nb_concurrents": 123,
  "nb_finishers": 38,
  "pct_finishers": 31,
  "winner_first_name": "Léon",
  "winner_last_name": "Scieur",
  "winner_id": "leon-scieur",
  "winner_total_time": "221h 50' 26\"",
  "winner_age": "33",
  "winner_country": "Belgique",
  "winner_avg_speed": "24,724",
  "ahead_of_2nd": "0h 18' 36\" ",
  "second_name": "H. Heusghem",
  "second_country": "Belgique",
  "second_id": null,
  "ahead_of_3rd": "2h 01' 00\"",
  "third_name": "H. Barthelemy",
  "third_country": "France",
  "third_id": null,
  "legs": [
    {
      "id": "E-1921-01",
      "year": 1921,
      "leg": "1",
      "leg_num": 0,
      "title": "Paris",
      "start": {
        "city": "France",
        "country": "48.856614,2.352222",
        "lat": "Le Havre",
        "lng": null
      },
      "finish": {
        "city": "France",
        "country": "49.49437,0.107929",
        "lat": "388",
        "lng": null
      },
      "length": 0
    },
    {
      "id": "E-1921-02",
      "year": 1921,
      "leg": "2",
      "leg_num": 0,
      "title": "Le Havre",
      "start": {
        "city": "France",
        "country": "49.49437,0.107929",
        "lat": "Cherbourg",
        "lng": null
      },
      "finish": {
        "city": "France",
        "country": "49.639093,-1.625298",
        "lat": "364",
        "lng": null
      },
      "length": 0
    },
    {
      "id": "E-1921-03",
      "year": 1921,
      "leg": "3",
      "leg_num": 0,
      "title": "Cherbourg",
      "start": {
        "city": "France",
        "country": "49.639093,-1.625298",
        "lat": "Brest",
        "lng": null
      },
      "finish": {
        "city": "France",
        "country": "48.390394,-4.486076",
        "lat": "405",
        "lng": null
      },
      "length": 0
    },
    {
      "id": "E-1921-04",
      "year": 1921,
      "leg": "4",
      "leg_num": 0,
      "title": "Brest",
      "start": {
        "city": "France",
        "country": "48.390394,-4.486076",
        "lat": "Les Sables-d'Olonne",
        "lng": null
      },
      "finish": {
        "city": "France",
        "country": "46.492958,-1.795493",
        "lat": "412",
        "lng": null
      },
      "length": 0
    },
    {
      "id": "E-1921-05",
      "year": 1921,
      "leg": "5",
      "leg_num": 0,
      "title": "Les Sables-d'Olonne",
      "start": {
        "city": "France",
        "country": "46.492958,-1.795493",
        "lat": "Bayonne",
        "lng": null
      },
      "finish": {
        "city": "France",
        "country": "43.492949,-1.474841",
        "lat": "482",
        "lng": null
      },
      "length": 0
    },
    {
      "id": "E-1921-06",
      "year": 1921,
      "leg": "6",
      "leg_num": 0,
      "title": "Bayonne",
      "start": {
        "city": "France",
        "country": "43.492949,-1.474841",
        "lat": "Luchon",
        "lng": null
      },
      "finish": {
        "city": "France",
        "country": "42.788963,0.592943",
        "lat": "326",
        "lng": null
      },
      "length": 0
    },
    {
      "id": "E-1921-07",
      "year": 1921,
      "leg": "7",
      "leg_num": 0,
      "title": "Luchon",
      "start": {
        "city": "France",
        "country": "42.788963,0.592943",
        "lat": "Perpignan",
        "lng": null
      },
      "finish": {
        "city": "France",
        "country": "42.698684,2.895872",
        "lat": "323",
        "lng": null
      },
      "length": 0
    },
    {
      "id": "E-1921-08",
      "year": 1921,
      "leg": "8",
      "leg_num": 0,
      "title": "Perpignan",
      "start": {
        "city": "France",
        "country": "42.698684,2.895872",
        "lat": "Toulon",
        "lng": null
      },
      "finish": {
        "city": "France",
        "country": "43.124228,5.928",
        "lat": "411",
        "lng": null
      },
      "length": 0
    },
    {
      "id": "E-1921-09",
      "year": 1921,
      "leg": "9",
      "leg_num": 0,
      "title": "Toulon",
      "start": {
        "city": "France",
        "country": "43.124228,5.928",
        "lat": "Nice",
        "lng": null
      },
      "finish": {
        "city": "France",
        "country": "43.696036,7.265592",
        "lat": "272",
        "lng": null
      },
      "length": 0
    },
    {
      "id": "E-1921-10",
      "year": 1921,
      "leg": "10",
      "leg_num": 0,
      "title": "Nice",
      "start": {
        "city": "France",
        "country": "43.696036,7.265592",
        "lat": "Grenoble",
        "lng": null
      },
      "finish": {
        "city": "France",
        "country": "45.188529,5.724524",
        "lat": "333",
        "lng": null
      },
      "length": 0
    },
    {
      "id": "E-1921-11",
      "year": 1921,
      "leg": "11",
      "leg_num": 0,
      "title": "Grenoble",
      "start": {
        "city": "France",
        "country": "45.188529,5.724524",
        "lat": "Genève",
        "lng": null
      },
      "finish": {
        "city": "Suisse",
        "country": "46.198392,6.142296",
        "lat": "325",
        "lng": null
      },
      "length": 0
    },
    {
      "id": "E-1921-12",
      "year": 1921,
      "leg": "12",
      "leg_num": 0,
      "title": "Genève",
      "start": {
        "city": "Suisse",
        "country": "46.198392,6.142296",
        "lat": "Strasbourg",
        "lng": null
      },
      "finish": {
        "city": "France",
        "country": "48.583148,7.747882",
        "lat": "371",
        "lng": null
      },
      "length": 0
    },
    {
      "id": "E-1921-13",
      "year": 1921,
      "leg": "13",
      "leg_num": 0,
      "title": "Strasbourg",
      "start": {
        "city": "France",
        "country": "48.583148,7.747882",
        "lat": "Metz",
        "lng": null
      },
      "finish": {
        "city": "France",
        "country": "49.119666,6.176905",
        "lat": "300",
        "lng": null
      },
      "length": 0
    },
    {
      "id": "E-1921-14",
      "year": 1921,
      "leg": "14",
      "leg_num": 0,
      "title": "Metz",
      "start": {
        "city": "France",
        "country": "49.119666,6.176905",
        "lat": "Dunkerque",
        "lng": null
      },
      "finish": {
        "city": "France",
        "country": "51.03456,2.375202",
        "lat": "433",
        "lng": null
      },
      "length": 0
    },
    {
      "id": "E-1921-15",
      "year": 1921,
      "leg": "15",
      "leg_num": 0,
      "title": "Dunkerque",
      "start": {
        "city": "France",
        "country": "51.03456,2.375202",
        "lat": "Paris",
        "lng": null
      },
      "finish": {
        "city": "France",
        "country": "48.856614,2.352222",
        "lat": "340",
        "lng": null
      },
      "length": 0
    }
  ]
}