{
  "year": 1921,
  "edition": 15,
  "total_length": 5485,
  "nb_legs": 15,
  "has_prologue": false,
  "nb_concurrents": 123,
  "nb_finishers": 38,
  "pct_finishers": 31,
  "winner_name": "Léon Scieur",
  "winner_time": "221h 50’ 26”",
  "ahead_of_2nd": "0h 18' 36\" ",
  "second_name": "H. Heusghem",
  "second_country": "Belgique",
  "ahead_of_3rd": "2h 01' 00\"",
  "third_name": "H. Barthelemy",
  "third_country": "H. Barthelemy",
  "legs": [
    {
      "id": "E-1921-01",
      "year": 1921,
      "leg": 1,
      "title": "Paris - Le Havre",
      "start": {
        "city": "Paris",
        "country": "France",
        "lng": "2.352222",
        "lat": "48.856614"
      },
      "finish": {
        "city": "Le Havre",
        "country": "France",
        "lng": "0.107929",
        "lat": "49.49437"
      },
      "length": 388,
      "type": null,
      "winner": {
        "name": "Drapeau : BelgiqueLouis Mottiat",
        "nationality": null
      },
      "leader": {
        "name": "Drapeau : BelgiqueLouis Mottiat",
        "nationality": null
      }
    },
    {
      "id": "E-1921-02",
      "year": 1921,
      "leg": 2,
      "title": "Le Havre - Cherbourg",
      "start": {
        "city": "Le Havre",
        "country": "France",
        "lng": "0.107929",
        "lat": "49.49437"
      },
      "finish": {
        "city": "Toulon",
        "country": "France",
        "lng": "5.928",
        "lat": "43.124228"
      },
      "length": 433,
      "type": null,
      "winner": {
        "name": "Drapeau : FranceFélix Goethals",
        "nationality": null
      },
      "leader": {
        "name": "Drapeau : BelgiqueLéon Scieur",
        "nationality": null
      }
    },
    {
      "id": "E-1921-03",
      "year": 1921,
      "leg": 3,
      "title": "Cherbourg - Brest",
      "start": {
        "city": "Cherbourg",
        "country": "France",
        "lng": "-1.625298",
        "lat": "49.639093"
      },
      "finish": {
        "city": "Nice",
        "country": "France",
        "lng": "7.265592",
        "lat": "43.696036"
      },
      "length": 340,
      "type": null,
      "winner": {
        "name": "Drapeau : FranceFélix Goethals",
        "nationality": null
      },
      "leader": {
        "name": "Drapeau : BelgiqueLéon Scieur",
        "nationality": null
      }
    },
    {
      "id": "E-1921-04",
      "year": 1921,
      "leg": 4,
      "title": "Brest - Les Sables-d'Olonne",
      "start": {
        "city": "Brest",
        "country": "France",
        "lng": "-4.486076",
        "lat": "48.390394"
      },
      "finish": {
        "city": "Grenoble",
        "country": "France",
        "lng": "5.724524",
        "lat": "45.188529"
      },
      "length": 364,
      "type": null,
      "winner": {
        "name": "Drapeau : FranceRomain Bellenger",
        "nationality": null
      },
      "leader": {
        "name": "Drapeau : BelgiqueLéon Scieur",
        "nationality": null
      }
    },
    {
      "id": "E-1921-05",
      "year": 1921,
      "leg": 5,
      "title": "Les Sables-d'Olonne - Bayonne",
      "start": {
        "city": "Les Sables-d'Olonne",
        "country": "France",
        "lng": "-1.795493",
        "lat": "46.492958"
      },
      "finish": {
        "city": "Genève",
        "country": "Suisse",
        "lng": "6.142296",
        "lat": "46.198392"
      },
      "length": 405,
      "type": null,
      "winner": {
        "name": "Drapeau : BelgiqueLéon Scieur",
        "nationality": null
      },
      "leader": {
        "name": "Drapeau : BelgiqueLéon Scieur",
        "nationality": null
      }
    },
    {
      "id": "E-1921-06",
      "year": 1921,
      "leg": 6,
      "title": "Bayonne - Luchon",
      "start": {
        "city": "Bayonne",
        "country": "France",
        "lng": "-1.474841",
        "lat": "43.492949"
      },
      "finish": {
        "city": "Strasbourg",
        "country": "France",
        "lng": "7.747882",
        "lat": "48.583148"
      },
      "length": 412,
      "type": null,
      "winner": {
        "name": "Drapeau : BelgiqueLouis Mottiat",
        "nationality": null
      },
      "leader": {
        "name": "Drapeau : BelgiqueLéon Scieur",
        "nationality": null
      }
    },
    {
      "id": "E-1921-07",
      "year": 1921,
      "leg": 7,
      "title": "Luchon - Perpignan",
      "start": {
        "city": "Luchon",
        "country": "France",
        "lng": "0.592943",
        "lat": "42.788963"
      },
      "finish": {
        "city": "Metz",
        "country": "France",
        "lng": "6.176905",
        "lat": "49.119666"
      },
      "length": 482,
      "type": null,
      "winner": {
        "name": "Drapeau : BelgiqueLouis Mottiat",
        "nationality": null
      },
      "leader": {
        "name": "Drapeau : BelgiqueLéon Scieur",
        "nationality": null
      }
    },
    {
      "id": "E-1921-08",
      "year": 1921,
      "leg": 8,
      "title": "Perpignan - Toulon",
      "start": {
        "city": "Perpignan",
        "country": "France",
        "lng": "2.895872",
        "lat": "42.698684"
      },
      "finish": {
        "city": "Dunkerque",
        "country": "France",
        "lng": "2.375202",
        "lat": "51.03456"
      },
      "length": 326,
      "type": null,
      "winner": {
        "name": "Drapeau : BelgiqueHector Heusghem",
        "nationality": null
      },
      "leader": {
        "name": "Drapeau : BelgiqueLéon Scieur",
        "nationality": null
      }
    },
    {
      "id": "E-1921-09",
      "year": 1921,
      "leg": 9,
      "title": "Toulon - Nice",
      "start": {
        "city": "Toulon",
        "country": "France",
        "lng": "5.928",
        "lat": "43.124228"
      },
      "finish": {
        "city": "Paris",
        "country": "France",
        "lng": "2.352222",
        "lat": "48.856614"
      },
      "length": 323,
      "type": null,
      "winner": {
        "name": "Drapeau : BelgiqueLouis Mottiat",
        "nationality": null
      },
      "leader": {
        "name": "Drapeau : BelgiqueLéon Scieur",
        "nationality": null
      }
    },
    {
      "id": "E-1921-10",
      "year": 1921,
      "leg": 10,
      "title": "Nice - Grenoble",
      "start": {
        "city": "Nice",
        "country": "France",
        "lng": "7.265592",
        "lat": "43.696036"
      },
      "finish": {
        "city": "Cherbourg",
        "country": "France",
        "lng": "-1.625298",
        "lat": "49.639093"
      },
      "length": 411,
      "type": null,
      "winner": {
        "name": "Drapeau : ItalieLuigi Lucotti",
        "nationality": null
      },
      "leader": {
        "name": "Drapeau : BelgiqueLéon Scieur",
        "nationality": null
      }
    },
    {
      "id": "E-1921-11",
      "year": 1921,
      "leg": 11,
      "title": "Grenoble - Genève",
      "start": {
        "city": "Grenoble",
        "country": "France",
        "lng": "5.724524",
        "lat": "45.188529"
      },
      "finish": {
        "city": "Brest",
        "country": "France",
        "lng": "-4.486076",
        "lat": "48.390394"
      },
      "length": 272,
      "type": null,
      "winner": {
        "name": "Drapeau : BelgiqueFirmin Lambot",
        "nationality": null
      },
      "leader": {
        "name": "Drapeau : BelgiqueLéon Scieur",
        "nationality": null
      }
    },
    {
      "id": "E-1921-12",
      "year": 1921,
      "leg": 12,
      "title": "Genève - Strasbourg",
      "start": {
        "city": "Genève",
        "country": "Suisse",
        "lng": "6.142296",
        "lat": "46.198392"
      },
      "finish": {
        "city": "Les Sables-d'Olonne",
        "country": "France",
        "lng": "-1.795493",
        "lat": "46.492958"
      },
      "length": 333,
      "type": null,
      "winner": {
        "name": "Drapeau : BelgiqueLéon Scieur",
        "nationality": null
      },
      "leader": {
        "name": "Drapeau : BelgiqueLéon Scieur",
        "nationality": null
      }
    },
    {
      "id": "E-1921-13",
      "year": 1921,
      "leg": 13,
      "title": "Strasbourg - Metz",
      "start": {
        "city": "Strasbourg",
        "country": "France",
        "lng": "7.747882",
        "lat": "48.583148"
      },
      "finish": {
        "city": "Bayonne",
        "country": "France",
        "lng": "-1.474841",
        "lat": "43.492949"
      },
      "length": 325,
      "type": null,
      "winner": {
        "name": "Drapeau : FranceFélix Goethals",
        "nationality": null
      },
      "leader": {
        "name": "Drapeau : BelgiqueLéon Scieur",
        "nationality": null
      }
    },
    {
      "id": "E-1921-14",
      "year": 1921,
      "leg": 14,
      "title": "Metz - Dunkerque",
      "start": {
        "city": "Metz",
        "country": "France",
        "lng": "6.176905",
        "lat": "49.119666"
      },
      "finish": {
        "city": "Luchon",
        "country": "France",
        "lng": "0.592943",
        "lat": "42.788963"
      },
      "length": 371,
      "type": null,
      "winner": {
        "name": "Drapeau : FranceHonoré Barthélémy",
        "nationality": null
      },
      "leader": {
        "name": "Drapeau : BelgiqueLéon Scieur",
        "nationality": null
      }
    },
    {
      "id": "E-1921-15",
      "year": 1921,
      "leg": 15,
      "title": "Dunkerque - Paris",
      "start": {
        "city": "Dunkerque",
        "country": "France",
        "lng": "2.375202",
        "lat": "51.03456"
      },
      "finish": {
        "city": "Perpignan",
        "country": "France",
        "lng": "2.895872",
        "lat": "42.698684"
      },
      "length": 300,
      "type": null,
      "winner": {
        "name": "Drapeau : BelgiqueFélix Sellier",
        "nationality": null
      },
      "leader": {
        "name": "Drapeau : BelgiqueLéon Scieur",
        "nationality": null
      }
    }
  ]
}