{
  "year": 1923,
  "edition": 17,
  "total_length": 5386,
  "nb_legs": 15,
  "has_prologue": false,
  "nb_concurrents": 139,
  "nb_finishers": 48,
  "pct_finishers": 35,
  "winner_first_name": "Henri",
  "winner_last_name": "Pélissier",
  "winner_id": "henri-pelissier",
  "winner_total_time": "222h 15' 30\"",
  "winner_age": "34",
  "winner_country": "France",
  "winner_avg_speed": "24,233",
  "ahead_of_2nd": "0h 30' 41\" ",
  "second_name": "O. Bottecchia",
  "second_country": "Italie",
  "second_id": "ottavio-bottecchia",
  "ahead_of_3rd": "1h 04' 43\"",
  "third_name": "R. Bellenger",
  "third_country": "France",
  "third_id": null,
  "legs": [
    {
      "id": "E-1923-01",
      "year": 1923,
      "leg": "1",
      "leg_num": 0,
      "title": "Paris",
      "start": {
        "city": "France",
        "country": "48.856614,2.352222",
        "lat": "Le Havre",
        "lng": null
      },
      "finish": {
        "city": "France",
        "country": "49.49437,0.107929",
        "lat": "381",
        "lng": null
      },
      "length": 0
    },
    {
      "id": "E-1923-02",
      "year": 1923,
      "leg": "2",
      "leg_num": 0,
      "title": "Le Havre",
      "start": {
        "city": "France",
        "country": "49.49437,0.107929",
        "lat": "Cherbourg",
        "lng": null
      },
      "finish": {
        "city": "France",
        "country": "49.639093,-1.625298",
        "lat": "371",
        "lng": null
      },
      "length": 0
    },
    {
      "id": "E-1923-03",
      "year": 1923,
      "leg": "3",
      "leg_num": 0,
      "title": "Cherbourg",
      "start": {
        "city": "France",
        "country": "49.639093,-1.625298",
        "lat": "Brest",
        "lng": null
      },
      "finish": {
        "city": "France",
        "country": "48.390394,-4.486076",
        "lat": "405",
        "lng": null
      },
      "length": 0
    },
    {
      "id": "E-1923-04",
      "year": 1923,
      "leg": "4",
      "leg_num": 0,
      "title": "Brest",
      "start": {
        "city": "France",
        "country": "48.390394,-4.486076",
        "lat": "Les Sables-d'Olonne",
        "lng": null
      },
      "finish": {
        "city": "France",
        "country": "46.492958,-1.795493",
        "lat": "412",
        "lng": null
      },
      "length": 0
    },
    {
      "id": "E-1923-05",
      "year": 1923,
      "leg": "5",
      "leg_num": 0,
      "title": "Les Sables-d'Olonne",
      "start": {
        "city": "France",
        "country": "46.492958,-1.795493",
        "lat": "Bayonne",
        "lng": null
      },
      "finish": {
        "city": "France",
        "country": "43.492949,-1.474841",
        "lat": "482",
        "lng": null
      },
      "length": 0
    },
    {
      "id": "E-1923-06",
      "year": 1923,
      "leg": "6",
      "leg_num": 0,
      "title": "Bayonne",
      "start": {
        "city": "France",
        "country": "43.492949,-1.474841",
        "lat": "Luchon",
        "lng": null
      },
      "finish": {
        "city": "France",
        "country": "42.788963,0.592943",
        "lat": "326",
        "lng": null
      },
      "length": 0
    },
    {
      "id": "E-1923-07",
      "year": 1923,
      "leg": "7",
      "leg_num": 0,
      "title": "Luchon",
      "start": {
        "city": "France",
        "country": "42.788963,0.592943",
        "lat": "Perpignan",
        "lng": null
      },
      "finish": {
        "city": "France",
        "country": "42.698684,2.895872",
        "lat": "323",
        "lng": null
      },
      "length": 0
    },
    {
      "id": "E-1923-08",
      "year": 1923,
      "leg": "8",
      "leg_num": 0,
      "title": "Perpignan",
      "start": {
        "city": "France",
        "country": "42.698684,2.895872",
        "lat": "Toulon",
        "lng": null
      },
      "finish": {
        "city": "France",
        "country": "43.124228,5.928",
        "lat": "427",
        "lng": null
      },
      "length": 0
    },
    {
      "id": "E-1923-09",
      "year": 1923,
      "leg": "9",
      "leg_num": 0,
      "title": "Toulon",
      "start": {
        "city": "France",
        "country": "43.124228,5.928",
        "lat": "Nice",
        "lng": null
      },
      "finish": {
        "city": "France",
        "country": "43.696036,7.265592",
        "lat": "281",
        "lng": null
      },
      "length": 0
    },
    {
      "id": "E-1923-10",
      "year": 1923,
      "leg": "10",
      "leg_num": 0,
      "title": "Nice",
      "start": {
        "city": "France",
        "country": "43.696036,7.265592",
        "lat": "Briançon",
        "lng": null
      },
      "finish": {
        "city": "France",
        "country": "44.899416,6.643179",
        "lat": "275",
        "lng": null
      },
      "length": 0
    },
    {
      "id": "E-1923-11",
      "year": 1923,
      "leg": "11",
      "leg_num": 0,
      "title": "Briançon",
      "start": {
        "city": "France",
        "country": "44.899416,6.643179",
        "lat": "Genève",
        "lng": null
      },
      "finish": {
        "city": "Suisse",
        "country": "46.198392,6.142296",
        "lat": "260",
        "lng": null
      },
      "length": 0
    },
    {
      "id": "E-1923-12",
      "year": 1923,
      "leg": "12",
      "leg_num": 0,
      "title": "Genève",
      "start": {
        "city": "Suisse",
        "country": "46.198392,6.142296",
        "lat": "Strasbourg",
        "lng": null
      },
      "finish": {
        "city": "France",
        "country": "48.583148,7.747882",
        "lat": "377",
        "lng": null
      },
      "length": 0
    },
    {
      "id": "E-1923-13",
      "year": 1923,
      "leg": "13",
      "leg_num": 0,
      "title": "Strasbourg",
      "start": {
        "city": "France",
        "country": "48.583148,7.747882",
        "lat": "Metz",
        "lng": null
      },
      "finish": {
        "city": "France",
        "country": "49.119666,6.176905",
        "lat": "300",
        "lng": null
      },
      "length": 0
    },
    {
      "id": "E-1923-14",
      "year": 1923,
      "leg": "14",
      "leg_num": 0,
      "title": "Metz",
      "start": {
        "city": "France",
        "country": "49.119666,6.176905",
        "lat": "Dunkerque",
        "lng": null
      },
      "finish": {
        "city": "France",
        "country": "51.03456,2.375202",
        "lat": "433",
        "lng": null
      },
      "length": 0
    },
    {
      "id": "E-1923-15",
      "year": 1923,
      "leg": "15",
      "leg_num": 0,
      "title": "Dunkerque",
      "start": {
        "city": "France",
        "country": "51.03456,2.375202",
        "lat": "Paris",
        "lng": null
      },
      "finish": {
        "city": "France",
        "country": "48.856614,2.352222",
        "lat": "343",
        "lng": null
      },
      "length": 0
    }
  ]
}