{
  "year": 1923,
  "edition": 17,
  "total_length": 5386,
  "nb_legs": 15,
  "has_prologue": false,
  "nb_concurrents": 139,
  "nb_finishers": 48,
  "pct_finishers": 35,
  "winner_name": "Henri Pélissier",
  "winner_time": "222h 15’ 30”",
  "ahead_of_2nd": "0h 30' 41\" ",
  "second_name": "O. Bottecchia",
  "second_country": "Italie",
  "ahead_of_3rd": "1h 04' 43\"",
  "third_name": "R. Bellenger",
  "third_country": "R. Bellenger",
  "legs": [
    {
      "id": "E-1923-01",
      "year": 1923,
      "leg": 1,
      "title": "Paris - Le Havre",
      "start": {
        "city": "Paris",
        "country": "France",
        "lat": "48.856614",
        "lng": "2.352222"
      },
      "finish": {
        "city": "Le Havre",
        "country": "France",
        "lat": "49.49437",
        "lng": "0.107929"
      },
      "length": 381,
      "type": null,
      "winner": {
        "name": "Robert Jacquinot Drapeau de France France",
        "nationality": null
      },
      "leader": {
        "name": "Robert Jacquinot Drapeau de France France",
        "nationality": null
      }
    },
    {
      "id": "E-1923-02",
      "year": 1923,
      "leg": 2,
      "title": "Le Havre - Cherbourg",
      "start": {
        "city": "Le Havre",
        "country": "France",
        "lat": "49.49437",
        "lng": "0.107929"
      },
      "finish": {
        "city": "Cherbourg",
        "country": "France",
        "lat": "49.639093",
        "lng": "-1.625298"
      },
      "length": 371,
      "type": null,
      "winner": {
        "name": "Ottavio Bottecchia Italie",
        "nationality": null
      },
      "leader": {
        "name": "Ottavio Bottecchia Flag of Italy (1861-1946) crowned.svgItalie",
        "nationality": null
      }
    },
    {
      "id": "E-1923-03",
      "year": 1923,
      "leg": 3,
      "title": "Cherbourg - Brest",
      "start": {
        "city": "Cherbourg",
        "country": "France",
        "lat": "49.639093",
        "lng": "-1.625298"
      },
      "finish": {
        "city": "Brest",
        "country": "France",
        "lat": "48.390394",
        "lng": "-4.486076"
      },
      "length": 405,
      "type": null,
      "winner": {
        "name": "Henri Pélissier Drapeau de France France",
        "nationality": null
      },
      "leader": {
        "name": "Ottavio Bottecchia Flag of Italy (1861-1946) crowned.svgItalie",
        "nationality": null
      }
    },
    {
      "id": "E-1923-04",
      "year": 1923,
      "leg": 4,
      "title": "Brest - Les Sables-d'Olonne",
      "start": {
        "city": "Brest",
        "country": "France",
        "lat": "48.390394",
        "lng": "-4.486076"
      },
      "finish": {
        "city": "Les Sables-d'Olonne",
        "country": "France",
        "lat": "46.492958",
        "lng": "-1.795493"
      },
      "length": 412,
      "type": null,
      "winner": {
        "name": "Albert Dejonghe Drapeau belge Belgique",
        "nationality": null
      },
      "leader": {
        "name": "Romain Bellenger Drapeau de France France",
        "nationality": null
      }
    },
    {
      "id": "E-1923-05",
      "year": 1923,
      "leg": 5,
      "title": "Les Sables-d'Olonne - Bayonne",
      "start": {
        "city": "Les Sables-d'Olonne",
        "country": "France",
        "lat": "46.492958",
        "lng": "-1.795493"
      },
      "finish": {
        "city": "Bayonne",
        "country": "France",
        "lat": "43.492949",
        "lng": "-1.474841"
      },
      "length": 482,
      "type": null,
      "winner": {
        "name": "Robert Jacquinot Drapeau de France France",
        "nationality": null
      },
      "leader": {
        "name": "Romain Bellenger Drapeau de France France",
        "nationality": null
      }
    },
    {
      "id": "E-1923-06",
      "year": 1923,
      "leg": 6,
      "title": "Bayonne - Luchon",
      "start": {
        "city": "Bayonne",
        "country": "France",
        "lat": "43.492949",
        "lng": "-1.474841"
      },
      "finish": {
        "city": "Luchon",
        "country": "France",
        "lat": "42.788963",
        "lng": "0.592943"
      },
      "length": 326,
      "type": null,
      "winner": {
        "name": "Jean Alavoine Drapeau de France France",
        "nationality": null
      },
      "leader": {
        "name": "Ottavio Bottecchia Flag of Italy (1861-1946) crowned.svgItalie",
        "nationality": null
      }
    },
    {
      "id": "E-1923-07",
      "year": 1923,
      "leg": 7,
      "title": "Luchon - Perpignan",
      "start": {
        "city": "Luchon",
        "country": "France",
        "lat": "42.788963",
        "lng": "0.592943"
      },
      "finish": {
        "city": "Perpignan",
        "country": "France",
        "lat": "42.698684",
        "lng": "2.895872"
      },
      "length": 323,
      "type": null,
      "winner": {
        "name": "Jean Alavoine Drapeau de France France",
        "nationality": null
      },
      "leader": {
        "name": "Ottavio Bottecchia Flag of Italy (1861-1946) crowned.svgItalie",
        "nationality": null
      }
    },
    {
      "id": "E-1923-08",
      "year": 1923,
      "leg": 8,
      "title": "Perpignan - Toulon",
      "start": {
        "city": "Perpignan",
        "country": "France",
        "lat": "42.698684",
        "lng": "2.895872"
      },
      "finish": {
        "city": "Toulon",
        "country": "France",
        "lat": "43.124228",
        "lng": "5.928"
      },
      "length": 427,
      "type": null,
      "winner": {
        "name": "Lucien Buysse Drapeau belge Belgique",
        "nationality": null
      },
      "leader": {
        "name": "Ottavio Bottecchia Flag of Italy (1861-1946) crowned.svgItalie",
        "nationality": null
      }
    },
    {
      "id": "E-1923-09",
      "year": 1923,
      "leg": 9,
      "title": "Toulon - Nice",
      "start": {
        "city": "Toulon",
        "country": "France",
        "lat": "43.124228",
        "lng": "5.928"
      },
      "finish": {
        "city": "Nice",
        "country": "France",
        "lat": "43.696036",
        "lng": "7.265592"
      },
      "length": 281,
      "type": null,
      "winner": {
        "name": "Jean Alavoine Drapeau de France France",
        "nationality": null
      },
      "leader": {
        "name": "Ottavio Bottecchia Flag of Italy (1861-1946) crowned.svgItalie",
        "nationality": null
      }
    },
    {
      "id": "E-1923-10",
      "year": 1923,
      "leg": 10,
      "title": "Nice - Briançon",
      "start": {
        "city": "Nice",
        "country": "France",
        "lat": "43.696036",
        "lng": "7.265592"
      },
      "finish": {
        "city": "Briançon",
        "country": "France",
        "lat": "44.899416",
        "lng": "6.643179"
      },
      "length": 275,
      "type": null,
      "winner": {
        "name": "Henri Pélissier Drapeau de France France",
        "nationality": null
      },
      "leader": {
        "name": "Henri Pélissier Drapeau de France France",
        "nationality": null
      }
    },
    {
      "id": "E-1923-11",
      "year": 1923,
      "leg": 11,
      "title": "Briançon - Genève",
      "start": {
        "city": "Briançon",
        "country": "France",
        "lat": "44.899416",
        "lng": "6.643179"
      },
      "finish": {
        "city": "Genève",
        "country": "Suisse",
        "lat": "46.198392",
        "lng": "6.142296"
      },
      "length": 260,
      "type": null,
      "winner": {
        "name": "Henri Pélissier Drapeau de France France",
        "nationality": null
      },
      "leader": {
        "name": "Henri Pélissier Drapeau de France France",
        "nationality": null
      }
    },
    {
      "id": "E-1923-12",
      "year": 1923,
      "leg": 12,
      "title": "Genève - Strasbourg",
      "start": {
        "city": "Genève",
        "country": "Suisse",
        "lat": "46.198392",
        "lng": "6.142296"
      },
      "finish": {
        "city": "Strasbourg",
        "country": "France",
        "lat": "48.583148",
        "lng": "7.747882"
      },
      "length": 377,
      "type": null,
      "winner": {
        "name": "Joseph Muller Drapeau de France France",
        "nationality": null
      },
      "leader": {
        "name": "Henri Pélissier Drapeau de France France",
        "nationality": null
      }
    },
    {
      "id": "E-1923-13",
      "year": 1923,
      "leg": 13,
      "title": "Strasbourg - Metz",
      "start": {
        "city": "Strasbourg",
        "country": "France",
        "lat": "48.583148",
        "lng": "7.747882"
      },
      "finish": {
        "city": "Metz",
        "country": "France",
        "lat": "49.119666",
        "lng": "6.176905"
      },
      "length": 300,
      "type": null,
      "winner": {
        "name": "Romain Bellenger Drapeau de France France",
        "nationality": null
      },
      "leader": {
        "name": "Henri Pélissier Drapeau de France France",
        "nationality": null
      }
    },
    {
      "id": "E-1923-14",
      "year": 1923,
      "leg": 14,
      "title": "Metz - Dunkerque",
      "start": {
        "city": "Metz",
        "country": "France",
        "lat": "49.119666",
        "lng": "6.176905"
      },
      "finish": {
        "city": "Dunkerque",
        "country": "France",
        "lat": "51.03456",
        "lng": "2.375202"
      },
      "length": 433,
      "type": null,
      "winner": {
        "name": "Félix Goethals Drapeau de France France",
        "nationality": null
      },
      "leader": {
        "name": "Henri Pélissier Drapeau de France France",
        "nationality": null
      }
    },
    {
      "id": "E-1923-15",
      "year": 1923,
      "leg": 15,
      "title": "Dunkerque - Paris",
      "start": {
        "city": "Dunkerque",
        "country": "France",
        "lat": "51.03456",
        "lng": "2.375202"
      },
      "finish": {
        "city": "Paris",
        "country": "France",
        "lat": "48.856614",
        "lng": "2.352222"
      },
      "length": 343,
      "type": null,
      "winner": {
        "name": "Félix Goethals Drapeau de France France",
        "nationality": null
      },
      "leader": {
        "name": "Henri Pélissier Drapeau de France France",
        "nationality": null
      }
    }
  ]
}