{
  "year": 1926,
  "edition": 20,
  "total_length": 5745,
  "nb_legs": 17,
  "has_prologue": false,
  "nb_concurrents": 126,
  "nb_finishers": 41,
  "pct_finishers": 33,
  "winner_first_name": "Lucien",
  "winner_last_name": "Buysse",
  "winner_id": "lucien-buysse",
  "winner_total_time": "238h 44' 25\"",
  "winner_age": "33",
  "winner_country": "Belgique",
  "winner_avg_speed": "24,273",
  "ahead_of_2nd": "1h 22' 25\" ",
  "second_name": "N. Frantz",
  "second_country": "Luxembourg",
  "second_id": "nicolas-frantz",
  "ahead_of_3rd": "1h 23' 51\"",
  "third_name": "B. Aimo",
  "third_country": "Italie",
  "third_id": null,
  "legs": [
    {
      "id": "E-1926-01",
      "year": 1926,
      "leg": "1",
      "leg_num": 0,
      "title": "Évian",
      "start": {
        "city": "France",
        "country": "46.401488,6.590949",
        "lat": "Mulhouse",
        "lng": null
      },
      "finish": {
        "city": "France",
        "country": "47.750839,7.335888",
        "lat": "373",
        "lng": null
      },
      "length": 0
    },
    {
      "id": "E-1926-02",
      "year": 1926,
      "leg": "2",
      "leg_num": 0,
      "title": "Mulhouse",
      "start": {
        "city": "France",
        "country": "47.750839,7.335888",
        "lat": "Metz",
        "lng": null
      },
      "finish": {
        "city": "France",
        "country": "49.119666,6.176905",
        "lat": "334",
        "lng": null
      },
      "length": 0
    },
    {
      "id": "E-1926-03",
      "year": 1926,
      "leg": "3",
      "leg_num": 0,
      "title": "Metz",
      "start": {
        "city": "France",
        "country": "49.119666,6.176905",
        "lat": "Dunkerque",
        "lng": null
      },
      "finish": {
        "city": "France",
        "country": "51.03456,2.375202",
        "lat": "433",
        "lng": null
      },
      "length": 0
    },
    {
      "id": "E-1926-04",
      "year": 1926,
      "leg": "4",
      "leg_num": 0,
      "title": "Dunkerque",
      "start": {
        "city": "France",
        "country": "51.03456,2.375202",
        "lat": "Le Havre",
        "lng": null
      },
      "finish": {
        "city": "France",
        "country": "49.49437,0.107929",
        "lat": "361",
        "lng": null
      },
      "length": 0
    },
    {
      "id": "E-1926-05",
      "year": 1926,
      "leg": "5",
      "leg_num": 0,
      "title": "Le Havre",
      "start": {
        "city": "France",
        "country": "49.49437,0.107929",
        "lat": "Cherbourg",
        "lng": null
      },
      "finish": {
        "city": "France",
        "country": "49.639093,-1.625298",
        "lat": "357",
        "lng": null
      },
      "length": 0
    },
    {
      "id": "E-1926-06",
      "year": 1926,
      "leg": "6",
      "leg_num": 0,
      "title": "Cherbourg",
      "start": {
        "city": "France",
        "country": "49.639093,-1.625298",
        "lat": "Brest",
        "lng": null
      },
      "finish": {
        "city": "France",
        "country": "48.390394,-4.486076",
        "lat": "405",
        "lng": null
      },
      "length": 0
    },
    {
      "id": "E-1926-07",
      "year": 1926,
      "leg": "7",
      "leg_num": 0,
      "title": "Brest",
      "start": {
        "city": "France",
        "country": "48.390394,-4.486076",
        "lat": "Les Sables-d'Olonne",
        "lng": null
      },
      "finish": {
        "city": "France",
        "country": "46.492958,-1.795493",
        "lat": "412",
        "lng": null
      },
      "length": 0
    },
    {
      "id": "E-1926-08",
      "year": 1926,
      "leg": "8",
      "leg_num": 0,
      "title": "Les Sables-d'Olonne",
      "start": {
        "city": "France",
        "country": "46.492958,-1.795493",
        "lat": "Bordeaux",
        "lng": null
      },
      "finish": {
        "city": "France",
        "country": "44.837789,-0.57918",
        "lat": "285",
        "lng": null
      },
      "length": 0
    },
    {
      "id": "E-1926-09",
      "year": 1926,
      "leg": "9",
      "leg_num": 0,
      "title": "Bordeaux",
      "start": {
        "city": "France",
        "country": "44.837789,-0.57918",
        "lat": "Bayonne",
        "lng": null
      },
      "finish": {
        "city": "France",
        "country": "43.492949,-1.474841",
        "lat": "189",
        "lng": null
      },
      "length": 0
    },
    {
      "id": "E-1926-10",
      "year": 1926,
      "leg": "10",
      "leg_num": 0,
      "title": "Bayonne",
      "start": {
        "city": "France",
        "country": "43.492949,-1.474841",
        "lat": "Luchon",
        "lng": null
      },
      "finish": {
        "city": "France",
        "country": "42.788963,0.592943",
        "lat": "326",
        "lng": null
      },
      "length": 0
    },
    {
      "id": "E-1926-11",
      "year": 1926,
      "leg": "11",
      "leg_num": 0,
      "title": "Luchon",
      "start": {
        "city": "France",
        "country": "42.788963,0.592943",
        "lat": "Perpignan",
        "lng": null
      },
      "finish": {
        "city": "France",
        "country": "42.698684,2.895872",
        "lat": "323",
        "lng": null
      },
      "length": 0
    },
    {
      "id": "E-1926-12",
      "year": 1926,
      "leg": "12",
      "leg_num": 0,
      "title": "Perpignan",
      "start": {
        "city": "France",
        "country": "42.698684,2.895872",
        "lat": "Toulon",
        "lng": null
      },
      "finish": {
        "city": "France",
        "country": "43.124228,5.928",
        "lat": "427",
        "lng": null
      },
      "length": 0
    },
    {
      "id": "E-1926-13",
      "year": 1926,
      "leg": "13",
      "leg_num": 0,
      "title": "Toulon",
      "start": {
        "city": "France",
        "country": "43.124228,5.928",
        "lat": "Nice",
        "lng": null
      },
      "finish": {
        "city": "France",
        "country": "43.696036,7.265592",
        "lat": "280",
        "lng": null
      },
      "length": 0
    },
    {
      "id": "E-1926-14",
      "year": 1926,
      "leg": "14",
      "leg_num": 0,
      "title": "Nice",
      "start": {
        "city": "France",
        "country": "43.696036,7.265592",
        "lat": "Briançon",
        "lng": null
      },
      "finish": {
        "city": "France",
        "country": "44.899416,6.643179",
        "lat": "275",
        "lng": null
      },
      "length": 0
    },
    {
      "id": "E-1926-15",
      "year": 1926,
      "leg": "15",
      "leg_num": 0,
      "title": "Briançon",
      "start": {
        "city": "France",
        "country": "44.899416,6.643179",
        "lat": "Évian",
        "lng": null
      },
      "finish": {
        "city": "France",
        "country": "46.401488,6.590949",
        "lat": "303",
        "lng": null
      },
      "length": 0
    },
    {
      "id": "E-1926-16",
      "year": 1926,
      "leg": "16",
      "leg_num": 0,
      "title": "Évian",
      "start": {
        "city": "France",
        "country": "46.401488,6.590949",
        "lat": "Dijon",
        "lng": null
      },
      "finish": {
        "city": "France",
        "country": "47.322047,5.04148",
        "lat": "321",
        "lng": null
      },
      "length": 0
    },
    {
      "id": "E-1926-17",
      "year": 1926,
      "leg": "17",
      "leg_num": 0,
      "title": "Dijon",
      "start": {
        "city": "France",
        "country": "47.322047,5.04148",
        "lat": "Paris",
        "lng": null
      },
      "finish": {
        "city": "France",
        "country": "48.856614,2.352222",
        "lat": "341",
        "lng": null
      },
      "length": 0
    }
  ]
}