{
  "year": 1930,
  "edition": 24,
  "total_length": 4822,
  "nb_legs": 21,
  "has_prologue": false,
  "nb_concurrents": 100,
  "nb_finishers": 59,
  "pct_finishers": 59,
  "winner_first_name": "André",
  "winner_last_name": "Leducq",
  "winner_id": "andre-leducq",
  "winner_total_time": "172h 12' 16\"",
  "winner_age": "26",
  "winner_country": "France",
  "winner_avg_speed": "28,000",
  "ahead_of_2nd": "0h 14' 13\" ",
  "second_name": "L. Guerra",
  "second_country": "Italie",
  "second_id": null,
  "ahead_of_3rd": "0h 16' 03\"",
  "third_name": "A. Magne",
  "third_country": "France",
  "third_id": "antonin-magne",
  "legs": [
    {
      "id": "E-1930-01",
      "year": 1930,
      "leg": "1",
      "leg_num": 0,
      "title": "Paris",
      "start": {
        "city": "France",
        "country": "48.856614,2.352222",
        "lat": "Caen",
        "lng": null
      },
      "finish": {
        "city": "France",
        "country": "49.182863,-0.370679",
        "lat": "206",
        "lng": null
      },
      "length": 0
    },
    {
      "id": "E-1930-02",
      "year": 1930,
      "leg": "2",
      "leg_num": 0,
      "title": "Caen",
      "start": {
        "city": "France",
        "country": "49.182863,-0.370679",
        "lat": "Dinan",
        "lng": null
      },
      "finish": {
        "city": "France",
        "country": "48.454366,-2.047327",
        "lat": "203",
        "lng": null
      },
      "length": 0
    },
    {
      "id": "E-1930-03",
      "year": 1930,
      "leg": "3",
      "leg_num": 0,
      "title": "Dinan",
      "start": {
        "city": "France",
        "country": "48.454366,-2.047327",
        "lat": "Brest",
        "lng": null
      },
      "finish": {
        "city": "France",
        "country": "48.390394,-4.486076",
        "lat": "206",
        "lng": null
      },
      "length": 0
    },
    {
      "id": "E-1930-04",
      "year": 1930,
      "leg": "4",
      "leg_num": 0,
      "title": "Brest",
      "start": {
        "city": "France",
        "country": "48.390394,-4.486076",
        "lat": "Vannes",
        "lng": null
      },
      "finish": {
        "city": "France",
        "country": "47.658236,-2.760847",
        "lat": "210",
        "lng": null
      },
      "length": 0
    },
    {
      "id": "E-1930-05",
      "year": 1930,
      "leg": "5",
      "leg_num": 0,
      "title": "Vannes",
      "start": {
        "city": "France",
        "country": "47.658236,-2.760847",
        "lat": "Les Sables-d'Olonne",
        "lng": null
      },
      "finish": {
        "city": "France",
        "country": "46.492958,-1.795493",
        "lat": "202",
        "lng": null
      },
      "length": 0
    },
    {
      "id": "E-1930-06",
      "year": 1930,
      "leg": "6",
      "leg_num": 0,
      "title": "Les Sables-d'Olonne",
      "start": {
        "city": "France",
        "country": "46.492958,-1.795493",
        "lat": "Bordeaux",
        "lng": null
      },
      "finish": {
        "city": "France",
        "country": "44.837789,-0.57918",
        "lat": "285",
        "lng": null
      },
      "length": 0
    },
    {
      "id": "E-1930-07",
      "year": 1930,
      "leg": "7",
      "leg_num": 0,
      "title": "Bordeaux",
      "start": {
        "city": "France",
        "country": "44.837789,-0.57918",
        "lat": "Hendaye",
        "lng": null
      },
      "finish": {
        "city": "France",
        "country": "43.359399,-1.766148",
        "lat": "222",
        "lng": null
      },
      "length": 0
    },
    {
      "id": "E-1930-08",
      "year": 1930,
      "leg": "8",
      "leg_num": 0,
      "title": "Hendaye",
      "start": {
        "city": "France",
        "country": "43.359399,-1.766148",
        "lat": "Pau",
        "lng": null
      },
      "finish": {
        "city": "France",
        "country": "43.2951,-0.370797",
        "lat": "146",
        "lng": null
      },
      "length": 0
    },
    {
      "id": "E-1930-09",
      "year": 1930,
      "leg": "9",
      "leg_num": 0,
      "title": "Pau",
      "start": {
        "city": "France",
        "country": "43.2951,-0.370797",
        "lat": "Luchon",
        "lng": null
      },
      "finish": {
        "city": "France",
        "country": "42.788963,0.592943",
        "lat": "231",
        "lng": null
      },
      "length": 0
    },
    {
      "id": "E-1930-10",
      "year": 1930,
      "leg": "10",
      "leg_num": 0,
      "title": "Luchon",
      "start": {
        "city": "France",
        "country": "42.788963,0.592943",
        "lat": "Perpignan",
        "lng": null
      },
      "finish": {
        "city": "France",
        "country": "42.698684,2.895872",
        "lat": "322",
        "lng": null
      },
      "length": 0
    },
    {
      "id": "E-1930-11",
      "year": 1930,
      "leg": "11",
      "leg_num": 0,
      "title": "Perpignan",
      "start": {
        "city": "France",
        "country": "42.698684,2.895872",
        "lat": "Montpellier",
        "lng": null
      },
      "finish": {
        "city": "France",
        "country": "43.610769,3.876716",
        "lat": "164",
        "lng": null
      },
      "length": 0
    },
    {
      "id": "E-1930-12",
      "year": 1930,
      "leg": "12",
      "leg_num": 0,
      "title": "Montpellier",
      "start": {
        "city": "France",
        "country": "43.610769,3.876716",
        "lat": "Marseille",
        "lng": null
      },
      "finish": {
        "city": "France",
        "country": "43.296482,5.36978",
        "lat": "209",
        "lng": null
      },
      "length": 0
    },
    {
      "id": "E-1930-13",
      "year": 1930,
      "leg": "13",
      "leg_num": 0,
      "title": "Marseille",
      "start": {
        "city": "France",
        "country": "43.296482,5.36978",
        "lat": "Cannes",
        "lng": null
      },
      "finish": {
        "city": "France",
        "country": "43.552847,7.017369",
        "lat": "181",
        "lng": null
      },
      "length": 0
    },
    {
      "id": "E-1930-14",
      "year": 1930,
      "leg": "14",
      "leg_num": 0,
      "title": "Cannes",
      "start": {
        "city": "France",
        "country": "43.552847,7.017369",
        "lat": "Nice",
        "lng": null
      },
      "finish": {
        "city": "France",
        "country": "43.696036,7.265592",
        "lat": "132",
        "lng": null
      },
      "length": 0
    },
    {
      "id": "E-1930-15",
      "year": 1930,
      "leg": "15",
      "leg_num": 0,
      "title": "Nice",
      "start": {
        "city": "France",
        "country": "43.696036,7.265592",
        "lat": "Grenoble",
        "lng": null
      },
      "finish": {
        "city": "France",
        "country": "45.188529,5.724524",
        "lat": "333",
        "lng": null
      },
      "length": 0
    },
    {
      "id": "E-1930-16",
      "year": 1930,
      "leg": "16",
      "leg_num": 0,
      "title": "Grenoble",
      "start": {
        "city": "France",
        "country": "45.188529,5.724524",
        "lat": "Évian",
        "lng": null
      },
      "finish": {
        "city": "France",
        "country": "46.401488,6.590949",
        "lat": "331",
        "lng": null
      },
      "length": 0
    },
    {
      "id": "E-1930-17",
      "year": 1930,
      "leg": "17",
      "leg_num": 0,
      "title": "Évian",
      "start": {
        "city": "France",
        "country": "46.401488,6.590949",
        "lat": "Belfort",
        "lng": null
      },
      "finish": {
        "city": "France",
        "country": "47.639674,6.863849",
        "lat": "282",
        "lng": null
      },
      "length": 0
    },
    {
      "id": "E-1930-18",
      "year": 1930,
      "leg": "18",
      "leg_num": 0,
      "title": "Belfort",
      "start": {
        "city": "France",
        "country": "47.639674,6.863849",
        "lat": "Metz",
        "lng": null
      },
      "finish": {
        "city": "France",
        "country": "49.119666,6.176905",
        "lat": "223",
        "lng": null
      },
      "length": 0
    },
    {
      "id": "E-1930-19",
      "year": 1930,
      "leg": "19",
      "leg_num": 0,
      "title": "Metz",
      "start": {
        "city": "France",
        "country": "49.119666,6.176905",
        "lat": "Charleville",
        "lng": null
      },
      "finish": {
        "city": "France",
        "country": "49.762085,4.726096",
        "lat": "159",
        "lng": null
      },
      "length": 0
    },
    {
      "id": "E-1930-20",
      "year": 1930,
      "leg": "20",
      "leg_num": 0,
      "title": "Charleville",
      "start": {
        "city": "France",
        "country": "49.762085,4.726096",
        "lat": "Malo-les-Bains",
        "lng": null
      },
      "finish": {
        "city": "France",
        "country": "51.046636,2.398274",
        "lat": "271",
        "lng": null
      },
      "length": 0
    },
    {
      "id": "E-1930-21",
      "year": 1930,
      "leg": "21",
      "leg_num": 0,
      "title": "Malo-les-Bains",
      "start": {
        "city": "France",
        "country": "51.046636,2.398274",
        "lat": "Paris",
        "lng": null
      },
      "finish": {
        "city": "France",
        "country": "48.856614,2.352222",
        "lat": "300",
        "lng": null
      },
      "length": 0
    }
  ]
}