{
  "year": 1931,
  "edition": 25,
  "total_length": 5091,
  "nb_legs": 24,
  "has_prologue": false,
  "nb_concurrents": 81,
  "nb_finishers": 35,
  "pct_finishers": 43,
  "winner_first_name": "Antonin",
  "winner_last_name": "Magne",
  "winner_id": "antonin-magne",
  "winner_total_time": "177h 10' 03\"",
  "winner_age": "27",
  "winner_country": "France",
  "winner_avg_speed": "28,735",
  "ahead_of_2nd": "0h 12' 56\" ",
  "second_name": "J. Demuysere",
  "second_country": "Belgique",
  "second_id": null,
  "ahead_of_3rd": "0h 22' 52\"",
  "third_name": "A. Pesenti",
  "third_country": "Italie",
  "third_id": null,
  "legs": [
    {
      "id": "E-1931-01",
      "year": 1931,
      "leg": "1",
      "leg_num": 0,
      "title": "Paris",
      "start": {
        "city": "France",
        "country": "48.856614,2.352222",
        "lat": "Caen",
        "lng": null
      },
      "finish": {
        "city": "France",
        "country": "49.182863,-0.370679",
        "lat": "208",
        "lng": null
      },
      "length": 0
    },
    {
      "id": "E-1931-02",
      "year": 1931,
      "leg": "2",
      "leg_num": 0,
      "title": "Caen",
      "start": {
        "city": "France",
        "country": "49.182863,-0.370679",
        "lat": "Dinan",
        "lng": null
      },
      "finish": {
        "city": "France",
        "country": "48.454366,-2.047327",
        "lat": "212",
        "lng": null
      },
      "length": 0
    },
    {
      "id": "E-1931-03",
      "year": 1931,
      "leg": "3",
      "leg_num": 0,
      "title": "Dinan",
      "start": {
        "city": "France",
        "country": "48.454366,-2.047327",
        "lat": "Brest",
        "lng": null
      },
      "finish": {
        "city": "France",
        "country": "48.390394,-4.486076",
        "lat": "206",
        "lng": null
      },
      "length": 0
    },
    {
      "id": "E-1931-04",
      "year": 1931,
      "leg": "4",
      "leg_num": 0,
      "title": "Brest",
      "start": {
        "city": "France",
        "country": "48.390394,-4.486076",
        "lat": "Vannes",
        "lng": null
      },
      "finish": {
        "city": "France",
        "country": "47.658236,-2.760847",
        "lat": "211",
        "lng": null
      },
      "length": 0
    },
    {
      "id": "E-1931-05",
      "year": 1931,
      "leg": "5",
      "leg_num": 0,
      "title": "Vannes",
      "start": {
        "city": "France",
        "country": "47.658236,-2.760847",
        "lat": "Les Sables-d'Olonne",
        "lng": null
      },
      "finish": {
        "city": "France",
        "country": "46.492958,-1.795493",
        "lat": "202",
        "lng": null
      },
      "length": 0
    },
    {
      "id": "E-1931-06",
      "year": 1931,
      "leg": "6",
      "leg_num": 0,
      "title": "Les Sables-d'Olonne",
      "start": {
        "city": "France",
        "country": "46.492958,-1.795493",
        "lat": "Bordeaux",
        "lng": null
      },
      "finish": {
        "city": "France",
        "country": "44.837789,-0.57918",
        "lat": "338",
        "lng": null
      },
      "length": 0
    },
    {
      "id": "E-1931-07",
      "year": 1931,
      "leg": "7",
      "leg_num": 0,
      "title": "Bordeaux",
      "start": {
        "city": "France",
        "country": "44.837789,-0.57918",
        "lat": "Bayonne",
        "lng": null
      },
      "finish": {
        "city": "France",
        "country": "43.492949,-1.474841",
        "lat": "180",
        "lng": null
      },
      "length": 0
    },
    {
      "id": "E-1931-08",
      "year": 1931,
      "leg": "8",
      "leg_num": 0,
      "title": "Bayonne",
      "start": {
        "city": "France",
        "country": "43.492949,-1.474841",
        "lat": "Pau",
        "lng": null
      },
      "finish": {
        "city": "France",
        "country": "43.2951,-0.370797",
        "lat": "106",
        "lng": null
      },
      "length": 0
    },
    {
      "id": "E-1931-09",
      "year": 1931,
      "leg": "9",
      "leg_num": 0,
      "title": "Pau",
      "start": {
        "city": "France",
        "country": "43.2951,-0.370797",
        "lat": "Luchon",
        "lng": null
      },
      "finish": {
        "city": "France",
        "country": "42.788963,0.592943",
        "lat": "231",
        "lng": null
      },
      "length": 0
    },
    {
      "id": "E-1931-10",
      "year": 1931,
      "leg": "10",
      "leg_num": 0,
      "title": "Luchon",
      "start": {
        "city": "France",
        "country": "42.788963,0.592943",
        "lat": "Perpignan",
        "lng": null
      },
      "finish": {
        "city": "France",
        "country": "42.698684,2.895872",
        "lat": "322",
        "lng": null
      },
      "length": 0
    },
    {
      "id": "E-1931-11",
      "year": 1931,
      "leg": "11",
      "leg_num": 0,
      "title": "Perpignan",
      "start": {
        "city": "France",
        "country": "42.698684,2.895872",
        "lat": "Montpellier",
        "lng": null
      },
      "finish": {
        "city": "France",
        "country": "43.610769,3.876716",
        "lat": "164",
        "lng": null
      },
      "length": 0
    },
    {
      "id": "E-1931-12",
      "year": 1931,
      "leg": "12",
      "leg_num": 0,
      "title": "Montpellier",
      "start": {
        "city": "France",
        "country": "43.610769,3.876716",
        "lat": "Marseille",
        "lng": null
      },
      "finish": {
        "city": "France",
        "country": "43.296482,5.36978",
        "lat": "207",
        "lng": null
      },
      "length": 0
    },
    {
      "id": "E-1931-13",
      "year": 1931,
      "leg": "13",
      "leg_num": 0,
      "title": "Marseille",
      "start": {
        "city": "France",
        "country": "43.296482,5.36978",
        "lat": "Cannes",
        "lng": null
      },
      "finish": {
        "city": "France",
        "country": "43.552847,7.017369",
        "lat": "181",
        "lng": null
      },
      "length": 0
    },
    {
      "id": "E-1931-14",
      "year": 1931,
      "leg": "14",
      "leg_num": 0,
      "title": "Cannes",
      "start": {
        "city": "France",
        "country": "43.552847,7.017369",
        "lat": "Nice",
        "lng": null
      },
      "finish": {
        "city": "France",
        "country": "43.696036,7.265592",
        "lat": "132",
        "lng": null
      },
      "length": 0
    },
    {
      "id": "E-1931-15",
      "year": 1931,
      "leg": "15",
      "leg_num": 0,
      "title": "Nice",
      "start": {
        "city": "France",
        "country": "43.696036,7.265592",
        "lat": "Gap",
        "lng": null
      },
      "finish": {
        "city": "France",
        "country": "44.559638,6.079758",
        "lat": "233",
        "lng": null
      },
      "length": 0
    },
    {
      "id": "E-1931-16",
      "year": 1931,
      "leg": "16",
      "leg_num": 0,
      "title": "Gap",
      "start": {
        "city": "France",
        "country": "44.559638,6.079758",
        "lat": "Grenoble",
        "lng": null
      },
      "finish": {
        "city": "France",
        "country": "45.188529,5.724524",
        "lat": "102",
        "lng": null
      },
      "length": 0
    },
    {
      "id": "E-1931-17",
      "year": 1931,
      "leg": "17",
      "leg_num": 0,
      "title": "Grenoble",
      "start": {
        "city": "France",
        "country": "45.188529,5.724524",
        "lat": "Aix-les-Bains",
        "lng": null
      },
      "finish": {
        "city": "France",
        "country": "45.692341,5.908998",
        "lat": "230",
        "lng": null
      },
      "length": 0
    },
    {
      "id": "E-1931-18",
      "year": 1931,
      "leg": "18",
      "leg_num": 0,
      "title": "Aix-les-Bains",
      "start": {
        "city": "France",
        "country": "45.692341,5.908998",
        "lat": "Évian",
        "lng": null
      },
      "finish": {
        "city": "France",
        "country": "46.401488,6.590949",
        "lat": "204",
        "lng": null
      },
      "length": 0
    },
    {
      "id": "E-1931-19",
      "year": 1931,
      "leg": "19",
      "leg_num": 0,
      "title": "Évian",
      "start": {
        "city": "France",
        "country": "46.401488,6.590949",
        "lat": "Belfort",
        "lng": null
      },
      "finish": {
        "city": "France",
        "country": "47.639674,6.863849",
        "lat": "282",
        "lng": null
      },
      "length": 0
    },
    {
      "id": "E-1931-20",
      "year": 1931,
      "leg": "20",
      "leg_num": 0,
      "title": "Belfort",
      "start": {
        "city": "France",
        "country": "47.639674,6.863849",
        "lat": "Colmar",
        "lng": null
      },
      "finish": {
        "city": "France",
        "country": "48.079359,7.358512",
        "lat": "209",
        "lng": null
      },
      "length": 0
    },
    {
      "id": "E-1931-21",
      "year": 1931,
      "leg": "21",
      "leg_num": 0,
      "title": "Colmar",
      "start": {
        "city": "France",
        "country": "48.079359,7.358512",
        "lat": "Metz",
        "lng": null
      },
      "finish": {
        "city": "France",
        "country": "49.119666,6.176905",
        "lat": "192",
        "lng": null
      },
      "length": 0
    },
    {
      "id": "E-1931-22",
      "year": 1931,
      "leg": "22",
      "leg_num": 0,
      "title": "Metz",
      "start": {
        "city": "France",
        "country": "49.119666,6.176905",
        "lat": "Charleville",
        "lng": null
      },
      "finish": {
        "city": "France",
        "country": "49.762085,4.726096",
        "lat": "159",
        "lng": null
      },
      "length": 0
    },
    {
      "id": "E-1931-23",
      "year": 1931,
      "leg": "23",
      "leg_num": 0,
      "title": "Charleville",
      "start": {
        "city": "France",
        "country": "49.762085,4.726096",
        "lat": "Malo-les-Bains",
        "lng": null
      },
      "finish": {
        "city": "France",
        "country": "51.046636,2.398274",
        "lat": "271",
        "lng": null
      },
      "length": 0
    },
    {
      "id": "E-1931-24",
      "year": 1931,
      "leg": "24",
      "leg_num": 0,
      "title": "Malo-les-Bains",
      "start": {
        "city": "France",
        "country": "51.046636,2.398274",
        "lat": "Paris",
        "lng": null
      },
      "finish": {
        "city": "France",
        "country": "48.856614,2.352222",
        "lat": "313",
        "lng": null
      },
      "length": 0
    }
  ]
}