{
  "year": 1931,
  "edition": 25,
  "total_length": 5091,
  "nb_legs": 24,
  "has_prologue": false,
  "nb_concurrents": 81,
  "nb_finishers": 35,
  "pct_finishers": 43,
  "winner_name": "Antonin Magne",
  "winner_time": "177h 10’ 03”",
  "ahead_of_2nd": "0h 12' 56\" ",
  "second_name": "J. Demuysere",
  "second_country": "Belgique",
  "ahead_of_3rd": "0h 22' 52\"",
  "third_name": "A. Pesenti",
  "third_country": "A. Pesenti",
  "legs": [
    {
      "id": "E-1931-01",
      "year": 1931,
      "leg": 1,
      "title": "Paris - Caen",
      "start": {
        "city": "Paris",
        "country": "France",
        "lng": "2.352222",
        "lat": "48.856614"
      },
      "finish": {
        "city": "Caen",
        "country": "France",
        "lng": "-0.370679",
        "lat": "49.182863"
      },
      "length": 208,
      "type": null,
      "winner": {
        "name": "Alfred Hamerlinck Drapeau belge Belgique",
        "nationality": null
      },
      "leader": {
        "name": "Alfred Hamerlinck Drapeau belge Belgique",
        "nationality": null
      }
    },
    {
      "id": "E-1931-02",
      "year": 1931,
      "leg": 2,
      "title": "Caen - Dinan",
      "start": {
        "city": "Caen",
        "country": "France",
        "lng": "-0.370679",
        "lat": "49.182863"
      },
      "finish": {
        "city": "Marseille",
        "country": "France",
        "lng": "5.36978",
        "lat": "43.296482"
      },
      "length": 211,
      "type": null,
      "winner": {
        "name": "André Godinat Drapeau de France France",
        "nationality": null
      },
      "leader": {
        "name": "Raffaele Di Paco Drapeau : ItalieItalie",
        "nationality": null
      }
    },
    {
      "id": "E-1931-03",
      "year": 1931,
      "leg": 3,
      "title": "Dinan - Brest",
      "start": {
        "city": "Dinan",
        "country": "France",
        "lng": "-2.047327",
        "lat": "48.454366"
      },
      "finish": {
        "city": "Évian",
        "country": "France",
        "lng": "6.590949",
        "lat": "46.401488"
      },
      "length": 322,
      "type": null,
      "winner": {
        "name": "Raffaele Di Paco Drapeau : ItalieItalie",
        "nationality": null
      },
      "leader": {
        "name": "Antonin Magne Drapeau de France France",
        "nationality": null
      }
    },
    {
      "id": "E-1931-04",
      "year": 1931,
      "leg": 4,
      "title": "Brest - Vannes",
      "start": {
        "city": "Brest",
        "country": "France",
        "lng": "-4.486076",
        "lat": "48.390394"
      },
      "finish": {
        "city": "Belfort",
        "country": "France",
        "lng": "6.863849",
        "lat": "47.639674"
      },
      "length": 164,
      "type": null,
      "winner": {
        "name": "Raffaele Di Paco Drapeau : ItalieItalie",
        "nationality": null
      },
      "leader": {
        "name": "Antonin Magne Drapeau de France France",
        "nationality": null
      }
    },
    {
      "id": "E-1931-05",
      "year": 1931,
      "leg": 5,
      "title": "Vannes - Les Sables-d'Olonne",
      "start": {
        "city": "Vannes",
        "country": "France",
        "lng": "-2.760847",
        "lat": "47.658236"
      },
      "finish": {
        "city": "Colmar",
        "country": "France",
        "lng": "7.358512",
        "lat": "48.079359"
      },
      "length": 181,
      "type": null,
      "winner": {
        "name": "Charles Pélissier Drapeau de France France",
        "nationality": null
      },
      "leader": {
        "name": "Antonin Magne Drapeau de France France",
        "nationality": null
      }
    },
    {
      "id": "E-1931-06",
      "year": 1931,
      "leg": 6,
      "title": "Les Sables-d'Olonne - Bordeaux",
      "start": {
        "city": "Les Sables-d'Olonne",
        "country": "France",
        "lng": "-1.795493",
        "lat": "46.492958"
      },
      "finish": {
        "city": "Metz",
        "country": "France",
        "lng": "6.176905",
        "lat": "49.119666"
      },
      "length": 132,
      "type": null,
      "winner": {
        "name": "Eugenio Gestri Drapeau : ItalieItalie",
        "nationality": null
      },
      "leader": {
        "name": "Antonin Magne Drapeau de France France",
        "nationality": null
      }
    },
    {
      "id": "E-1931-07",
      "year": 1931,
      "leg": 7,
      "title": "Bordeaux - Bayonne",
      "start": {
        "city": "Bordeaux",
        "country": "France",
        "lng": "-0.57918",
        "lat": "44.837789"
      },
      "finish": {
        "city": "Charleville",
        "country": "France",
        "lng": "3.667405",
        "lat": "48.813677"
      },
      "length": 233,
      "type": null,
      "winner": {
        "name": "Jef Demuysere Drapeau belge Belgique",
        "nationality": null
      },
      "leader": {
        "name": "Antonin Magne Drapeau de France France",
        "nationality": null
      }
    },
    {
      "id": "E-1931-08",
      "year": 1931,
      "leg": 8,
      "title": "Bayonne - Pau",
      "start": {
        "city": "Bayonne",
        "country": "France",
        "lng": "-1.474841",
        "lat": "43.492949"
      },
      "finish": {
        "city": "Malo-les-Bains",
        "country": "France",
        "lng": "2.398274",
        "lat": "51.046636"
      },
      "length": 102,
      "type": null,
      "winner": {
        "name": "Charles Pélissier Drapeau de France France",
        "nationality": null
      },
      "leader": {
        "name": "Antonin Magne Drapeau de France France",
        "nationality": null
      }
    },
    {
      "id": "E-1931-09",
      "year": 1931,
      "leg": 9,
      "title": "Pau - Luchon",
      "start": {
        "city": "Pau",
        "country": "France",
        "lng": "-0.370797",
        "lat": "43.2951"
      },
      "finish": {
        "city": "Paris",
        "country": "France",
        "lng": "2.352222",
        "lat": "48.856614"
      },
      "length": 230,
      "type": null,
      "winner": {
        "name": "Max Bulla Drapeau d'Autriche Autriche",
        "nationality": null
      },
      "leader": {
        "name": "Antonin Magne Drapeau de France France",
        "nationality": null
      }
    },
    {
      "id": "E-1931-10",
      "year": 1931,
      "leg": 10,
      "title": "Luchon - Perpignan",
      "start": {
        "city": "Luchon",
        "country": "France",
        "lng": "0.592943",
        "lat": "42.788963"
      },
      "finish": {
        "city": "Dinan",
        "country": "France",
        "lng": "-2.047327",
        "lat": "48.454366"
      },
      "length": 207,
      "type": null,
      "winner": {
        "name": "Max Bulla Drapeau d'Autriche Autriche",
        "nationality": null
      },
      "leader": {
        "name": "Antonin Magne Drapeau de France France",
        "nationality": null
      }
    },
    {
      "id": "E-1931-11",
      "year": 1931,
      "leg": 11,
      "title": "Perpignan - Montpellier",
      "start": {
        "city": "Perpignan",
        "country": "France",
        "lng": "2.895872",
        "lat": "42.698684"
      },
      "finish": {
        "city": "Brest",
        "country": "France",
        "lng": "-4.486076",
        "lat": "48.390394"
      },
      "length": 204,
      "type": null,
      "winner": {
        "name": "Jef Demuysere Drapeau belge Belgique",
        "nationality": null
      },
      "leader": {
        "name": "Antonin Magne Drapeau de France France",
        "nationality": null
      }
    },
    {
      "id": "E-1931-12",
      "year": 1931,
      "leg": 12,
      "title": "Montpellier - Marseille",
      "start": {
        "city": "Montpellier",
        "country": "France",
        "lng": "3.876716",
        "lat": "43.610769"
      },
      "finish": {
        "city": "Vannes",
        "country": "France",
        "lng": "-2.760847",
        "lat": "47.658236"
      },
      "length": 282,
      "type": null,
      "winner": {
        "name": "Raffaele Di Paco Drapeau : ItalieItalie",
        "nationality": null
      },
      "leader": {
        "name": "Antonin Magne Drapeau de France France",
        "nationality": null
      }
    },
    {
      "id": "E-1931-13",
      "year": 1931,
      "leg": 13,
      "title": "Marseille - Cannes",
      "start": {
        "city": "Marseille",
        "country": "France",
        "lng": "5.36978",
        "lat": "43.296482"
      },
      "finish": {
        "city": "Les Sables-d'Olonne",
        "country": "France",
        "lng": "-1.795493",
        "lat": "46.492958"
      },
      "length": 209,
      "type": null,
      "winner": {
        "name": "André Leducq Drapeau de France France",
        "nationality": null
      },
      "leader": {
        "name": "Antonin Magne Drapeau de France France",
        "nationality": null
      }
    },
    {
      "id": "E-1931-14",
      "year": 1931,
      "leg": 14,
      "title": "Cannes - Nice",
      "start": {
        "city": "Cannes",
        "country": "France",
        "lng": "7.017369",
        "lat": "43.552847"
      },
      "finish": {
        "city": "Bordeaux",
        "country": "France",
        "lng": "-0.57918",
        "lat": "44.837789"
      },
      "length": 192,
      "type": null,
      "winner": {
        "name": "Raffaele Di Paco Drapeau : ItalieItalie",
        "nationality": null
      },
      "leader": {
        "name": "Antonin Magne Drapeau de France France",
        "nationality": null
      }
    },
    {
      "id": "E-1931-15",
      "year": 1931,
      "leg": 15,
      "title": "Nice - Gap",
      "start": {
        "city": "Nice",
        "country": "France",
        "lng": "7.265592",
        "lat": "43.696036"
      },
      "finish": {
        "city": "Bayonne",
        "country": "France",
        "lng": "-1.474841",
        "lat": "43.492949"
      },
      "length": 159,
      "type": null,
      "winner": {
        "name": "Raffaele Di Paco Drapeau : ItalieItalie",
        "nationality": null
      },
      "leader": {
        "name": "Antonin Magne Drapeau de France France",
        "nationality": null
      }
    },
    {
      "id": "E-1931-16",
      "year": 1931,
      "leg": 16,
      "title": "Gap - Grenoble",
      "start": {
        "city": "Gap",
        "country": "France",
        "lng": "6.079758",
        "lat": "44.559638"
      },
      "finish": {
        "city": "Pau",
        "country": "France",
        "lng": "-0.370797",
        "lat": "43.2951"
      },
      "length": 271,
      "type": null,
      "winner": {
        "name": "Gaston Rebry Drapeau belge Belgique",
        "nationality": null
      },
      "leader": {
        "name": "Antonin Magne Drapeau de France France",
        "nationality": null
      }
    },
    {
      "id": "E-1931-17",
      "year": 1931,
      "leg": 17,
      "title": "Grenoble - Aix-les-Bains",
      "start": {
        "city": "Grenoble",
        "country": "France",
        "lng": "5.724524",
        "lat": "45.188529"
      },
      "finish": {
        "city": "Luchon",
        "country": "France",
        "lng": "0.592943",
        "lat": "42.788963"
      },
      "length": 313,
      "type": null,
      "winner": {
        "name": "Charles Pélissier Drapeau de France France",
        "nationality": null
      },
      "leader": {
        "name": "Antonin Magne Drapeau de France France",
        "nationality": null
      }
    },
    {
      "id": "E-1931-18",
      "year": 1931,
      "leg": 18,
      "title": "Aix-les-Bains - Évian",
      "start": {
        "city": "Aix-les-Bains",
        "country": "France",
        "lng": "5.908998",
        "lat": "45.692341"
      },
      "finish": {
        "city": "Perpignan",
        "country": "France",
        "lng": "2.895872",
        "lat": "42.698684"
      },
      "length": 212,
      "type": null,
      "winner": {
        "name": "Max Bulla Drapeau d'Autriche Autriche",
        "nationality": null
      },
      "leader": {
        "name": "Max Bulla Drapeau d'Autriche Autriche",
        "nationality": null
      }
    },
    {
      "id": "E-1931-19",
      "year": 1931,
      "leg": 19,
      "title": "Évian - Belfort",
      "start": {
        "city": "Évian",
        "country": "France",
        "lng": "6.590949",
        "lat": "46.401488"
      },
      "finish": {
        "city": "Montpellier",
        "country": "France",
        "lng": "3.876716",
        "lat": "43.610769"
      },
      "length": 206,
      "type": null,
      "winner": {
        "name": "Fabio Battesini Drapeau : ItalieItalie",
        "nationality": null
      },
      "leader": {
        "name": "Léon Le Calvez Drapeau de France France",
        "nationality": null
      }
    },
    {
      "id": "E-1931-20",
      "year": 1931,
      "leg": 20,
      "title": "Belfort - Colmar",
      "start": {
        "city": "Belfort",
        "country": "France",
        "lng": "6.863849",
        "lat": "47.639674"
      },
      "finish": {
        "city": "Cannes",
        "country": "France",
        "lng": "7.017369",
        "lat": "43.552847"
      },
      "length": 202,
      "type": null,
      "winner": {
        "name": "Charles Pélissier Drapeau de France France",
        "nationality": null
      },
      "leader": {
        "name": "Charles Pélissier Drapeau de France France",
        "nationality": null
      }
    },
    {
      "id": "E-1931-21",
      "year": 1931,
      "leg": 21,
      "title": "Colmar - Metz",
      "start": {
        "city": "Colmar",
        "country": "France",
        "lng": "7.358512",
        "lat": "48.079359"
      },
      "finish": {
        "city": "Nice",
        "country": "France",
        "lng": "7.265592",
        "lat": "43.696036"
      },
      "length": 338,
      "type": null,
      "winner": {
        "name": "Alfred Hamerlinck Drapeau belge Belgique",
        "nationality": null
      },
      "leader": {
        "name": "Raffaele Di Paco Drapeau : ItalieItalie",
        "nationality": null
      }
    },
    {
      "id": "E-1931-22",
      "year": 1931,
      "leg": 22,
      "title": "Metz - Charleville-Mézières",
      "start": {
        "city": "Metz",
        "country": "France",
        "lng": "6.176905",
        "lat": "49.119666"
      },
      "finish": {
        "city": "Gap",
        "country": "France",
        "lng": "6.079758",
        "lat": "44.559638"
      },
      "length": 180,
      "type": null,
      "winner": {
        "name": "Gérard Loncke Drapeau belge Belgique",
        "nationality": null
      },
      "leader": {
        "name": "Raffaele Di Paco Drapeau : ItalieItalie",
        "nationality": null
      }
    },
    {
      "id": "E-1931-23",
      "year": 1931,
      "leg": 23,
      "title": "Charleville-Mézières - Malo-les-Bains",
      "start": {
        "city": "Charleville",
        "country": "France",
        "lng": "3.667405",
        "lat": "48.813677"
      },
      "finish": {
        "city": "Grenoble",
        "country": "France",
        "lng": "5.724524",
        "lat": "45.188529"
      },
      "length": 106,
      "type": null,
      "winner": {
        "name": "Charles Pélissier Drapeau de France France",
        "nationality": null
      },
      "leader": {
        "name": "Charles Pélissier Drapeau de France France",
        "nationality": null
      }
    },
    {
      "id": "E-1931-24",
      "year": 1931,
      "leg": 24,
      "title": "Malo-les-Bains - Paris",
      "start": {
        "city": "Malo-les-Bains",
        "country": "France",
        "lng": "2.398274",
        "lat": "51.046636"
      },
      "finish": {
        "city": "Aix-les-Bains",
        "country": "France",
        "lng": "5.908998",
        "lat": "45.692341"
      },
      "length": 231,
      "type": null,
      "winner": {
        "name": "Antonin Magne Drapeau de France France",
        "nationality": null
      },
      "leader": {
        "name": "Antonin Magne Drapeau de France France",
        "nationality": null
      }
    }
  ]
}