{
  "year": 1933,
  "edition": 27,
  "total_length": 4395,
  "nb_legs": 23,
  "has_prologue": false,
  "nb_concurrents": 80,
  "nb_finishers": 40,
  "pct_finishers": 50,
  "winner_name": "Georges Speicher",
  "winner_time": "147h 51’ 37”",
  "ahead_of_2nd": "0h 04' 01\" ",
  "second_name": "L. Guerra",
  "second_country": "Italie",
  "ahead_of_3rd": "0h 05' 01\"",
  "third_name": "G. Martano",
  "third_country": "G. Martano",
  "legs": [
    {
      "id": "E-1933-01",
      "year": 1933,
      "leg": 1,
      "title": "Paris - Lille",
      "start": {
        "city": "Paris",
        "country": "France",
        "lng": "2.352222",
        "lat": "48.856614"
      },
      "finish": {
        "city": "Lille",
        "country": "France",
        "lng": "3.057256",
        "lat": "50.62925"
      },
      "length": 262,
      "type": null,
      "winner": {
        "name": "Maurice Archambaud Drapeau de France France",
        "nationality": null
      },
      "leader": {
        "name": "Maurice Archambaud Drapeau de France France",
        "nationality": null
      }
    },
    {
      "id": "E-1933-02",
      "year": 1933,
      "leg": 2,
      "title": "Lille - Charleville-Mézières",
      "start": {
        "city": "Lille",
        "country": "France",
        "lng": "3.057256",
        "lat": "50.62925"
      },
      "finish": {
        "city": "Marseille",
        "country": "France",
        "lng": "5.36978",
        "lat": "43.296482"
      },
      "length": 220,
      "type": null,
      "winner": {
        "name": "Jean Aerts Drapeau belge Belgique",
        "nationality": null
      },
      "leader": {
        "name": "Maurice Archambaud Drapeau de France France",
        "nationality": null
      }
    },
    {
      "id": "E-1933-03",
      "year": 1933,
      "leg": 3,
      "title": "Charleville-Mézières - Metz",
      "start": {
        "city": "Charleville-Mézières",
        "country": "France",
        "lng": "4.726096",
        "lat": "49.762085"
      },
      "finish": {
        "city": "Tarbes",
        "country": "France",
        "lng": "0.078082",
        "lat": "43.232951"
      },
      "length": 227,
      "type": null,
      "winner": {
        "name": "Georges Speicher Drapeau de France France",
        "nationality": null
      },
      "leader": {
        "name": "Georges Lemaire Drapeau belge Belgique",
        "nationality": null
      }
    },
    {
      "id": "E-1933-04",
      "year": 1933,
      "leg": 4,
      "title": "Metz - Belfort",
      "start": {
        "city": "Metz",
        "country": "France",
        "lng": "6.176905",
        "lat": "49.119666"
      },
      "finish": {
        "city": "Pau",
        "country": "France",
        "lng": "-0.370797",
        "lat": "43.2951"
      },
      "length": 156,
      "type": null,
      "winner": {
        "name": "Fernand Cornez Drapeau de France France",
        "nationality": null
      },
      "leader": {
        "name": "Georges Lemaire Drapeau belge Belgique",
        "nationality": null
      }
    },
    {
      "id": "E-1933-05",
      "year": 1933,
      "leg": 5,
      "title": "Belfort - Évian-les-Bains",
      "start": {
        "city": "Belfort",
        "country": "France",
        "lng": "6.863849",
        "lat": "47.639674"
      },
      "finish": {
        "city": "Bordeaux",
        "country": "France",
        "lng": "-0.57918",
        "lat": "44.837789"
      },
      "length": 128,
      "type": null,
      "winner": {
        "name": "Maurice Archambaud Drapeau de France France",
        "nationality": null
      },
      "leader": {
        "name": "Maurice Archambaud Drapeau de France France",
        "nationality": null
      }
    },
    {
      "id": "E-1933-06",
      "year": 1933,
      "leg": 6,
      "title": "Évian-les-Bains - Aix-les-Bains",
      "start": {
        "city": "Évian-les-Bains",
        "country": "France",
        "lng": "6.590949",
        "lat": "46.401488"
      },
      "finish": {
        "city": "La Rochelle",
        "country": "France",
        "lng": "-1.151139",
        "lat": "46.160329"
      },
      "length": 168,
      "type": null,
      "winner": {
        "name": "André Leducq Drapeau de France France",
        "nationality": null
      },
      "leader": {
        "name": "Georges Speicher Drapeau de France France",
        "nationality": null
      }
    },
    {
      "id": "E-1933-07",
      "year": 1933,
      "leg": 7,
      "title": "Aix-les-Bains - Grenoble",
      "start": {
        "city": "Aix-les-Bains",
        "country": "France",
        "lng": "5.908998",
        "lat": "45.692341"
      },
      "finish": {
        "city": "Rennes",
        "country": "France",
        "lng": "-1.675708",
        "lat": "48.113475"
      },
      "length": 177,
      "type": null,
      "winner": {
        "name": "André Leducq Drapeau de France France",
        "nationality": null
      },
      "leader": {
        "name": "Georges Speicher Drapeau de France France",
        "nationality": null
      }
    },
    {
      "id": "E-1933-08",
      "year": 1933,
      "leg": 8,
      "title": "Grenoble - Gap",
      "start": {
        "city": "Grenoble",
        "country": "France",
        "lng": "5.724524",
        "lat": "45.188529"
      },
      "finish": {
        "city": "Caen",
        "country": "France",
        "lng": "-0.370679",
        "lat": "49.182863"
      },
      "length": 158,
      "type": null,
      "winner": {
        "name": "Jean Aerts Drapeau belge Belgique",
        "nationality": null
      },
      "leader": {
        "name": "Georges Speicher Drapeau de France France",
        "nationality": null
      }
    },
    {
      "id": "E-1933-09",
      "year": 1933,
      "leg": 9,
      "title": "Gap - Digne-les-Bains",
      "start": {
        "city": "Gap",
        "country": "France",
        "lng": "6.079758",
        "lat": "44.559638"
      },
      "finish": {
        "city": "Paris",
        "country": "France",
        "lng": "2.352222",
        "lat": "48.856614"
      },
      "length": 165,
      "type": null,
      "winner": {
        "name": "Léon Louyet Drapeau belge Belgique",
        "nationality": null
      },
      "leader": {
        "name": "Georges Speicher Drapeau de France France",
        "nationality": null
      }
    },
    {
      "id": "E-1933-10",
      "year": 1933,
      "leg": 10,
      "title": "Digne-les-Bains - Nice",
      "start": {
        "city": "Digne-les-Bains",
        "country": "France",
        "lng": "6.235976",
        "lat": "44.092193"
      },
      "finish": {
        "city": "Charleville-Mézières",
        "country": "France",
        "lng": "4.726096",
        "lat": "49.762085"
      },
      "length": 208,
      "type": null,
      "winner": {
        "name": "Georges Speicher Drapeau de France France",
        "nationality": null
      },
      "leader": {
        "name": "Georges Speicher Drapeau de France France",
        "nationality": null
      }
    },
    {
      "id": "E-1933-11",
      "year": 1933,
      "leg": 11,
      "title": "Nice - Cannes",
      "start": {
        "city": "Nice",
        "country": "France",
        "lng": "7.265592",
        "lat": "43.696036"
      },
      "finish": {
        "city": "Metz",
        "country": "France",
        "lng": "6.176905",
        "lat": "49.119666"
      },
      "length": 91,
      "type": null,
      "winner": {
        "name": "Jean Aerts Drapeau belge Belgique",
        "nationality": null
      },
      "leader": {
        "name": "Georges Speicher Drapeau de France France",
        "nationality": null
      }
    },
    {
      "id": "E-1933-12",
      "year": 1933,
      "leg": 12,
      "title": "Cannes - Marseille",
      "start": {
        "city": "Cannes",
        "country": "France",
        "lng": "7.017369",
        "lat": "43.552847"
      },
      "finish": {
        "city": "Belfort",
        "country": "France",
        "lng": "6.863849",
        "lat": "47.639674"
      },
      "length": 172,
      "type": null,
      "winner": {
        "name": "Learco Guerra Drapeau : ItalieItalie",
        "nationality": null
      },
      "leader": {
        "name": "Georges Speicher Drapeau de France France",
        "nationality": null
      }
    },
    {
      "id": "E-1933-13",
      "year": 1933,
      "leg": 13,
      "title": "Marseille - Montpellier",
      "start": {
        "city": "Marseille",
        "country": "France",
        "lng": "5.36978",
        "lat": "43.296482"
      },
      "finish": {
        "city": "Évian-les-Bains",
        "country": "France",
        "lng": "6.590949",
        "lat": "46.401488"
      },
      "length": 233,
      "type": null,
      "winner": {
        "name": "Jean Aerts Drapeau belge Belgique",
        "nationality": null
      },
      "leader": {
        "name": "Georges Speicher Drapeau de France France",
        "nationality": null
      }
    },
    {
      "id": "E-1933-14",
      "year": 1933,
      "leg": 14,
      "title": "Montpellier - Perpignan",
      "start": {
        "city": "Montpellier",
        "country": "France",
        "lng": "3.876716",
        "lat": "43.610769"
      },
      "finish": {
        "city": "Aix-les-Bains",
        "country": "France",
        "lng": "5.908998",
        "lat": "45.692341"
      },
      "length": 183,
      "type": null,
      "winner": {
        "name": "Jean Aerts Drapeau belge Belgique",
        "nationality": null
      },
      "leader": {
        "name": "Georges Speicher Drapeau de France France",
        "nationality": null
      }
    },
    {
      "id": "E-1933-15",
      "year": 1933,
      "leg": 15,
      "title": "Perpignan - Ax-les-Thermes",
      "start": {
        "city": "Perpignan",
        "country": "France",
        "lng": "2.895872",
        "lat": "42.698684"
      },
      "finish": {
        "city": "Grenoble",
        "country": "France",
        "lng": "5.724524",
        "lat": "45.188529"
      },
      "length": 266,
      "type": null,
      "winner": {
        "name": "Jean Aerts Drapeau belge Belgique",
        "nationality": null
      },
      "leader": {
        "name": "Georges Speicher Drapeau de France France",
        "nationality": null
      }
    },
    {
      "id": "E-1933-16",
      "year": 1933,
      "leg": 16,
      "title": "Ax-les-Thermes - Luchon",
      "start": {
        "city": "Ax-les-Thermes",
        "country": "France",
        "lng": "1.837545",
        "lat": "42.720254"
      },
      "finish": {
        "city": "Gap",
        "country": "France",
        "lng": "6.079758",
        "lat": "44.559638"
      },
      "length": 169,
      "type": null,
      "winner": {
        "name": "René Le Grevès Drapeau de France France",
        "nationality": null
      },
      "leader": {
        "name": "Georges Speicher Drapeau de France France",
        "nationality": null
      }
    },
    {
      "id": "E-1933-17",
      "year": 1933,
      "leg": 17,
      "title": "Luchon - Tarbes",
      "start": {
        "city": "Luchon",
        "country": "France",
        "lng": "0.592943",
        "lat": "42.788963"
      },
      "finish": {
        "city": "Digne-les-Bains",
        "country": "France",
        "lng": "6.235976",
        "lat": "44.092193"
      },
      "length": 222,
      "type": null,
      "winner": {
        "name": "Learco Guerra Drapeau : ItalieItalie",
        "nationality": null
      },
      "leader": {
        "name": "Georges Speicher Drapeau de France France",
        "nationality": null
      }
    },
    {
      "id": "E-1933-18",
      "year": 1933,
      "leg": 18,
      "title": "Tarbes - Pau",
      "start": {
        "city": "Tarbes",
        "country": "France",
        "lng": "0.078082",
        "lat": "43.232951"
      },
      "finish": {
        "city": "Nice",
        "country": "France",
        "lng": "7.265592",
        "lat": "43.696036"
      },
      "length": 192,
      "type": null,
      "winner": {
        "name": "Learco Guerra Drapeau : ItalieItalie",
        "nationality": null
      },
      "leader": {
        "name": "Maurice Archambaud Drapeau de France France",
        "nationality": null
      }
    },
    {
      "id": "E-1933-19",
      "year": 1933,
      "leg": 19,
      "title": "Pau - Bordeaux",
      "start": {
        "city": "Pau",
        "country": "France",
        "lng": "-0.370797",
        "lat": "43.2951"
      },
      "finish": {
        "city": "Cannes",
        "country": "France",
        "lng": "7.017369",
        "lat": "43.552847"
      },
      "length": 166,
      "type": null,
      "winner": {
        "name": "Alfons Schepers Drapeau belge Belgique",
        "nationality": null
      },
      "leader": {
        "name": "Maurice Archambaud Drapeau de France France",
        "nationality": null
      }
    },
    {
      "id": "E-1933-20",
      "year": 1933,
      "leg": 20,
      "title": "Bordeaux - La Rochelle",
      "start": {
        "city": "Bordeaux",
        "country": "France",
        "lng": "-0.57918",
        "lat": "44.837789"
      },
      "finish": {
        "city": "Montpellier",
        "country": "France",
        "lng": "3.876716",
        "lat": "43.610769"
      },
      "length": 293,
      "type": null,
      "winner": {
        "name": "Léon Louyet Drapeau belge Belgique",
        "nationality": null
      },
      "leader": {
        "name": "Maurice Archambaud Drapeau de France France",
        "nationality": null
      }
    },
    {
      "id": "E-1933-21",
      "year": 1933,
      "leg": 21,
      "title": "La Rochelle - Rennes",
      "start": {
        "city": "La Rochelle",
        "country": "France",
        "lng": "-1.151139",
        "lat": "46.160329"
      },
      "finish": {
        "city": "Perpignan",
        "country": "France",
        "lng": "2.895872",
        "lat": "42.698684"
      },
      "length": 207,
      "type": null,
      "winner": {
        "name": "Learco Guerra Drapeau : ItalieItalie",
        "nationality": null
      },
      "leader": {
        "name": "Antonin Magne Drapeau de France France",
        "nationality": null
      }
    },
    {
      "id": "E-1933-22",
      "year": 1933,
      "leg": 22,
      "title": "Rennes - Caen",
      "start": {
        "city": "Rennes",
        "country": "France",
        "lng": "-1.675708",
        "lat": "48.113475"
      },
      "finish": {
        "city": "Ax-les-Thermes",
        "country": "France",
        "lng": "1.837545",
        "lat": "42.720254"
      },
      "length": 229,
      "type": null,
      "winner": {
        "name": "Learco Guerra Drapeau : ItalieItalie",
        "nationality": null
      },
      "leader": {
        "name": "Maurice Archambaud Drapeau de France France",
        "nationality": null
      }
    },
    {
      "id": "E-1933-23",
      "year": 1933,
      "leg": 23,
      "title": "Caen - Paris",
      "start": {
        "city": "Caen",
        "country": "France",
        "lng": "-0.370679",
        "lat": "49.182863"
      },
      "finish": {
        "city": "Luchon",
        "country": "France",
        "lng": "0.592943",
        "lat": "42.788963"
      },
      "length": 102,
      "type": null,
      "winner": {
        "name": "Georges Speicher Drapeau de France France",
        "nationality": null
      },
      "leader": {
        "name": "Maurice Archambaud Drapeau de France France",
        "nationality": null
      }
    }
  ]
}