{
  "year": 1934,
  "edition": 28,
  "total_length": 4470,
  "nb_legs": 23,
  "has_prologue": false,
  "nb_concurrents": 60,
  "nb_finishers": 39,
  "pct_finishers": 65,
  "winner_first_name": "Antonin",
  "winner_last_name": "Magne",
  "winner_id": "antonin-magne",
  "winner_total_time": "147h 13' 58\"",
  "winner_age": "30",
  "winner_country": "France",
  "winner_avg_speed": "30,360",
  "ahead_of_2nd": "0h 27' 31\" ",
  "second_name": "G. Martano",
  "second_country": "Italie",
  "second_id": null,
  "ahead_of_3rd": "0h 52' 15\"",
  "third_name": "R. Lapébie",
  "third_country": "France",
  "third_id": "roger-lapebie",
  "legs": [
    {
      "id": "E-1934-01",
      "year": 1934,
      "leg": "1",
      "leg_num": 0,
      "title": "Paris",
      "start": {
        "city": "France",
        "country": "48.856614,2.352222",
        "lat": "Lille",
        "lng": null
      },
      "finish": {
        "city": "France",
        "country": "50.62925,3.057256",
        "lat": "262",
        "lng": null
      },
      "length": 0
    },
    {
      "id": "E-1934-02",
      "year": 1934,
      "leg": "2",
      "leg_num": 0,
      "title": "Lille",
      "start": {
        "city": "France",
        "country": "50.62925,3.057256",
        "lat": "Charleville-Mézières",
        "lng": null
      },
      "finish": {
        "city": "France",
        "country": "49.762085,4.726096",
        "lat": "192",
        "lng": null
      },
      "length": 0
    },
    {
      "id": "E-1934-03",
      "year": 1934,
      "leg": "3",
      "leg_num": 0,
      "title": "Charleville-Mézières",
      "start": {
        "city": "France",
        "country": "49.762085,4.726096",
        "lat": "Metz",
        "lng": null
      },
      "finish": {
        "city": "France",
        "country": "49.119666,6.176905",
        "lat": "161",
        "lng": null
      },
      "length": 0
    },
    {
      "id": "E-1934-04",
      "year": 1934,
      "leg": "4",
      "leg_num": 0,
      "title": "Metz",
      "start": {
        "city": "France",
        "country": "49.119666,6.176905",
        "lat": "Belfort",
        "lng": null
      },
      "finish": {
        "city": "France",
        "country": "47.639674,6.863849",
        "lat": "220",
        "lng": null
      },
      "length": 0
    },
    {
      "id": "E-1934-05",
      "year": 1934,
      "leg": "5",
      "leg_num": 0,
      "title": "Belfort",
      "start": {
        "city": "France",
        "country": "47.639674,6.863849",
        "lat": "Évian-les-Bains",
        "lng": null
      },
      "finish": {
        "city": "France",
        "country": "46.401488,6.590949",
        "lat": "293",
        "lng": null
      },
      "length": 0
    },
    {
      "id": "E-1934-06",
      "year": 1934,
      "leg": "6",
      "leg_num": 0,
      "title": "Évian-les-Bains",
      "start": {
        "city": "France",
        "country": "46.401488,6.590949",
        "lat": "Aix-les-Bains",
        "lng": null
      },
      "finish": {
        "city": "France",
        "country": "45.692341,5.908998",
        "lat": "207",
        "lng": null
      },
      "length": 0
    },
    {
      "id": "E-1934-07",
      "year": 1934,
      "leg": "7",
      "leg_num": 0,
      "title": "Aix-les-Bains",
      "start": {
        "city": "France",
        "country": "45.692341,5.908998",
        "lat": "Grenoble",
        "lng": null
      },
      "finish": {
        "city": "France",
        "country": "45.188529,5.724524",
        "lat": "229",
        "lng": null
      },
      "length": 0
    },
    {
      "id": "E-1934-08",
      "year": 1934,
      "leg": "8",
      "leg_num": 0,
      "title": "Grenoble",
      "start": {
        "city": "France",
        "country": "45.188529,5.724524",
        "lat": "Gap",
        "lng": null
      },
      "finish": {
        "city": "France",
        "country": "44.559638,6.079758",
        "lat": "102",
        "lng": null
      },
      "length": 0
    },
    {
      "id": "E-1934-09",
      "year": 1934,
      "leg": "9",
      "leg_num": 0,
      "title": "Gap",
      "start": {
        "city": "France",
        "country": "44.559638,6.079758",
        "lat": "Digne-les-Bains",
        "lng": null
      },
      "finish": {
        "city": "France",
        "country": "44.092193,6.235976",
        "lat": "227",
        "lng": null
      },
      "length": 0
    },
    {
      "id": "E-1934-10",
      "year": 1934,
      "leg": "10",
      "leg_num": 0,
      "title": "Digne-les-Bains",
      "start": {
        "city": "France",
        "country": "44.092193,6.235976",
        "lat": "Nice",
        "lng": null
      },
      "finish": {
        "city": "France",
        "country": "43.696036,7.265592",
        "lat": "156",
        "lng": null
      },
      "length": 0
    },
    {
      "id": "E-1934-11",
      "year": 1934,
      "leg": "11",
      "leg_num": 0,
      "title": "Nice",
      "start": {
        "city": "France",
        "country": "43.696036,7.265592",
        "lat": "Cannes",
        "lng": null
      },
      "finish": {
        "city": "France",
        "country": "43.552847,7.017369",
        "lat": "126",
        "lng": null
      },
      "length": 0
    },
    {
      "id": "E-1934-12",
      "year": 1934,
      "leg": "12",
      "leg_num": 0,
      "title": "Cannes",
      "start": {
        "city": "France",
        "country": "43.552847,7.017369",
        "lat": "Marseille",
        "lng": null
      },
      "finish": {
        "city": "France",
        "country": "43.296482,5.36978",
        "lat": "195",
        "lng": null
      },
      "length": 0
    },
    {
      "id": "E-1934-13",
      "year": 1934,
      "leg": "13",
      "leg_num": 0,
      "title": "Marseille",
      "start": {
        "city": "France",
        "country": "43.296482,5.36978",
        "lat": "Montpellier",
        "lng": null
      },
      "finish": {
        "city": "France",
        "country": "43.610769,3.876716",
        "lat": "172",
        "lng": null
      },
      "length": 0
    },
    {
      "id": "E-1934-14",
      "year": 1934,
      "leg": "14",
      "leg_num": 0,
      "title": "Montpellier",
      "start": {
        "city": "France",
        "country": "43.610769,3.876716",
        "lat": "Perpignan",
        "lng": null
      },
      "finish": {
        "city": "France",
        "country": "42.698684,2.895872",
        "lat": "177",
        "lng": null
      },
      "length": 0
    },
    {
      "id": "E-1934-15",
      "year": 1934,
      "leg": "15",
      "leg_num": 0,
      "title": "Perpignan",
      "start": {
        "city": "France",
        "country": "42.698684,2.895872",
        "lat": "Ax-les-Thermes",
        "lng": null
      },
      "finish": {
        "city": "France",
        "country": "42.720254,1.837545",
        "lat": "158",
        "lng": null
      },
      "length": 0
    },
    {
      "id": "E-1934-16",
      "year": 1934,
      "leg": "16",
      "leg_num": 0,
      "title": "Ax-les-Thermes",
      "start": {
        "city": "France",
        "country": "42.720254,1.837545",
        "lat": "Luchon",
        "lng": null
      },
      "finish": {
        "city": "France",
        "country": "42.788963,0.592943",
        "lat": "165",
        "lng": null
      },
      "length": 0
    },
    {
      "id": "E-1934-17",
      "year": 1934,
      "leg": "17",
      "leg_num": 0,
      "title": "Luchon",
      "start": {
        "city": "France",
        "country": "42.788963,0.592943",
        "lat": "Tarbes",
        "lng": null
      },
      "finish": {
        "city": "France",
        "country": "43.232951,0.078082",
        "lat": "91",
        "lng": null
      },
      "length": 0
    },
    {
      "id": "E-1934-18",
      "year": 1934,
      "leg": "18",
      "leg_num": 0,
      "title": "Tarbes",
      "start": {
        "city": "France",
        "country": "43.232951,0.078082",
        "lat": "Pau",
        "lng": null
      },
      "finish": {
        "city": "France",
        "country": "43.2951,-0.370797",
        "lat": "172",
        "lng": null
      },
      "length": 0
    },
    {
      "id": "E-1934-19",
      "year": 1934,
      "leg": "19",
      "leg_num": 0,
      "title": "Pau",
      "start": {
        "city": "France",
        "country": "43.2951,-0.370797",
        "lat": "Bordeaux",
        "lng": null
      },
      "finish": {
        "city": "France",
        "country": "44.837789,-0.57918",
        "lat": "215",
        "lng": null
      },
      "length": 0
    },
    {
      "id": "E-1934-20",
      "year": 1934,
      "leg": "20",
      "leg_num": 0,
      "title": "Bordeaux",
      "start": {
        "city": "France",
        "country": "44.837789,-0.57918",
        "lat": "La Rochelle",
        "lng": null
      },
      "finish": {
        "city": "France",
        "country": "46.160329,-1.151139",
        "lat": "183",
        "lng": null
      },
      "length": 0
    },
    {
      "id": "E-1934-21a",
      "year": 1934,
      "leg": "21a",
      "leg_num": 0,
      "title": "La Rochelle",
      "start": {
        "city": "France",
        "country": "46.160329,-1.151139",
        "lat": "La Roche-sur-Yon",
        "lng": null
      },
      "finish": {
        "city": "France",
        "country": "46.670511,-1.426442",
        "lat": "81",
        "lng": null
      },
      "length": 0
    },
    {
      "id": "E-1934-21b",
      "year": 1934,
      "leg": "21b",
      "leg_num": 0,
      "title": "La Roche-sur-Yon",
      "start": {
        "city": "France",
        "country": "46.670511,-1.426442",
        "lat": "Nantes",
        "lng": null
      },
      "finish": {
        "city": "France",
        "country": "47.218371,-1.553621",
        "lat": "90",
        "lng": null
      },
      "length": 0
    },
    {
      "id": "E-1934-22",
      "year": 1934,
      "leg": "22",
      "leg_num": 0,
      "title": "Nantes",
      "start": {
        "city": "France",
        "country": "47.218371,-1.553621",
        "lat": "Caen",
        "lng": null
      },
      "finish": {
        "city": "France",
        "country": "49.182863,-0.370679",
        "lat": "275",
        "lng": null
      },
      "length": 0
    },
    {
      "id": "E-1934-23",
      "year": 1934,
      "leg": "23",
      "leg_num": 0,
      "title": "Caen",
      "start": {
        "city": "France",
        "country": "49.182863,-0.370679",
        "lat": "Paris",
        "lng": null
      },
      "finish": {
        "city": "France",
        "country": "48.856614,2.352222",
        "lat": "221",
        "lng": null
      },
      "length": 0
    }
  ]
}