{
  "year": 1935,
  "edition": 29,
  "total_length": 4338,
  "nb_legs": 21,
  "has_prologue": false,
  "nb_concurrents": 93,
  "nb_finishers": 46,
  "pct_finishers": 49,
  "winner_first_name": "Romain",
  "winner_last_name": "Maes",
  "winner_id": "romain-maes",
  "winner_total_time": "141h 23' 00\"",
  "winner_age": "22",
  "winner_country": "Belgique",
  "winner_avg_speed": "30,650",
  "ahead_of_2nd": "0h 17' 52\" ",
  "second_name": "A. Morelli",
  "second_country": "Italie",
  "second_id": null,
  "ahead_of_3rd": "0h 24' 06\"",
  "third_name": "F. Vervaecke",
  "third_country": "Belgique",
  "third_id": null,
  "legs": [
    {
      "id": "E-1935-01",
      "year": 1935,
      "leg": "1",
      "leg_num": 0,
      "title": "Paris",
      "start": {
        "city": "France",
        "country": "48.856614,2.352222",
        "lat": "Lille",
        "lng": null
      },
      "finish": {
        "city": "France",
        "country": "50.62925,3.057256",
        "lat": "262",
        "lng": null
      },
      "length": 0
    },
    {
      "id": "E-1935-02",
      "year": 1935,
      "leg": "2",
      "leg_num": 0,
      "title": "Lille",
      "start": {
        "city": "France",
        "country": "50.62925,3.057256",
        "lat": "Charleville-Mézières",
        "lng": null
      },
      "finish": {
        "city": "France",
        "country": "49.762085,4.726096",
        "lat": "192",
        "lng": null
      },
      "length": 0
    },
    {
      "id": "E-1935-03",
      "year": 1935,
      "leg": "3",
      "leg_num": 0,
      "title": "Charleville-Mézières",
      "start": {
        "city": "France",
        "country": "49.762085,4.726096",
        "lat": "Metz",
        "lng": null
      },
      "finish": {
        "city": "France",
        "country": "49.119666,6.176905",
        "lat": "161",
        "lng": null
      },
      "length": 0
    },
    {
      "id": "E-1935-04",
      "year": 1935,
      "leg": "4",
      "leg_num": 0,
      "title": "Metz",
      "start": {
        "city": "France",
        "country": "49.119666,6.176905",
        "lat": "Belfort",
        "lng": null
      },
      "finish": {
        "city": "France",
        "country": "47.639674,6.863849",
        "lat": "220",
        "lng": null
      },
      "length": 0
    },
    {
      "id": "E-1935-5a",
      "year": 1935,
      "leg": "5a",
      "leg_num": 0,
      "title": "Belfort",
      "start": {
        "city": "France",
        "country": "47.639674,6.863849",
        "lat": "Genève",
        "lng": null
      },
      "finish": {
        "city": "Suisse",
        "country": "46.198392,6.142296",
        "lat": "262",
        "lng": null
      },
      "length": 0
    },
    {
      "id": "E-1935-5b",
      "year": 1935,
      "leg": "5b",
      "leg_num": 0,
      "title": "Genève",
      "start": {
        "city": "Suisse",
        "country": "46.198392,6.142296",
        "lat": "Évian",
        "lng": null
      },
      "finish": {
        "city": "France",
        "country": "46.401488,6.590949",
        "lat": "58",
        "lng": null
      },
      "length": 0
    },
    {
      "id": "E-1935-06",
      "year": 1935,
      "leg": "6",
      "leg_num": 0,
      "title": "Évian",
      "start": {
        "city": "France",
        "country": "46.401488,6.590949",
        "lat": "Aix-les-Bains",
        "lng": null
      },
      "finish": {
        "city": "France",
        "country": "45.692341,5.908998",
        "lat": "207",
        "lng": null
      },
      "length": 0
    },
    {
      "id": "E-1935-07",
      "year": 1935,
      "leg": "7",
      "leg_num": 0,
      "title": "Aix-les-Bains",
      "start": {
        "city": "France",
        "country": "45.692341,5.908998",
        "lat": "Grenoble",
        "lng": null
      },
      "finish": {
        "city": "France",
        "country": "45.188529,5.724524",
        "lat": "229",
        "lng": null
      },
      "length": 0
    },
    {
      "id": "E-1935-08",
      "year": 1935,
      "leg": "8",
      "leg_num": 0,
      "title": "Grenoble",
      "start": {
        "city": "France",
        "country": "45.188529,5.724524",
        "lat": "Gap",
        "lng": null
      },
      "finish": {
        "city": "France",
        "country": "44.559638,6.079758",
        "lat": "102",
        "lng": null
      },
      "length": 0
    },
    {
      "id": "E-1935-09",
      "year": 1935,
      "leg": "9",
      "leg_num": 0,
      "title": "Gap",
      "start": {
        "city": "France",
        "country": "44.559638,6.079758",
        "lat": "Digne-les-Bains",
        "lng": null
      },
      "finish": {
        "city": "France",
        "country": "44.092193,6.235976",
        "lat": "229",
        "lng": null
      },
      "length": 0
    },
    {
      "id": "E-1935-10",
      "year": 1935,
      "leg": "10",
      "leg_num": 0,
      "title": "Digne-les-Bains",
      "start": {
        "city": "France",
        "country": "44.092193,6.235976",
        "lat": "Nice",
        "lng": null
      },
      "finish": {
        "city": "France",
        "country": "43.696036,7.265592",
        "lat": "156",
        "lng": null
      },
      "length": 0
    },
    {
      "id": "E-1935-11",
      "year": 1935,
      "leg": "11",
      "leg_num": 0,
      "title": "Nice",
      "start": {
        "city": "France",
        "country": "43.696036,7.265592",
        "lat": "Cannes",
        "lng": null
      },
      "finish": {
        "city": "France",
        "country": "43.552847,7.017369",
        "lat": "126",
        "lng": null
      },
      "length": 0
    },
    {
      "id": "E-1935-12",
      "year": 1935,
      "leg": "12",
      "leg_num": 0,
      "title": "Cannes",
      "start": {
        "city": "France",
        "country": "43.552847,7.017369",
        "lat": "Marseille",
        "lng": null
      },
      "finish": {
        "city": "France",
        "country": "43.296482,5.36978",
        "lat": "195",
        "lng": null
      },
      "length": 0
    },
    {
      "id": "E-1935-13a",
      "year": 1935,
      "leg": "13a",
      "leg_num": 0,
      "title": "Marseille",
      "start": {
        "city": "France",
        "country": "43.296482,5.36978",
        "lat": "Nîmes",
        "lng": null
      },
      "finish": {
        "city": "France",
        "country": "43.836699,4.360054",
        "lat": "112",
        "lng": null
      },
      "length": 0
    },
    {
      "id": "E-1935-13b",
      "year": 1935,
      "leg": "13b",
      "leg_num": 0,
      "title": "Nîmes",
      "start": {
        "city": "France",
        "country": "43.836699,4.360054",
        "lat": "Montpellier",
        "lng": null
      },
      "finish": {
        "city": "France",
        "country": "43.610769,3.876716",
        "lat": "56",
        "lng": null
      },
      "length": 0
    },
    {
      "id": "E-1935-14a",
      "year": 1935,
      "leg": "14a",
      "leg_num": 0,
      "title": "Montpellier",
      "start": {
        "city": "France",
        "country": "43.610769,3.876716",
        "lat": "Narbonne",
        "lng": null
      },
      "finish": {
        "city": "France",
        "country": "43.184277,3.003078",
        "lat": "103",
        "lng": null
      },
      "length": 0
    },
    {
      "id": "E-1935-14b",
      "year": 1935,
      "leg": "14b",
      "leg_num": 0,
      "title": "Narbonne",
      "start": {
        "city": "France",
        "country": "43.184277,3.003078",
        "lat": "Perpignan",
        "lng": null
      },
      "finish": {
        "city": "France",
        "country": "42.698684,2.895872",
        "lat": "63",
        "lng": null
      },
      "length": 0
    },
    {
      "id": "E-1935-15",
      "year": 1935,
      "leg": "15",
      "leg_num": 0,
      "title": "Perpignan",
      "start": {
        "city": "France",
        "country": "42.698684,2.895872",
        "lat": "Luchon",
        "lng": null
      },
      "finish": {
        "city": "France",
        "country": "42.788963,0.592943",
        "lat": "325",
        "lng": null
      },
      "length": 0
    },
    {
      "id": "E-1935-16",
      "year": 1935,
      "leg": "16",
      "leg_num": 0,
      "title": "Luchon",
      "start": {
        "city": "France",
        "country": "42.788963,0.592943",
        "lat": "Pau",
        "lng": null
      },
      "finish": {
        "city": "France",
        "country": "43.2951,-0.370797",
        "lat": "194",
        "lng": null
      },
      "length": 0
    },
    {
      "id": "E-1935-17",
      "year": 1935,
      "leg": "17",
      "leg_num": 0,
      "title": "Pau",
      "start": {
        "city": "France",
        "country": "43.2951,-0.370797",
        "lat": "Bordeaux",
        "lng": null
      },
      "finish": {
        "city": "France",
        "country": "44.837789,-0.57918",
        "lat": "224",
        "lng": null
      },
      "length": 0
    },
    {
      "id": "E-1935-18a",
      "year": 1935,
      "leg": "18a",
      "leg_num": 0,
      "title": "Bordeaux",
      "start": {
        "city": "France",
        "country": "44.837789,-0.57918",
        "lat": "Rochefort",
        "lng": null
      },
      "finish": {
        "city": "France",
        "country": "45.936698,-0.961697",
        "lat": "158",
        "lng": null
      },
      "length": 0
    },
    {
      "id": "E-1935-18b",
      "year": 1935,
      "leg": "18b",
      "leg_num": 0,
      "title": "Rochefort",
      "start": {
        "city": "France",
        "country": "45.936698,-0.961697",
        "lat": "La Rochelle",
        "lng": null
      },
      "finish": {
        "city": "France",
        "country": "46.160329,-1.151139",
        "lat": "33",
        "lng": null
      },
      "length": 0
    },
    {
      "id": "E-1935-19a",
      "year": 1935,
      "leg": "19a",
      "leg_num": 0,
      "title": "La Rochelle",
      "start": {
        "city": "France",
        "country": "46.160329,-1.151139",
        "lat": "La Roche-sur-Yon",
        "lng": null
      },
      "finish": {
        "city": "France",
        "country": "46.670511,-1.426442",
        "lat": "81",
        "lng": null
      },
      "length": 0
    },
    {
      "id": "E-1935-19b",
      "year": 1935,
      "leg": "19b",
      "leg_num": 0,
      "title": "La Roche-sur-Yon",
      "start": {
        "city": "France",
        "country": "46.670511,-1.426442",
        "lat": "Nantes",
        "lng": null
      },
      "finish": {
        "city": "France",
        "country": "47.218371,-1.553621",
        "lat": "95",
        "lng": null
      },
      "length": 0
    },
    {
      "id": "E-1935-20a",
      "year": 1935,
      "leg": "20a",
      "leg_num": 0,
      "title": "Nantes",
      "start": {
        "city": "France",
        "country": "47.218371,-1.553621",
        "lat": "Vire",
        "lng": null
      },
      "finish": {
        "city": "France",
        "country": "48.837781,-0.888482",
        "lat": "220",
        "lng": null
      },
      "length": 0
    },
    {
      "id": "E-1935-20b",
      "year": 1935,
      "leg": "20b",
      "leg_num": 0,
      "title": "Vire",
      "start": {
        "city": "France",
        "country": "48.837781,-0.888482",
        "lat": "Caen",
        "lng": null
      },
      "finish": {
        "city": "France",
        "country": "49.182863,-0.370679",
        "lat": "55",
        "lng": null
      },
      "length": 0
    },
    {
      "id": "E-1935-21",
      "year": 1935,
      "leg": "21",
      "leg_num": 0,
      "title": "Caen",
      "start": {
        "city": "France",
        "country": "49.182863,-0.370679",
        "lat": "Paris",
        "lng": null
      },
      "finish": {
        "city": "France",
        "country": "48.856614,2.352222",
        "lat": "221",
        "lng": null
      },
      "length": 0
    }
  ]
}