{
  "year": 1938,
  "edition": 32,
  "total_length": 4694,
  "nb_legs": 21,
  "has_prologue": false,
  "nb_concurrents": 96,
  "nb_finishers": 55,
  "pct_finishers": 57,
  "winner_first_name": "Gino",
  "winner_last_name": "Bartali",
  "winner_id": "gino-bartali",
  "winner_total_time": "148h 29' 12\"",
  "winner_age": "24",
  "winner_country": "Italie",
  "winner_avg_speed": "31,565",
  "ahead_of_2nd": "0h 18' 27\" ",
  "second_name": "F. Vervaecke",
  "second_country": "Belgique",
  "second_id": null,
  "ahead_of_3rd": "0h 29' 26\"",
  "third_name": "V. Cosson",
  "third_country": "France",
  "third_id": null,
  "legs": [
    {
      "id": "E-1938-01",
      "year": 1938,
      "leg": "1",
      "leg_num": 1,
      "title": "Paris - Caen",
      "start": {
        "city": "Paris",
        "country": "France",
        "lat": "48.856614",
        "lng": "2.352222"
      },
      "finish": {
        "city": "Caen",
        "country": "France",
        "lat": "49.182863",
        "lng": "-0.370679"
      },
      "length": 215
    },
    {
      "id": "E-1938-02",
      "year": 1938,
      "leg": "2",
      "leg_num": 2,
      "title": "Caen - Saint-Brieuc",
      "start": {
        "city": "Caen",
        "country": "France",
        "lat": "49.182863",
        "lng": "-0.370679"
      },
      "finish": {
        "city": "Saint-Brieuc",
        "country": "France",
        "lat": "48.51418",
        "lng": "-2.765835"
      },
      "length": 237
    },
    {
      "id": "E-1938-03",
      "year": 1938,
      "leg": "3",
      "leg_num": 3,
      "title": "Saint-Brieuc - Nantes",
      "start": {
        "city": "Saint-Brieuc",
        "country": "France",
        "lat": "48.51418",
        "lng": "-2.765835"
      },
      "finish": {
        "city": "Nantes",
        "country": "France",
        "lat": "47.218371",
        "lng": "-1.553621"
      },
      "length": 238
    },
    {
      "id": "E-1938-4a",
      "year": 1938,
      "leg": "4a",
      "leg_num": 4,
      "title": "Nantes - La Roche-sur-Yon",
      "start": {
        "city": "Nantes",
        "country": "France",
        "lat": "47.218371",
        "lng": "-1.553621"
      },
      "finish": {
        "city": "La Roche-sur-Yon",
        "country": "France",
        "lat": "46.670511",
        "lng": "-1.426442"
      },
      "length": 62
    },
    {
      "id": "E-1938-4b",
      "year": 1938,
      "leg": "4b",
      "leg_num": 5,
      "title": "La Roche-sur-Yon - La Rochelle",
      "start": {
        "city": "La Roche-sur-Yon",
        "country": "France",
        "lat": "46.670511",
        "lng": "-1.426442"
      },
      "finish": {
        "city": "La Rochelle",
        "country": "France",
        "lat": "46.160329",
        "lng": "-1.151139"
      },
      "length": 83
    },
    {
      "id": "E-1938-4c",
      "year": 1938,
      "leg": "4c",
      "leg_num": 6,
      "title": "La Rochelle - Royan",
      "start": {
        "city": "La Rochelle",
        "country": "France",
        "lat": "46.160329",
        "lng": "-1.151139"
      },
      "finish": {
        "city": "Royan",
        "country": "France",
        "lat": "45.623027",
        "lng": "-1.043182"
      },
      "length": 83
    },
    {
      "id": "E-1938-05",
      "year": 1938,
      "leg": "5",
      "leg_num": 7,
      "title": "Royan - Bordeaux",
      "start": {
        "city": "Royan",
        "country": "France",
        "lat": "45.623027",
        "lng": "-1.043182"
      },
      "finish": {
        "city": "Bordeaux",
        "country": "France",
        "lat": "44.837789",
        "lng": "-0.57918"
      },
      "length": 198
    },
    {
      "id": "E-1938-6a",
      "year": 1938,
      "leg": "6a",
      "leg_num": 8,
      "title": "Bordeaux - Arcachon",
      "start": {
        "city": "Bordeaux",
        "country": "France",
        "lat": "44.837789",
        "lng": "-0.57918"
      },
      "finish": {
        "city": "Arcachon",
        "country": "France",
        "lat": "44.6528",
        "lng": "-1.1692"
      },
      "length": 52
    },
    {
      "id": "E-1938-6b",
      "year": 1938,
      "leg": "6b",
      "leg_num": 9,
      "title": "Arcachon - Bayonne",
      "start": {
        "city": "Arcachon",
        "country": "France",
        "lat": "44.6528",
        "lng": "-1.1692"
      },
      "finish": {
        "city": "Bayonne",
        "country": "France",
        "lat": "43.492949",
        "lng": "-1.474841"
      },
      "length": 171
    },
    {
      "id": "E-1938-07",
      "year": 1938,
      "leg": "7",
      "leg_num": 10,
      "title": "Bayonne - Pau",
      "start": {
        "city": "Bayonne",
        "country": "France",
        "lat": "43.492949",
        "lng": "-1.474841"
      },
      "finish": {
        "city": "Pau",
        "country": "France",
        "lat": "43.2951",
        "lng": "-0.370797"
      },
      "length": 115
    },
    {
      "id": "E-1938-08",
      "year": 1938,
      "leg": "8",
      "leg_num": 11,
      "title": "Pau - Luchon",
      "start": {
        "city": "Pau",
        "country": "France",
        "lat": "43.2951",
        "lng": "-0.370797"
      },
      "finish": {
        "city": "Luchon",
        "country": "France",
        "lat": "42.788963",
        "lng": "0.592943"
      },
      "length": 193
    },
    {
      "id": "E-1938-09",
      "year": 1938,
      "leg": "9",
      "leg_num": 12,
      "title": "Luchon - Perpignan",
      "start": {
        "city": "Luchon",
        "country": "France",
        "lat": "42.788963",
        "lng": "0.592943"
      },
      "finish": {
        "city": "Perpignan",
        "country": "France",
        "lat": "42.698684",
        "lng": "2.895872"
      },
      "length": 260
    },
    {
      "id": "E-1938-10a",
      "year": 1938,
      "leg": "10a",
      "leg_num": 13,
      "title": "Perpignan - Narbonne",
      "start": {
        "city": "Perpignan",
        "country": "France",
        "lat": "42.698684",
        "lng": "2.895872"
      },
      "finish": {
        "city": "Narbonne",
        "country": "France",
        "lat": "43.184277",
        "lng": "3.003078"
      },
      "length": 63
    },
    {
      "id": "E-1938-10b",
      "year": 1938,
      "leg": "10b",
      "leg_num": 14,
      "title": "Narbonne - Béziers",
      "start": {
        "city": "Narbonne",
        "country": "France",
        "lat": "43.184277",
        "lng": "3.003078"
      },
      "finish": {
        "city": "Béziers",
        "country": "France",
        "lat": "43.344233",
        "lng": "3.215795"
      },
      "length": 27
    },
    {
      "id": "E-1938-10c",
      "year": 1938,
      "leg": "10c",
      "leg_num": 15,
      "title": "Béziers - Montpellier",
      "start": {
        "city": "Béziers",
        "country": "France",
        "lat": "43.344233",
        "lng": "3.215795"
      },
      "finish": {
        "city": "Montpellier",
        "country": "France",
        "lat": "43.610769",
        "lng": "3.876716"
      },
      "length": 73
    },
    {
      "id": "E-1938-11",
      "year": 1938,
      "leg": "11",
      "leg_num": 16,
      "title": "Montpellier - Marseille",
      "start": {
        "city": "Montpellier",
        "country": "France",
        "lat": "43.610769",
        "lng": "3.876716"
      },
      "finish": {
        "city": "Marseille",
        "country": "France",
        "lat": "43.296482",
        "lng": "5.36978"
      },
      "length": 223
    },
    {
      "id": "E-1938-12",
      "year": 1938,
      "leg": "12",
      "leg_num": 17,
      "title": "Marseille - Cannes",
      "start": {
        "city": "Marseille",
        "country": "France",
        "lat": "43.296482",
        "lng": "5.36978"
      },
      "finish": {
        "city": "Cannes",
        "country": "France",
        "lat": "43.552847",
        "lng": "7.017369"
      },
      "length": 199
    },
    {
      "id": "E-1938-13",
      "year": 1938,
      "leg": "13",
      "leg_num": 18,
      "title": "Cannes - Digne-les-Bains",
      "start": {
        "city": "Cannes",
        "country": "France",
        "lat": "43.552847",
        "lng": "7.017369"
      },
      "finish": {
        "city": "Digne-les-Bains",
        "country": "France",
        "lat": "44.092193",
        "lng": "6.235976"
      },
      "length": 284
    },
    {
      "id": "E-1938-14",
      "year": 1938,
      "leg": "14",
      "leg_num": 19,
      "title": "Digne-les-Bains - Briançon",
      "start": {
        "city": "Digne-les-Bains",
        "country": "France",
        "lat": "44.092193",
        "lng": "6.235976"
      },
      "finish": {
        "city": "Briançon",
        "country": "France",
        "lat": "44.899416",
        "lng": "6.643179"
      },
      "length": 219
    },
    {
      "id": "E-1938-15",
      "year": 1938,
      "leg": "15",
      "leg_num": 20,
      "title": "Briançon - Aix-les-Bains",
      "start": {
        "city": "Briançon",
        "country": "France",
        "lat": "44.899416",
        "lng": "6.643179"
      },
      "finish": {
        "city": "Aix-les-Bains",
        "country": "France",
        "lat": "45.692341",
        "lng": "5.908998"
      },
      "length": 311
    },
    {
      "id": "E-1938-16",
      "year": 1938,
      "leg": "16",
      "leg_num": 21,
      "title": "Aix-les-Bains - Besançon",
      "start": {
        "city": "Aix-les-Bains",
        "country": "France",
        "lat": "45.692341",
        "lng": "5.908998"
      },
      "finish": {
        "city": "Besançon",
        "country": "France",
        "lat": "47.237829",
        "lng": "6.024054"
      },
      "length": 284
    },
    {
      "id": "E-1938-17a",
      "year": 1938,
      "leg": "17a",
      "leg_num": 22,
      "title": "Besançon - Belfort",
      "start": {
        "city": "Besançon",
        "country": "France",
        "lat": "47.237829",
        "lng": "6.024054"
      },
      "finish": {
        "city": "Belfort",
        "country": "France",
        "lat": "47.639674",
        "lng": "6.863849"
      },
      "length": 89
    },
    {
      "id": "E-1938-17b",
      "year": 1938,
      "leg": "17b",
      "leg_num": 23,
      "title": "Belfort - Strasbourg",
      "start": {
        "city": "Belfort",
        "country": "France",
        "lat": "47.639674",
        "lng": "6.863849"
      },
      "finish": {
        "city": "Strasbourg",
        "country": "France",
        "lat": "48.583148",
        "lng": "7.747882"
      },
      "length": 143
    },
    {
      "id": "E-1938-18",
      "year": 1938,
      "leg": "18",
      "leg_num": 24,
      "title": "Strasbourg - Metz",
      "start": {
        "city": "Strasbourg",
        "country": "France",
        "lat": "48.583148",
        "lng": "7.747882"
      },
      "finish": {
        "city": "Metz",
        "country": "France",
        "lat": "49.119666",
        "lng": "6.176905"
      },
      "length": 104
    },
    {
      "id": "E-1938-19",
      "year": 1938,
      "leg": "19",
      "leg_num": 25,
      "title": "Metz - Reims",
      "start": {
        "city": "Metz",
        "country": "France",
        "lat": "49.119666",
        "lng": "6.176905"
      },
      "finish": {
        "city": "Reims",
        "country": "France",
        "lat": "49.258329",
        "lng": "4.031696"
      },
      "length": 196
    },
    {
      "id": "E-1938-20a",
      "year": 1938,
      "leg": "20a",
      "leg_num": 26,
      "title": "Reims - Laon",
      "start": {
        "city": "Reims",
        "country": "France",
        "lat": "49.258329",
        "lng": "4.031696"
      },
      "finish": {
        "city": "Laon",
        "country": "France",
        "lat": "49.564133",
        "lng": "3.61989"
      },
      "length": 48
    },
    {
      "id": "E-1938-20b",
      "year": 1938,
      "leg": "20b",
      "leg_num": 27,
      "title": "Laon - Saint-Quentin",
      "start": {
        "city": "Laon",
        "country": "France",
        "lat": "49.564133",
        "lng": "3.61989"
      },
      "finish": {
        "city": "Saint-Quentin",
        "country": "France",
        "lat": "49.847066",
        "lng": "3.2874"
      },
      "length": 42
    },
    {
      "id": "E-1938-20c",
      "year": 1938,
      "leg": "20c",
      "leg_num": 28,
      "title": "Saint-Quentin - Lille",
      "start": {
        "city": "Saint-Quentin",
        "country": "France",
        "lat": "49.847066",
        "lng": "3.2874"
      },
      "finish": {
        "city": "Lille",
        "country": "France",
        "lat": "50.62925",
        "lng": "3.057256"
      },
      "length": 107
    },
    {
      "id": "E-1938-21",
      "year": 1938,
      "leg": "21",
      "leg_num": 29,
      "title": "Lille - Paris",
      "start": {
        "city": "Lille",
        "country": "France",
        "lat": "50.62925",
        "lng": "3.057256"
      },
      "finish": {
        "city": "Paris",
        "country": "France",
        "lat": "48.856614",
        "lng": "2.352222"
      },
      "length": 279
    }
  ]
}