{
  "year": 1947,
  "edition": 34,
  "total_length": 4642,
  "nb_legs": 21,
  "has_prologue": false,
  "nb_concurrents": 100,
  "nb_finishers": 53,
  "pct_finishers": 53,
  "winner_first_name": "Jean",
  "winner_last_name": "Robic",
  "winner_id": "jean-robic",
  "winner_total_time": "148h 11' 25\"",
  "winner_age": "26",
  "winner_country": "France",
  "winner_avg_speed": "31,412",
  "ahead_of_2nd": "0h 03' 58\" ",
  "second_name": "E. Fachleitner",
  "second_country": "France",
  "second_id": null,
  "ahead_of_3rd": "0h 10' 07\"",
  "third_name": "P. Brambilla",
  "third_country": "Italie",
  "third_id": null,
  "legs": [
    {
      "id": "E-1947-01",
      "year": 1947,
      "leg": "1",
      "leg_num": 0,
      "title": "Paris",
      "start": {
        "city": "France",
        "country": "48.856614,2.352222",
        "lat": "Lille",
        "lng": null
      },
      "finish": {
        "city": "France",
        "country": "50.62925,3.057256",
        "lat": "236",
        "lng": null
      },
      "length": 0
    },
    {
      "id": "E-1947-02",
      "year": 1947,
      "leg": "2",
      "leg_num": 0,
      "title": "Lille",
      "start": {
        "city": "France",
        "country": "50.62925,3.057256",
        "lat": "Bruxelles",
        "lng": null
      },
      "finish": {
        "city": "Belgique",
        "country": "50.85034,4.35171",
        "lat": "182",
        "lng": null
      },
      "length": 0
    },
    {
      "id": "E-1947-03",
      "year": 1947,
      "leg": "3",
      "leg_num": 0,
      "title": "Bruxelles",
      "start": {
        "city": "Belgique",
        "country": "50.85034,4.35171",
        "lat": "Luxembourg",
        "lng": null
      },
      "finish": {
        "city": "Luxembourg",
        "country": "49.61162,6.13193",
        "lat": "314",
        "lng": null
      },
      "length": 0
    },
    {
      "id": "E-1947-04",
      "year": 1947,
      "leg": "4",
      "leg_num": 0,
      "title": "Luxembourg",
      "start": {
        "city": "Luxembourg",
        "country": "49.61162,6.13193",
        "lat": "Strasbourg",
        "lng": null
      },
      "finish": {
        "city": "France",
        "country": "48.583148,7.747882",
        "lat": "223",
        "lng": null
      },
      "length": 0
    },
    {
      "id": "E-1947-05",
      "year": 1947,
      "leg": "5",
      "leg_num": 0,
      "title": "Strasbourg",
      "start": {
        "city": "France",
        "country": "48.583148,7.747882",
        "lat": "Besançon",
        "lng": null
      },
      "finish": {
        "city": "France",
        "country": "47.237829,6.024054",
        "lat": "248",
        "lng": null
      },
      "length": 0
    },
    {
      "id": "E-1947-06",
      "year": 1947,
      "leg": "6",
      "leg_num": 0,
      "title": "Besançon",
      "start": {
        "city": "France",
        "country": "47.237829,6.024054",
        "lat": "Lyon",
        "lng": null
      },
      "finish": {
        "city": "France",
        "country": "45.764043,4.835659",
        "lat": "249",
        "lng": null
      },
      "length": 0
    },
    {
      "id": "E-1947-07",
      "year": 1947,
      "leg": "7",
      "leg_num": 0,
      "title": "Lyon",
      "start": {
        "city": "France",
        "country": "45.764043,4.835659",
        "lat": "Grenoble",
        "lng": null
      },
      "finish": {
        "city": "France",
        "country": "45.188529,5.724524",
        "lat": "172",
        "lng": null
      },
      "length": 0
    },
    {
      "id": "E-1947-08",
      "year": 1947,
      "leg": "8",
      "leg_num": 0,
      "title": "Grenoble",
      "start": {
        "city": "France",
        "country": "45.188529,5.724524",
        "lat": "Briançon",
        "lng": null
      },
      "finish": {
        "city": "France",
        "country": "44.899416,6.643179",
        "lat": "185",
        "lng": null
      },
      "length": 0
    },
    {
      "id": "E-1947-09",
      "year": 1947,
      "leg": "9",
      "leg_num": 0,
      "title": "Briançon",
      "start": {
        "city": "France",
        "country": "44.899416,6.643179",
        "lat": "Digne-les-Bains",
        "lng": null
      },
      "finish": {
        "city": "France",
        "country": "44.092193,6.235976",
        "lat": "217",
        "lng": null
      },
      "length": 0
    },
    {
      "id": "E-1947-10",
      "year": 1947,
      "leg": "10",
      "leg_num": 0,
      "title": "Digne-les-Bains",
      "start": {
        "city": "France",
        "country": "44.092193,6.235976",
        "lat": "Nice",
        "lng": null
      },
      "finish": {
        "city": "France",
        "country": "43.696036,7.265592",
        "lat": "255",
        "lng": null
      },
      "length": 0
    },
    {
      "id": "E-1947-11",
      "year": 1947,
      "leg": "11",
      "leg_num": 0,
      "title": "Nice",
      "start": {
        "city": "France",
        "country": "43.696036,7.265592",
        "lat": "Marseille",
        "lng": null
      },
      "finish": {
        "city": "France",
        "country": "43.296482,5.36978",
        "lat": "230",
        "lng": null
      },
      "length": 0
    },
    {
      "id": "E-1947-12",
      "year": 1947,
      "leg": "12",
      "leg_num": 0,
      "title": "Marseille",
      "start": {
        "city": "France",
        "country": "43.296482,5.36978",
        "lat": "Montpellier",
        "lng": null
      },
      "finish": {
        "city": "France",
        "country": "43.610769,3.876716",
        "lat": "165",
        "lng": null
      },
      "length": 0
    },
    {
      "id": "E-1947-13",
      "year": 1947,
      "leg": "13",
      "leg_num": 0,
      "title": "Montpellier",
      "start": {
        "city": "France",
        "country": "43.610769,3.876716",
        "lat": "Carcassonne",
        "lng": null
      },
      "finish": {
        "city": "France",
        "country": "43.212161,2.353663",
        "lat": "172",
        "lng": null
      },
      "length": 0
    },
    {
      "id": "E-1947-14",
      "year": 1947,
      "leg": "14",
      "leg_num": 0,
      "title": "Carcassonne",
      "start": {
        "city": "France",
        "country": "43.212161,2.353663",
        "lat": "Luchon",
        "lng": null
      },
      "finish": {
        "city": "France",
        "country": "42.788963,0.592943",
        "lat": "253",
        "lng": null
      },
      "length": 0
    },
    {
      "id": "E-1947-15",
      "year": 1947,
      "leg": "15",
      "leg_num": 0,
      "title": "Luchon",
      "start": {
        "city": "France",
        "country": "42.788963,0.592943",
        "lat": "Pau",
        "lng": null
      },
      "finish": {
        "city": "France",
        "country": "43.2951,-0.370797",
        "lat": "195",
        "lng": null
      },
      "length": 0
    },
    {
      "id": "E-1947-16",
      "year": 1947,
      "leg": "16",
      "leg_num": 0,
      "title": "Pau",
      "start": {
        "city": "France",
        "country": "43.2951,-0.370797",
        "lat": "Bordeaux",
        "lng": null
      },
      "finish": {
        "city": "France",
        "country": "44.837789,-0.57918",
        "lat": "195",
        "lng": null
      },
      "length": 0
    },
    {
      "id": "E-1947-17",
      "year": 1947,
      "leg": "17",
      "leg_num": 0,
      "title": "Bordeaux",
      "start": {
        "city": "France",
        "country": "44.837789,-0.57918",
        "lat": "Les Sables-d'Olonne",
        "lng": null
      },
      "finish": {
        "city": "France",
        "country": "46.492958,-1.795493",
        "lat": "272",
        "lng": null
      },
      "length": 0
    },
    {
      "id": "E-1947-18",
      "year": 1947,
      "leg": "18",
      "leg_num": 0,
      "title": "Les Sables-d'Olonne",
      "start": {
        "city": "France",
        "country": "46.492958,-1.795493",
        "lat": "Vannes",
        "lng": null
      },
      "finish": {
        "city": "France",
        "country": "47.658236,-2.760847",
        "lat": "236",
        "lng": null
      },
      "length": 0
    },
    {
      "id": "E-1947-19",
      "year": 1947,
      "leg": "19",
      "leg_num": 0,
      "title": "Vannes",
      "start": {
        "city": "France",
        "country": "47.658236,-2.760847",
        "lat": "Saint-Brieuc",
        "lng": null
      },
      "finish": {
        "city": "France",
        "country": "48.51418,-2.765835",
        "lat": "139",
        "lng": null
      },
      "length": 0
    },
    {
      "id": "E-1947-20",
      "year": 1947,
      "leg": "20",
      "leg_num": 0,
      "title": "Saint-Brieuc",
      "start": {
        "city": "France",
        "country": "48.51418,-2.765835",
        "lat": "Caen",
        "lng": null
      },
      "finish": {
        "city": "France",
        "country": "49.182863,-0.370679",
        "lat": "235",
        "lng": null
      },
      "length": 0
    },
    {
      "id": "E-1947-21",
      "year": 1947,
      "leg": "21",
      "leg_num": 0,
      "title": "Caen",
      "start": {
        "city": "France",
        "country": "49.182863,-0.370679",
        "lat": "Paris",
        "lng": null
      },
      "finish": {
        "city": "France",
        "country": "48.856614,2.352222",
        "lat": "257",
        "lng": null
      },
      "length": 0
    }
  ]
}