{
  "year": 1949,
  "edition": 36,
  "total_length": 4808,
  "nb_legs": 21,
  "has_prologue": false,
  "nb_concurrents": 120,
  "nb_finishers": 55,
  "pct_finishers": 46,
  "winner_first_name": "Fausto",
  "winner_last_name": "Coppi",
  "winner_id": "fausto-coppi",
  "winner_total_time": "149h 40' 49\"",
  "winner_age": "29",
  "winner_country": "Italie",
  "winner_avg_speed": "32,121",
  "ahead_of_2nd": "0h 10' 55\" ",
  "second_name": "G. Bartali",
  "second_country": "Italie",
  "second_id": "gino-bartali",
  "ahead_of_3rd": "0h 25' 13\"",
  "third_name": "J. Marinelli",
  "third_country": "France",
  "third_id": null,
  "legs": [
    {
      "id": "E-1949-01",
      "year": 1949,
      "leg": "1",
      "leg_num": 0,
      "title": "Paris",
      "start": {
        "city": "France",
        "country": "48.856614,2.352222",
        "lat": "Reims",
        "lng": null
      },
      "finish": {
        "city": "France",
        "country": "49.258329,4.031696",
        "lat": "182",
        "lng": null
      },
      "length": 0
    },
    {
      "id": "E-1949-02",
      "year": 1949,
      "leg": "2",
      "leg_num": 0,
      "title": "Reims",
      "start": {
        "city": "France",
        "country": "49.258329,4.031696",
        "lat": "Bruxelles",
        "lng": null
      },
      "finish": {
        "city": "Belgique",
        "country": "50.85034,4.35171",
        "lat": "273",
        "lng": null
      },
      "length": 0
    },
    {
      "id": "E-1949-03",
      "year": 1949,
      "leg": "3",
      "leg_num": 0,
      "title": "Bruxelles",
      "start": {
        "city": "Belgique",
        "country": "50.85034,4.35171",
        "lat": "Boulogne-sur-Mer",
        "lng": null
      },
      "finish": {
        "city": "France",
        "country": "50.725231,1.613334",
        "lat": "211",
        "lng": null
      },
      "length": 0
    },
    {
      "id": "E-1949-04",
      "year": 1949,
      "leg": "4",
      "leg_num": 0,
      "title": "Boulogne-sur-Mer",
      "start": {
        "city": "France",
        "country": "50.725231,1.613334",
        "lat": "Rouen",
        "lng": null
      },
      "finish": {
        "city": "France",
        "country": "49.443232,1.099971",
        "lat": "185",
        "lng": null
      },
      "length": 0
    },
    {
      "id": "E-1949-05",
      "year": 1949,
      "leg": "5",
      "leg_num": 0,
      "title": "Rouen",
      "start": {
        "city": "France",
        "country": "49.443232,1.099971",
        "lat": "Saint-Malo",
        "lng": null
      },
      "finish": {
        "city": "France",
        "country": "48.649337,-2.025674",
        "lat": "293",
        "lng": null
      },
      "length": 0
    },
    {
      "id": "E-1949-06",
      "year": 1949,
      "leg": "6",
      "leg_num": 0,
      "title": "Saint-Malo",
      "start": {
        "city": "France",
        "country": "48.649337,-2.025674",
        "lat": "Les Sables-d'Olonne",
        "lng": null
      },
      "finish": {
        "city": "France",
        "country": "46.492958,-1.795493",
        "lat": "305",
        "lng": null
      },
      "length": 0
    },
    {
      "id": "E-1949-07",
      "year": 1949,
      "leg": "7",
      "leg_num": 0,
      "title": "Les Sables-d'Olonne",
      "start": {
        "city": "France",
        "country": "46.492958,-1.795493",
        "lat": "La Rochelle",
        "lng": null
      },
      "finish": {
        "city": "France",
        "country": "46.160329,-1.151139",
        "lat": "92",
        "lng": null
      },
      "length": 0
    },
    {
      "id": "E-1949-08",
      "year": 1949,
      "leg": "8",
      "leg_num": 0,
      "title": "La Rochelle",
      "start": {
        "city": "France",
        "country": "46.160329,-1.151139",
        "lat": "Bordeaux",
        "lng": null
      },
      "finish": {
        "city": "France",
        "country": "44.837789,-0.57918",
        "lat": "262",
        "lng": null
      },
      "length": 0
    },
    {
      "id": "E-1949-09",
      "year": 1949,
      "leg": "9",
      "leg_num": 0,
      "title": "Bordeaux",
      "start": {
        "city": "France",
        "country": "44.837789,-0.57918",
        "lat": "Saint-Sébastien",
        "lng": null
      },
      "finish": {
        "city": "Espagne",
        "country": "43.321662,-1.984993",
        "lat": "228",
        "lng": null
      },
      "length": 0
    },
    {
      "id": "E-1949-10",
      "year": 1949,
      "leg": "10",
      "leg_num": 0,
      "title": "Saint-Sébastien",
      "start": {
        "city": "Espagne",
        "country": "43.321662,-1.984993",
        "lat": "Pau",
        "lng": null
      },
      "finish": {
        "city": "France",
        "country": "43.2951,-0.370797",
        "lat": "192",
        "lng": null
      },
      "length": 0
    },
    {
      "id": "E-1949-11",
      "year": 1949,
      "leg": "11",
      "leg_num": 0,
      "title": "Pau",
      "start": {
        "city": "France",
        "country": "43.2951,-0.370797",
        "lat": "Luchon",
        "lng": null
      },
      "finish": {
        "city": "France",
        "country": "42.788963,0.592943",
        "lat": "193",
        "lng": null
      },
      "length": 0
    },
    {
      "id": "E-1949-12",
      "year": 1949,
      "leg": "12",
      "leg_num": 0,
      "title": "Luchon",
      "start": {
        "city": "France",
        "country": "42.788963,0.592943",
        "lat": "Toulouse",
        "lng": null
      },
      "finish": {
        "city": "France",
        "country": "43.604652,1.444209",
        "lat": "134",
        "lng": null
      },
      "length": 0
    },
    {
      "id": "E-1949-13",
      "year": 1949,
      "leg": "13",
      "leg_num": 0,
      "title": "Toulouse",
      "start": {
        "city": "France",
        "country": "43.604652,1.444209",
        "lat": "Nîmes",
        "lng": null
      },
      "finish": {
        "city": "France",
        "country": "43.836699,4.360054",
        "lat": "289",
        "lng": null
      },
      "length": 0
    },
    {
      "id": "E-1949-14",
      "year": 1949,
      "leg": "14",
      "leg_num": 0,
      "title": "Nîmes",
      "start": {
        "city": "France",
        "country": "43.836699,4.360054",
        "lat": "Marseille",
        "lng": null
      },
      "finish": {
        "city": "France",
        "country": "43.296482,5.36978",
        "lat": "199",
        "lng": null
      },
      "length": 0
    },
    {
      "id": "E-1949-15",
      "year": 1949,
      "leg": "15",
      "leg_num": 0,
      "title": "Marseille",
      "start": {
        "city": "France",
        "country": "43.296482,5.36978",
        "lat": "Cannes",
        "lng": null
      },
      "finish": {
        "city": "France",
        "country": "43.552847,7.017369",
        "lat": "215",
        "lng": null
      },
      "length": 0
    },
    {
      "id": "E-1949-16",
      "year": 1949,
      "leg": "16",
      "leg_num": 0,
      "title": "Cannes",
      "start": {
        "city": "France",
        "country": "43.552847,7.017369",
        "lat": "Briançon",
        "lng": null
      },
      "finish": {
        "city": "France",
        "country": "44.899416,6.643179",
        "lat": "275",
        "lng": null
      },
      "length": 0
    },
    {
      "id": "E-1949-17",
      "year": 1949,
      "leg": "17",
      "leg_num": 0,
      "title": "Briançon",
      "start": {
        "city": "France",
        "country": "44.899416,6.643179",
        "lat": "Aoste",
        "lng": null
      },
      "finish": {
        "city": "Italie",
        "country": "45.73279,7.32101",
        "lat": "257",
        "lng": null
      },
      "length": 0
    },
    {
      "id": "E-1949-18",
      "year": 1949,
      "leg": "18",
      "leg_num": 0,
      "title": "Aoste",
      "start": {
        "city": "Italie",
        "country": "45.73279,7.32101",
        "lat": "Lausanne",
        "lng": null
      },
      "finish": {
        "city": "Suisse",
        "country": "46.519962,6.633597",
        "lat": "265",
        "lng": null
      },
      "length": 0
    },
    {
      "id": "E-1949-19",
      "year": 1949,
      "leg": "19",
      "leg_num": 0,
      "title": "Lausanne",
      "start": {
        "city": "Suisse",
        "country": "46.519962,6.633597",
        "lat": "Colmar",
        "lng": null
      },
      "finish": {
        "city": "France",
        "country": "48.079359,7.358512",
        "lat": "283",
        "lng": null
      },
      "length": 0
    },
    {
      "id": "E-1949-20",
      "year": 1949,
      "leg": "20",
      "leg_num": 0,
      "title": "Colmar",
      "start": {
        "city": "France",
        "country": "48.079359,7.358512",
        "lat": "Nancy",
        "lng": null
      },
      "finish": {
        "city": "France",
        "country": "48.692054,6.184417",
        "lat": "137",
        "lng": null
      },
      "length": 0
    },
    {
      "id": "E-1949-21",
      "year": 1949,
      "leg": "21",
      "leg_num": 0,
      "title": "Nancy",
      "start": {
        "city": "France",
        "country": "48.692054,6.184417",
        "lat": "Paris",
        "lng": null
      },
      "finish": {
        "city": "France",
        "country": "48.856614,2.352222",
        "lat": "340",
        "lng": null
      },
      "length": 0
    }
  ]
}