{
  "year": 1950,
  "edition": 37,
  "total_length": 4773,
  "nb_legs": 22,
  "has_prologue": false,
  "nb_concurrents": 116,
  "nb_finishers": 51,
  "pct_finishers": 44,
  "winner_first_name": "Ferdi",
  "winner_last_name": "Kübler",
  "winner_id": "ferdi-kubler",
  "winner_total_time": "145h 36' 46\"",
  "winner_age": "31",
  "winner_country": "Suisse",
  "winner_avg_speed": "32,778",
  "ahead_of_2nd": "0h 09' 30\" ",
  "second_name": "S. Ockers",
  "second_country": "Belgique",
  "second_id": null,
  "ahead_of_3rd": "0h 22' 19\"",
  "third_name": "L. Bobet",
  "third_country": "France",
  "third_id": "louison-bobet",
  "legs": [
    {
      "id": "E-1950-01",
      "year": 1950,
      "leg": "1",
      "leg_num": 0,
      "title": "Paris",
      "start": {
        "city": "France",
        "country": "48.856614,2.352222",
        "lat": "Metz",
        "lng": null
      },
      "finish": {
        "city": "France",
        "country": "49.119666,6.176905",
        "lat": "307",
        "lng": null
      },
      "length": 0
    },
    {
      "id": "E-1950-02",
      "year": 1950,
      "leg": "2",
      "leg_num": 0,
      "title": "Metz",
      "start": {
        "city": "France",
        "country": "49.119666,6.176905",
        "lat": "Liège",
        "lng": null
      },
      "finish": {
        "city": "Belgique",
        "country": "50.632557,5.579666",
        "lat": "241",
        "lng": null
      },
      "length": 0
    },
    {
      "id": "E-1950-03",
      "year": 1950,
      "leg": "3",
      "leg_num": 0,
      "title": "Liège",
      "start": {
        "city": "Belgique",
        "country": "50.632557,5.579666",
        "lat": "Lille",
        "lng": null
      },
      "finish": {
        "city": "France",
        "country": "50.62925,3.057256",
        "lat": "232",
        "lng": null
      },
      "length": 0
    },
    {
      "id": "E-1950-04",
      "year": 1950,
      "leg": "4",
      "leg_num": 0,
      "title": "Lille",
      "start": {
        "city": "France",
        "country": "50.62925,3.057256",
        "lat": "Rouen",
        "lng": null
      },
      "finish": {
        "city": "France",
        "country": "49.443232,1.099971",
        "lat": "231",
        "lng": null
      },
      "length": 0
    },
    {
      "id": "E-1950-05",
      "year": 1950,
      "leg": "5",
      "leg_num": 0,
      "title": "Rouen",
      "start": {
        "city": "France",
        "country": "49.443232,1.099971",
        "lat": "Dinard",
        "lng": null
      },
      "finish": {
        "city": "France",
        "country": "48.633024,-2.055125",
        "lat": "316",
        "lng": null
      },
      "length": 0
    },
    {
      "id": "E-1950-06",
      "year": 1950,
      "leg": "6",
      "leg_num": 0,
      "title": "Dinard",
      "start": {
        "city": "France",
        "country": "48.633024,-2.055125",
        "lat": "Saint-Brieuc",
        "lng": null
      },
      "finish": {
        "city": "France",
        "country": "48.51418,-2.765835",
        "lat": "78",
        "lng": null
      },
      "length": 0
    },
    {
      "id": "E-1950-07",
      "year": 1950,
      "leg": "7",
      "leg_num": 0,
      "title": "Saint-Brieuc",
      "start": {
        "city": "France",
        "country": "48.51418,-2.765835",
        "lat": "Angers",
        "lng": null
      },
      "finish": {
        "city": "France",
        "country": "47.478419,-0.563166",
        "lat": "248",
        "lng": null
      },
      "length": 0
    },
    {
      "id": "E-1950-08",
      "year": 1950,
      "leg": "8",
      "leg_num": 0,
      "title": "Angers",
      "start": {
        "city": "France",
        "country": "47.478419,-0.563166",
        "lat": "Niort",
        "lng": null
      },
      "finish": {
        "city": "France",
        "country": "46.323716,-0.464777",
        "lat": "181",
        "lng": null
      },
      "length": 0
    },
    {
      "id": "E-1950-09",
      "year": 1950,
      "leg": "9",
      "leg_num": 0,
      "title": "Niort",
      "start": {
        "city": "France",
        "country": "46.323716,-0.464777",
        "lat": "Bordeaux",
        "lng": null
      },
      "finish": {
        "city": "France",
        "country": "44.837789,-0.57918",
        "lat": "206",
        "lng": null
      },
      "length": 0
    },
    {
      "id": "E-1950-10",
      "year": 1950,
      "leg": "10",
      "leg_num": 0,
      "title": "Bordeaux",
      "start": {
        "city": "France",
        "country": "44.837789,-0.57918",
        "lat": "Pau",
        "lng": null
      },
      "finish": {
        "city": "France",
        "country": "43.2951,-0.370797",
        "lat": "202",
        "lng": null
      },
      "length": 0
    },
    {
      "id": "E-1950-11",
      "year": 1950,
      "leg": "11",
      "leg_num": 0,
      "title": "Pau",
      "start": {
        "city": "France",
        "country": "43.2951,-0.370797",
        "lat": "Saint-Gaudens",
        "lng": null
      },
      "finish": {
        "city": "France",
        "country": "43.106895,0.723763",
        "lat": "230",
        "lng": null
      },
      "length": 0
    },
    {
      "id": "E-1950-12",
      "year": 1950,
      "leg": "12",
      "leg_num": 0,
      "title": "Saint-Gaudens",
      "start": {
        "city": "France",
        "country": "43.106895,0.723763",
        "lat": "Perpignan",
        "lng": null
      },
      "finish": {
        "city": "France",
        "country": "42.698684,2.895872",
        "lat": "233",
        "lng": null
      },
      "length": 0
    },
    {
      "id": "E-1950-13",
      "year": 1950,
      "leg": "13",
      "leg_num": 0,
      "title": "Perpignan",
      "start": {
        "city": "France",
        "country": "42.698684,2.895872",
        "lat": "Nîmes",
        "lng": null
      },
      "finish": {
        "city": "France",
        "country": "43.836699,4.360054",
        "lat": "215",
        "lng": null
      },
      "length": 0
    },
    {
      "id": "E-1950-14",
      "year": 1950,
      "leg": "14",
      "leg_num": 0,
      "title": "Nîmes",
      "start": {
        "city": "France",
        "country": "43.836699,4.360054",
        "lat": "Toulon",
        "lng": null
      },
      "finish": {
        "city": "France",
        "country": "43.124228,5.928",
        "lat": "222",
        "lng": null
      },
      "length": 0
    },
    {
      "id": "E-1950-15",
      "year": 1950,
      "leg": "15",
      "leg_num": 0,
      "title": "Toulon",
      "start": {
        "city": "France",
        "country": "43.124228,5.928",
        "lat": "Menton",
        "lng": null
      },
      "finish": {
        "city": "France",
        "country": "43.774481,7.49754",
        "lat": "206",
        "lng": null
      },
      "length": 0
    },
    {
      "id": "E-1950-16",
      "year": 1950,
      "leg": "16",
      "leg_num": 0,
      "title": "Menton",
      "start": {
        "city": "France",
        "country": "43.774481,7.49754",
        "lat": "Nice",
        "lng": null
      },
      "finish": {
        "city": "France",
        "country": "43.696036,7.265592",
        "lat": "96",
        "lng": null
      },
      "length": 0
    },
    {
      "id": "E-1950-17",
      "year": 1950,
      "leg": "17",
      "leg_num": 0,
      "title": "Nice",
      "start": {
        "city": "France",
        "country": "43.696036,7.265592",
        "lat": "Gap",
        "lng": null
      },
      "finish": {
        "city": "France",
        "country": "44.559638,6.079758",
        "lat": "229",
        "lng": null
      },
      "length": 0
    },
    {
      "id": "E-1950-18",
      "year": 1950,
      "leg": "18",
      "leg_num": 0,
      "title": "Gap",
      "start": {
        "city": "France",
        "country": "44.559638,6.079758",
        "lat": "Briançon",
        "lng": null
      },
      "finish": {
        "city": "France",
        "country": "44.899416,6.643179",
        "lat": "165",
        "lng": null
      },
      "length": 0
    },
    {
      "id": "E-1950-19",
      "year": 1950,
      "leg": "19",
      "leg_num": 0,
      "title": "Briançon",
      "start": {
        "city": "France",
        "country": "44.899416,6.643179",
        "lat": "Saint-Étienne",
        "lng": null
      },
      "finish": {
        "city": "France",
        "country": "45.439695,4.387178",
        "lat": "291",
        "lng": null
      },
      "length": 0
    },
    {
      "id": "E-1950-20",
      "year": 1950,
      "leg": "20",
      "leg_num": 0,
      "title": "Saint-Étienne",
      "start": {
        "city": "France",
        "country": "45.439695,4.387178",
        "lat": "Lyon",
        "lng": null
      },
      "finish": {
        "city": "France",
        "country": "45.764043,4.835659",
        "lat": "98",
        "lng": null
      },
      "length": 0
    },
    {
      "id": "E-1950-21",
      "year": 1950,
      "leg": "21",
      "leg_num": 0,
      "title": "Lyon",
      "start": {
        "city": "France",
        "country": "45.764043,4.835659",
        "lat": "Dijon",
        "lng": null
      },
      "finish": {
        "city": "France",
        "country": "47.322047,5.04148",
        "lat": "233",
        "lng": null
      },
      "length": 0
    },
    {
      "id": "E-1950-22",
      "year": 1950,
      "leg": "22",
      "leg_num": 0,
      "title": "Dijon",
      "start": {
        "city": "France",
        "country": "47.322047,5.04148",
        "lat": "Paris",
        "lng": null
      },
      "finish": {
        "city": "France",
        "country": "48.856614,2.352222",
        "lat": "314",
        "lng": null
      },
      "length": 0
    }
  ]
}