{
  "year": 1951,
  "edition": 38,
  "total_length": 4690,
  "nb_legs": 24,
  "has_prologue": false,
  "nb_concurrents": 123,
  "nb_finishers": 66,
  "pct_finishers": 54,
  "winner_first_name": "Hugo",
  "winner_last_name": "Koblet",
  "winner_id": "hugo-koblet",
  "winner_total_time": "142h 20' 14\"",
  "winner_age": "26",
  "winner_country": "Suisse",
  "winner_avg_speed": "32,949",
  "ahead_of_2nd": "0h 22' 00\" ",
  "second_name": "R. Geminiani",
  "second_country": "France",
  "second_id": null,
  "ahead_of_3rd": "0h 24' 16\"",
  "third_name": "L. Lazarides",
  "third_country": "France",
  "third_id": null,
  "legs": [
    {
      "id": "E-1951-01",
      "year": 1951,
      "leg": "1",
      "leg_num": 0,
      "title": "Metz",
      "start": {
        "city": "France",
        "country": "49.119666,6.176905",
        "lat": "Reims",
        "lng": null
      },
      "finish": {
        "city": "France",
        "country": "49.258329,4.031696",
        "lat": "185",
        "lng": null
      },
      "length": 0
    },
    {
      "id": "E-1951-02",
      "year": 1951,
      "leg": "2",
      "leg_num": 0,
      "title": "Reims",
      "start": {
        "city": "France",
        "country": "49.258329,4.031696",
        "lat": "Gand",
        "lng": null
      },
      "finish": {
        "city": "Belgique",
        "country": "51.053468,3.73038",
        "lat": "228",
        "lng": null
      },
      "length": 0
    },
    {
      "id": "E-1951-03",
      "year": 1951,
      "leg": "3",
      "leg_num": 0,
      "title": "Gand",
      "start": {
        "city": "Belgique",
        "country": "51.053468,3.73038",
        "lat": "Le Tréport",
        "lng": null
      },
      "finish": {
        "city": "France",
        "country": "50.05917,1.382472",
        "lat": "219",
        "lng": null
      },
      "length": 0
    },
    {
      "id": "E-1951-04",
      "year": 1951,
      "leg": "4",
      "leg_num": 0,
      "title": "Le Tréport",
      "start": {
        "city": "France",
        "country": "50.05917,1.382472",
        "lat": "Paris",
        "lng": null
      },
      "finish": {
        "city": "France",
        "country": "48.856614,2.352222",
        "lat": "188",
        "lng": null
      },
      "length": 0
    },
    {
      "id": "E-1951-05",
      "year": 1951,
      "leg": "5",
      "leg_num": 0,
      "title": "Paris",
      "start": {
        "city": "France",
        "country": "48.856614,2.352222",
        "lat": "Caen",
        "lng": null
      },
      "finish": {
        "city": "France",
        "country": "49.182863,-0.370679",
        "lat": "215",
        "lng": null
      },
      "length": 0
    },
    {
      "id": "E-1951-06",
      "year": 1951,
      "leg": "6",
      "leg_num": 0,
      "title": "Caen",
      "start": {
        "city": "France",
        "country": "49.182863,-0.370679",
        "lat": "Rennes",
        "lng": null
      },
      "finish": {
        "city": "France",
        "country": "48.113475,-1.675708",
        "lat": "182",
        "lng": null
      },
      "length": 0
    },
    {
      "id": "E-1951-07",
      "year": 1951,
      "leg": "7",
      "leg_num": 0,
      "title": "La Guerche-de-Bretagne",
      "start": {
        "city": "France",
        "country": "47.941933,-1.230696",
        "lat": "Angers",
        "lng": null
      },
      "finish": {
        "city": "France",
        "country": "47.478419,-0.563166",
        "lat": "85",
        "lng": null
      },
      "length": 0
    },
    {
      "id": "E-1951-08",
      "year": 1951,
      "leg": "8",
      "leg_num": 0,
      "title": "Angers",
      "start": {
        "city": "France",
        "country": "47.478419,-0.563166",
        "lat": "Limoges",
        "lng": null
      },
      "finish": {
        "city": "France",
        "country": "45.833619,1.261105",
        "lat": "241",
        "lng": null
      },
      "length": 0
    },
    {
      "id": "E-1951-09",
      "year": 1951,
      "leg": "9",
      "leg_num": 0,
      "title": "Limoges",
      "start": {
        "city": "France",
        "country": "45.833619,1.261105",
        "lat": "Clermont-Ferrand",
        "lng": null
      },
      "finish": {
        "city": "France",
        "country": "45.777222,3.087025",
        "lat": "236",
        "lng": null
      },
      "length": 0
    },
    {
      "id": "E-1951-10",
      "year": 1951,
      "leg": "10",
      "leg_num": 0,
      "title": "Clermont-Ferrand",
      "start": {
        "city": "France",
        "country": "45.777222,3.087025",
        "lat": "Brive-la-Gaillarde",
        "lng": null
      },
      "finish": {
        "city": "France",
        "country": "45.159555,1.533937",
        "lat": "216",
        "lng": null
      },
      "length": 0
    },
    {
      "id": "E-1951-11",
      "year": 1951,
      "leg": "11",
      "leg_num": 0,
      "title": "Brive-la-Gaillarde",
      "start": {
        "city": "France",
        "country": "45.159555,1.533937",
        "lat": "Agen",
        "lng": null
      },
      "finish": {
        "city": "France",
        "country": "44.203142,0.616363",
        "lat": "177",
        "lng": null
      },
      "length": 0
    },
    {
      "id": "E-1951-12",
      "year": 1951,
      "leg": "12",
      "leg_num": 0,
      "title": "Agen",
      "start": {
        "city": "France",
        "country": "44.203142,0.616363",
        "lat": "Dax",
        "lng": null
      },
      "finish": {
        "city": "France",
        "country": "43.708608,-1.051945",
        "lat": "233",
        "lng": null
      },
      "length": 0
    },
    {
      "id": "E-1951-13",
      "year": 1951,
      "leg": "13",
      "leg_num": 0,
      "title": "Dax",
      "start": {
        "city": "France",
        "country": "43.708608,-1.051945",
        "lat": "Tarbes",
        "lng": null
      },
      "finish": {
        "city": "France",
        "country": "43.232951,0.078082",
        "lat": "201",
        "lng": null
      },
      "length": 0
    },
    {
      "id": "E-1951-14",
      "year": 1951,
      "leg": "14",
      "leg_num": 0,
      "title": "Tarbes",
      "start": {
        "city": "France",
        "country": "43.232951,0.078082",
        "lat": "Luchon",
        "lng": null
      },
      "finish": {
        "city": "France",
        "country": "42.788963,0.592943",
        "lat": "178",
        "lng": null
      },
      "length": 0
    },
    {
      "id": "E-1951-15",
      "year": 1951,
      "leg": "15",
      "leg_num": 0,
      "title": "Luchon",
      "start": {
        "city": "France",
        "country": "42.788963,0.592943",
        "lat": "Carcassonne",
        "lng": null
      },
      "finish": {
        "city": "France",
        "country": "43.212161,2.353663",
        "lat": "213",
        "lng": null
      },
      "length": 0
    },
    {
      "id": "E-1951-16",
      "year": 1951,
      "leg": "16",
      "leg_num": 0,
      "title": "Carcassonne",
      "start": {
        "city": "France",
        "country": "43.212161,2.353663",
        "lat": "Montpellier",
        "lng": null
      },
      "finish": {
        "city": "France",
        "country": "43.610769,3.876716",
        "lat": "192",
        "lng": null
      },
      "length": 0
    },
    {
      "id": "E-1951-17",
      "year": 1951,
      "leg": "17",
      "leg_num": 0,
      "title": "Montpellier",
      "start": {
        "city": "France",
        "country": "43.610769,3.876716",
        "lat": "Avignon",
        "lng": null
      },
      "finish": {
        "city": "France",
        "country": "43.949317,4.805528",
        "lat": "224",
        "lng": null
      },
      "length": 0
    },
    {
      "id": "E-1951-18",
      "year": 1951,
      "leg": "18",
      "leg_num": 0,
      "title": "Avignon",
      "start": {
        "city": "France",
        "country": "43.949317,4.805528",
        "lat": "Marseille",
        "lng": null
      },
      "finish": {
        "city": "France",
        "country": "43.296482,5.36978",
        "lat": "173",
        "lng": null
      },
      "length": 0
    },
    {
      "id": "E-1951-19",
      "year": 1951,
      "leg": "19",
      "leg_num": 0,
      "title": "Marseille",
      "start": {
        "city": "France",
        "country": "43.296482,5.36978",
        "lat": "Gap",
        "lng": null
      },
      "finish": {
        "city": "France",
        "country": "44.559638,6.079758",
        "lat": "208",
        "lng": null
      },
      "length": 0
    },
    {
      "id": "E-1951-20",
      "year": 1951,
      "leg": "20",
      "leg_num": 0,
      "title": "Gap",
      "start": {
        "city": "France",
        "country": "44.559638,6.079758",
        "lat": "Briançon",
        "lng": null
      },
      "finish": {
        "city": "France",
        "country": "44.899416,6.643179",
        "lat": "165",
        "lng": null
      },
      "length": 0
    },
    {
      "id": "E-1951-21",
      "year": 1951,
      "leg": "21",
      "leg_num": 0,
      "title": "Briançon",
      "start": {
        "city": "France",
        "country": "44.899416,6.643179",
        "lat": "Aix-les-Bains",
        "lng": null
      },
      "finish": {
        "city": "France",
        "country": "45.692341,5.908998",
        "lat": "201",
        "lng": null
      },
      "length": 0
    },
    {
      "id": "E-1951-22",
      "year": 1951,
      "leg": "22",
      "leg_num": 0,
      "title": "Aix-les-Bains",
      "start": {
        "city": "France",
        "country": "45.692341,5.908998",
        "lat": "Genève",
        "lng": null
      },
      "finish": {
        "city": "Suisse",
        "country": "46.198392,6.142296",
        "lat": "98",
        "lng": null
      },
      "length": 0
    },
    {
      "id": "E-1951-23",
      "year": 1951,
      "leg": "23",
      "leg_num": 0,
      "title": "Genève",
      "start": {
        "city": "Suisse",
        "country": "46.198392,6.142296",
        "lat": "Dijon",
        "lng": null
      },
      "finish": {
        "city": "France",
        "country": "47.322047,5.04148",
        "lat": "197",
        "lng": null
      },
      "length": 0
    },
    {
      "id": "E-1951-24",
      "year": 1951,
      "leg": "24",
      "leg_num": 0,
      "title": "Dijon",
      "start": {
        "city": "France",
        "country": "47.322047,5.04148",
        "lat": "Paris",
        "lng": null
      },
      "finish": {
        "city": "France",
        "country": "48.856614,2.352222",
        "lat": "354",
        "lng": null
      },
      "length": 0
    }
  ]
}