{
  "year": 1952,
  "edition": 39,
  "total_length": 4898,
  "nb_legs": 23,
  "has_prologue": false,
  "nb_concurrents": 122,
  "nb_finishers": 78,
  "pct_finishers": 64,
  "winner_first_name": "Fausto",
  "winner_last_name": "Coppi",
  "winner_id": "fausto-coppi",
  "winner_total_time": "151h 57' 20\"",
  "winner_age": "32",
  "winner_country": "Italie",
  "winner_avg_speed": "32,233",
  "ahead_of_2nd": "0h 28' 17\" ",
  "second_name": "S. Ockers",
  "second_country": "Belgique",
  "second_id": null,
  "ahead_of_3rd": "0h 34' 38\"",
  "third_name": "B. Ruiz",
  "third_country": "Espagne",
  "third_id": null,
  "legs": [
    {
      "id": "E-1952-01",
      "year": 1952,
      "leg": "1",
      "leg_num": 0,
      "title": "Brest",
      "start": {
        "city": "France",
        "country": "48.390394,-4.486076",
        "lat": "Rennes",
        "lng": null
      },
      "finish": {
        "city": "France",
        "country": "48.113475,-1.675708",
        "lat": "246",
        "lng": null
      },
      "length": 0
    },
    {
      "id": "E-1952-02",
      "year": 1952,
      "leg": "2",
      "leg_num": 0,
      "title": "Rennes",
      "start": {
        "city": "France",
        "country": "48.113475,-1.675708",
        "lat": "Le Mans",
        "lng": null
      },
      "finish": {
        "city": "France",
        "country": "48.00611,0.199556",
        "lat": "181",
        "lng": null
      },
      "length": 0
    },
    {
      "id": "E-1952-03",
      "year": 1952,
      "leg": "3",
      "leg_num": 0,
      "title": "Le Mans",
      "start": {
        "city": "France",
        "country": "48.00611,0.199556",
        "lat": "Rouen",
        "lng": null
      },
      "finish": {
        "city": "France",
        "country": "49.443232,1.099971",
        "lat": "189",
        "lng": null
      },
      "length": 0
    },
    {
      "id": "E-1952-04",
      "year": 1952,
      "leg": "4",
      "leg_num": 0,
      "title": "Rouen",
      "start": {
        "city": "France",
        "country": "49.443232,1.099971",
        "lat": "Roubaix",
        "lng": null
      },
      "finish": {
        "city": "France",
        "country": "50.692705,3.177847",
        "lat": "232",
        "lng": null
      },
      "length": 0
    },
    {
      "id": "E-1952-05",
      "year": 1952,
      "leg": "5",
      "leg_num": 0,
      "title": "Roubaix",
      "start": {
        "city": "France",
        "country": "50.692705,3.177847",
        "lat": "Namur",
        "lng": null
      },
      "finish": {
        "city": "Belgique",
        "country": "50.465328,4.867665",
        "lat": "197",
        "lng": null
      },
      "length": 0
    },
    {
      "id": "E-1952-06",
      "year": 1952,
      "leg": "6",
      "leg_num": 0,
      "title": "Namur",
      "start": {
        "city": "Belgique",
        "country": "50.465328,4.867665",
        "lat": "Metz",
        "lng": null
      },
      "finish": {
        "city": "France",
        "country": "49.119666,6.176905",
        "lat": "228",
        "lng": null
      },
      "length": 0
    },
    {
      "id": "E-1952-07",
      "year": 1952,
      "leg": "7",
      "leg_num": 0,
      "title": "Metz",
      "start": {
        "city": "France",
        "country": "49.119666,6.176905",
        "lat": "Nancy",
        "lng": null
      },
      "finish": {
        "city": "France",
        "country": "48.692054,6.184417",
        "lat": "60",
        "lng": null
      },
      "length": 0
    },
    {
      "id": "E-1952-08",
      "year": 1952,
      "leg": "8",
      "leg_num": 0,
      "title": "Nancy",
      "start": {
        "city": "France",
        "country": "48.692054,6.184417",
        "lat": "Mulhouse",
        "lng": null
      },
      "finish": {
        "city": "France",
        "country": "47.750839,7.335888",
        "lat": "252",
        "lng": null
      },
      "length": 0
    },
    {
      "id": "E-1952-09",
      "year": 1952,
      "leg": "9",
      "leg_num": 0,
      "title": "Mulhouse",
      "start": {
        "city": "France",
        "country": "47.750839,7.335888",
        "lat": "Lausanne",
        "lng": null
      },
      "finish": {
        "city": "Suisse",
        "country": "46.519962,6.633597",
        "lat": "238",
        "lng": null
      },
      "length": 0
    },
    {
      "id": "E-1952-10",
      "year": 1952,
      "leg": "10",
      "leg_num": 0,
      "title": "Lausanne",
      "start": {
        "city": "Suisse",
        "country": "46.519962,6.633597",
        "lat": "L'Alpe d'Huez",
        "lng": null
      },
      "finish": {
        "city": "France",
        "country": "45.092624,6.068348",
        "lat": "266",
        "lng": null
      },
      "length": 0
    },
    {
      "id": "E-1952-11",
      "year": 1952,
      "leg": "11",
      "leg_num": 0,
      "title": "Le Bourg-d'Oisans",
      "start": {
        "city": "France",
        "country": "45.051951,6.030064",
        "lat": "Sestrières",
        "lng": null
      },
      "finish": {
        "city": "Italie",
        "country": "44.9565,6.879234",
        "lat": "182",
        "lng": null
      },
      "length": 0
    },
    {
      "id": "E-1952-12",
      "year": 1952,
      "leg": "12",
      "leg_num": 0,
      "title": "Sestrières",
      "start": {
        "city": "Italie",
        "country": "44.9565,6.879234",
        "lat": "Monaco",
        "lng": null
      },
      "finish": {
        "city": "France",
        "country": "43.738418,7.424616",
        "lat": "251",
        "lng": null
      },
      "length": 0
    },
    {
      "id": "E-1952-13",
      "year": 1952,
      "leg": "13",
      "leg_num": 0,
      "title": "Monaco",
      "start": {
        "city": "France",
        "country": "43.738418,7.424616",
        "lat": "Aix-en-Provence",
        "lng": null
      },
      "finish": {
        "city": "France",
        "country": "43.529742,5.447427",
        "lat": "214",
        "lng": null
      },
      "length": 0
    },
    {
      "id": "E-1952-14",
      "year": 1952,
      "leg": "14",
      "leg_num": 0,
      "title": "Aix-en-Provence",
      "start": {
        "city": "France",
        "country": "43.529742,5.447427",
        "lat": "Avignon",
        "lng": null
      },
      "finish": {
        "city": "France",
        "country": "43.949317,4.805528",
        "lat": "178",
        "lng": null
      },
      "length": 0
    },
    {
      "id": "E-1952-15",
      "year": 1952,
      "leg": "15",
      "leg_num": 0,
      "title": "Avignon",
      "start": {
        "city": "France",
        "country": "43.949317,4.805528",
        "lat": "Perpignan",
        "lng": null
      },
      "finish": {
        "city": "France",
        "country": "42.698684,2.895872",
        "lat": "255",
        "lng": null
      },
      "length": 0
    },
    {
      "id": "E-1952-16",
      "year": 1952,
      "leg": "16",
      "leg_num": 0,
      "title": "Perpignan",
      "start": {
        "city": "France",
        "country": "42.698684,2.895872",
        "lat": "Toulouse",
        "lng": null
      },
      "finish": {
        "city": "France",
        "country": "43.604652,1.444209",
        "lat": "200",
        "lng": null
      },
      "length": 0
    },
    {
      "id": "E-1952-17",
      "year": 1952,
      "leg": "17",
      "leg_num": 0,
      "title": "Toulouse",
      "start": {
        "city": "France",
        "country": "43.604652,1.444209",
        "lat": "Bagnères-de-Bigorre",
        "lng": null
      },
      "finish": {
        "city": "France",
        "country": "43.065093,0.149105",
        "lat": "204",
        "lng": null
      },
      "length": 0
    },
    {
      "id": "E-1952-18",
      "year": 1952,
      "leg": "18",
      "leg_num": 0,
      "title": "Bagnères-de-Bigorre",
      "start": {
        "city": "France",
        "country": "43.065093,0.149105",
        "lat": "Pau",
        "lng": null
      },
      "finish": {
        "city": "France",
        "country": "43.2951,-0.370797",
        "lat": "149",
        "lng": null
      },
      "length": 0
    },
    {
      "id": "E-1952-19",
      "year": 1952,
      "leg": "19",
      "leg_num": 0,
      "title": "Pau",
      "start": {
        "city": "France",
        "country": "43.2951,-0.370797",
        "lat": "Bordeaux",
        "lng": null
      },
      "finish": {
        "city": "France",
        "country": "44.837789,-0.57918",
        "lat": "195",
        "lng": null
      },
      "length": 0
    },
    {
      "id": "E-1952-20",
      "year": 1952,
      "leg": "20",
      "leg_num": 0,
      "title": "Bordeaux",
      "start": {
        "city": "France",
        "country": "44.837789,-0.57918",
        "lat": "Limoges",
        "lng": null
      },
      "finish": {
        "city": "France",
        "country": "45.833619,1.261105",
        "lat": "228",
        "lng": null
      },
      "length": 0
    },
    {
      "id": "E-1952-21",
      "year": 1952,
      "leg": "21",
      "leg_num": 0,
      "title": "Limoges",
      "start": {
        "city": "France",
        "country": "45.833619,1.261105",
        "lat": "Puy de Dôme (Clermont-Ferrand)",
        "lng": null
      },
      "finish": {
        "city": "France",
        "country": "45.77207,2.96974",
        "lat": "245",
        "lng": null
      },
      "length": 0
    },
    {
      "id": "E-1952-22",
      "year": 1952,
      "leg": "22",
      "leg_num": 0,
      "title": "Clermont-Ferrand",
      "start": {
        "city": "France",
        "country": "45.777222,3.087025",
        "lat": "Vichy",
        "lng": null
      },
      "finish": {
        "city": "France",
        "country": "46.131859,3.425488",
        "lat": "63",
        "lng": null
      },
      "length": 0
    },
    {
      "id": "E-1952-23",
      "year": 1952,
      "leg": "23",
      "leg_num": 0,
      "title": "Vichy",
      "start": {
        "city": "France",
        "country": "46.131859,3.425488",
        "lat": "Paris",
        "lng": null
      },
      "finish": {
        "city": "France",
        "country": "48.856614,2.352222",
        "lat": "354",
        "lng": null
      },
      "length": 0
    }
  ]
}