{
  "year": 1953,
  "edition": 40,
  "total_length": 4476,
  "nb_legs": 22,
  "has_prologue": false,
  "nb_concurrents": 119,
  "nb_finishers": 76,
  "pct_finishers": 64,
  "winner_first_name": "Louison",
  "winner_last_name": "Bobet",
  "winner_id": "louison-bobet",
  "winner_total_time": "129h 23' 25\"",
  "winner_age": "28",
  "winner_country": "France",
  "winner_avg_speed": "34,593",
  "ahead_of_2nd": "0h 14' 18\" ",
  "second_name": "J. Mallejac",
  "second_country": "France",
  "second_id": null,
  "ahead_of_3rd": "0h 15' 01\"",
  "third_name": "G. Astrua",
  "third_country": "Italie",
  "third_id": null,
  "legs": [
    {
      "id": "E-1953-01",
      "year": 1953,
      "leg": "1",
      "leg_num": 1,
      "title": "Strasbourg - Metz",
      "start": {
        "city": "Strasbourg",
        "country": "France",
        "lat": "48.583148",
        "lng": "7.747882"
      },
      "finish": {
        "city": "Metz",
        "country": "France",
        "lat": "49.119666",
        "lng": "6.176905"
      },
      "length": 195
    },
    {
      "id": "E-1953-02",
      "year": 1953,
      "leg": "2",
      "leg_num": 2,
      "title": "Metz - Liège (Bel.)",
      "start": {
        "city": "Metz",
        "country": "France",
        "lat": "49.119666",
        "lng": "6.176905"
      },
      "finish": {
        "city": "Liège",
        "country": "Belgique",
        "lat": "50.632557",
        "lng": "5.579666"
      },
      "length": 227
    },
    {
      "id": "E-1953-03",
      "year": 1953,
      "leg": "3",
      "leg_num": 3,
      "title": "Liège (Bel.) - Lille",
      "start": {
        "city": "Liège",
        "country": "Belgique",
        "lat": "50.632557",
        "lng": "5.579666"
      },
      "finish": {
        "city": "Lille",
        "country": "France",
        "lat": "50.62925",
        "lng": "3.057256"
      },
      "length": 221
    },
    {
      "id": "E-1953-04",
      "year": 1953,
      "leg": "4",
      "leg_num": 4,
      "title": "Lille -Dieppe",
      "start": {
        "city": "Lille",
        "country": "France",
        "lat": "50.62925",
        "lng": "3.057256"
      },
      "finish": {
        "city": "Dieppe",
        "country": "France",
        "lat": "49.922992",
        "lng": "1.077483"
      },
      "length": 198
    },
    {
      "id": "E-1953-05",
      "year": 1953,
      "leg": "5",
      "leg_num": 5,
      "title": "Dieppe - Caen",
      "start": {
        "city": "Dieppe",
        "country": "France",
        "lat": "49.922992",
        "lng": "1.077483"
      },
      "finish": {
        "city": "Caen",
        "country": "France",
        "lat": "49.182863",
        "lng": "-0.370679"
      },
      "length": 131
    },
    {
      "id": "E-1953-06",
      "year": 1953,
      "leg": "6",
      "leg_num": 6,
      "title": "Caen - Le Mans",
      "start": {
        "city": "Caen",
        "country": "France",
        "lat": "49.182863",
        "lng": "-0.370679"
      },
      "finish": {
        "city": "Le Mans",
        "country": "France",
        "lat": "48.00611",
        "lng": "0.199556"
      },
      "length": 180
    },
    {
      "id": "E-1953-07",
      "year": 1953,
      "leg": "7",
      "leg_num": 7,
      "title": "Le Mans - Nantes",
      "start": {
        "city": "Le Mans",
        "country": "France",
        "lat": "48.00611",
        "lng": "0.199556"
      },
      "finish": {
        "city": "Nantes",
        "country": "France",
        "lat": "47.218371",
        "lng": "-1.553621"
      },
      "length": 181
    },
    {
      "id": "E-1953-08",
      "year": 1953,
      "leg": "8",
      "leg_num": 8,
      "title": "Nantes - Bordeaux",
      "start": {
        "city": "Nantes",
        "country": "France",
        "lat": "47.218371",
        "lng": "-1.553621"
      },
      "finish": {
        "city": "Bordeaux",
        "country": "France",
        "lat": "44.837789",
        "lng": "-0.57918"
      },
      "length": 345
    },
    {
      "id": "E-1953-09",
      "year": 1953,
      "leg": "9",
      "leg_num": 9,
      "title": "Bordeaux - Pau",
      "start": {
        "city": "Bordeaux",
        "country": "France",
        "lat": "44.837789",
        "lng": "-0.57918"
      },
      "finish": {
        "city": "Pau",
        "country": "France",
        "lat": "43.2951",
        "lng": "-0.370797"
      },
      "length": 197
    },
    {
      "id": "E-1953-10",
      "year": 1953,
      "leg": "10",
      "leg_num": 10,
      "title": "Pau - Cauterets",
      "start": {
        "city": "Pau",
        "country": "France",
        "lat": "43.2951",
        "lng": "-0.370797"
      },
      "finish": {
        "city": "Cauterets",
        "country": "France",
        "lat": "42.889054",
        "lng": "-0.114246"
      },
      "length": 103
    },
    {
      "id": "E-1953-11",
      "year": 1953,
      "leg": "11",
      "leg_num": 11,
      "title": "Cauterets - Luchon",
      "start": {
        "city": "Cauterets",
        "country": "France",
        "lat": "42.889054",
        "lng": "-0.114246"
      },
      "finish": {
        "city": "Luchon",
        "country": "France",
        "lat": "42.788963",
        "lng": "0.592943"
      },
      "length": 115
    },
    {
      "id": "E-1953-12",
      "year": 1953,
      "leg": "12",
      "leg_num": 12,
      "title": "Luchon - Albi",
      "start": {
        "city": "Luchon",
        "country": "France",
        "lat": "42.788963",
        "lng": "0.592943"
      },
      "finish": {
        "city": "Albi",
        "country": "France",
        "lat": "43.926896",
        "lng": "2.146343"
      },
      "length": 241
    },
    {
      "id": "E-1953-13",
      "year": 1953,
      "leg": "13",
      "leg_num": 13,
      "title": "Albi - Béziers",
      "start": {
        "city": "Albi",
        "country": "France",
        "lat": "43.926896",
        "lng": "2.146343"
      },
      "finish": {
        "city": "Béziers",
        "country": "France",
        "lat": "43.344233",
        "lng": "3.215795"
      },
      "length": 189
    },
    {
      "id": "E-1953-14",
      "year": 1953,
      "leg": "14",
      "leg_num": 14,
      "title": "Béziers - Nîmes",
      "start": {
        "city": "Béziers",
        "country": "France",
        "lat": "43.344233",
        "lng": "3.215795"
      },
      "finish": {
        "city": "Nîmes",
        "country": "France",
        "lat": "43.836699",
        "lng": "4.360054"
      },
      "length": 214
    },
    {
      "id": "E-1953-15",
      "year": 1953,
      "leg": "15",
      "leg_num": 15,
      "title": "Nîmes - Marseille",
      "start": {
        "city": "Nîmes",
        "country": "France",
        "lat": "43.836699",
        "lng": "4.360054"
      },
      "finish": {
        "city": "Marseille",
        "country": "France",
        "lat": "43.296482",
        "lng": "5.36978"
      },
      "length": 173
    },
    {
      "id": "E-1953-16",
      "year": 1953,
      "leg": "16",
      "leg_num": 16,
      "title": "Marseille - Monaco",
      "start": {
        "city": "Marseille",
        "country": "France",
        "lat": "43.296482",
        "lng": "5.36978"
      },
      "finish": {
        "city": "Monaco",
        "country": "Monaco",
        "lat": "43.738418",
        "lng": "7.424616"
      },
      "length": 208
    },
    {
      "id": "E-1953-17",
      "year": 1953,
      "leg": "17",
      "leg_num": 17,
      "title": "Monaco - Gap",
      "start": {
        "city": "Monaco",
        "country": "France",
        "lat": "43.738418",
        "lng": "7.424616"
      },
      "finish": {
        "city": "Gap",
        "country": "France",
        "lat": "44.559638",
        "lng": "6.079758"
      },
      "length": 261
    },
    {
      "id": "E-1953-18",
      "year": 1953,
      "leg": "18",
      "leg_num": 18,
      "title": "Gap - Briançon",
      "start": {
        "city": "Gap",
        "country": "France",
        "lat": "44.559638",
        "lng": "6.079758"
      },
      "finish": {
        "city": "Briançon",
        "country": "France",
        "lat": "44.899416",
        "lng": "6.643179"
      },
      "length": 165
    },
    {
      "id": "E-1953-19",
      "year": 1953,
      "leg": "19",
      "leg_num": 19,
      "title": "Briançon - Lyon",
      "start": {
        "city": "Briançon",
        "country": "France",
        "lat": "44.899416",
        "lng": "6.643179"
      },
      "finish": {
        "city": "Lyon",
        "country": "France",
        "lat": "45.764043",
        "lng": "4.835659"
      },
      "length": 227
    },
    {
      "id": "E-1953-20",
      "year": 1953,
      "leg": "20",
      "leg_num": 20,
      "title": "Lyon - Saint-Étienne",
      "start": {
        "city": "Lyon",
        "country": "France",
        "lat": "45.764043",
        "lng": "4.835659"
      },
      "finish": {
        "city": "Saint-Étienne",
        "country": "France",
        "lat": "45.439695",
        "lng": "4.387178"
      },
      "length": 70
    },
    {
      "id": "E-1953-21",
      "year": 1953,
      "leg": "21",
      "leg_num": 21,
      "title": "Saint-Étienne - Montluçon",
      "start": {
        "city": "Saint-Étienne",
        "country": "France",
        "lat": "45.439695",
        "lng": "4.387178"
      },
      "finish": {
        "city": "Montluçon",
        "country": "France",
        "lat": "46.339966",
        "lng": "2.606645"
      },
      "length": 210
    },
    {
      "id": "E-1953-22",
      "year": 1953,
      "leg": "22",
      "leg_num": 22,
      "title": "Montluçon - Paris",
      "start": {
        "city": "Montluçon",
        "country": "France",
        "lat": "46.339966",
        "lng": "2.606645"
      },
      "finish": {
        "city": "Paris",
        "country": "France",
        "lat": "48.856614",
        "lng": "2.352222"
      },
      "length": 328
    }
  ]
}