{
  "year": 1953,
  "edition": 40,
  "total_length": 4476,
  "nb_legs": 22,
  "has_prologue": false,
  "nb_concurrents": 119,
  "nb_finishers": 76,
  "pct_finishers": 64,
  "winner_first_name": "Louison",
  "winner_last_name": "Bobet",
  "winner_id": "louison-bobet",
  "winner_total_time": "129h 23' 25\"",
  "winner_age": "28",
  "winner_country": "France",
  "winner_avg_speed": "34,593",
  "ahead_of_2nd": "0h 14' 18\" ",
  "second_name": "J. Mallejac",
  "second_country": "France",
  "second_id": null,
  "ahead_of_3rd": "0h 15' 01\"",
  "third_name": "G. Astrua",
  "third_country": "Italie",
  "third_id": null,
  "legs": [
    {
      "id": "E-1953-01",
      "year": 1953,
      "leg": "1",
      "leg_num": 0,
      "title": "Strasbourg",
      "start": {
        "city": "France",
        "country": "48.583148,7.747882",
        "lat": "Metz",
        "lng": null
      },
      "finish": {
        "city": "France",
        "country": "49.119666,6.176905",
        "lat": "195",
        "lng": null
      },
      "length": 0
    },
    {
      "id": "E-1953-02",
      "year": 1953,
      "leg": "2",
      "leg_num": 0,
      "title": "Metz",
      "start": {
        "city": "France",
        "country": "49.119666,6.176905",
        "lat": "Liège",
        "lng": null
      },
      "finish": {
        "city": "Belgique",
        "country": "50.632557,5.579666",
        "lat": "227",
        "lng": null
      },
      "length": 0
    },
    {
      "id": "E-1953-03",
      "year": 1953,
      "leg": "3",
      "leg_num": 0,
      "title": "Liège",
      "start": {
        "city": "Belgique",
        "country": "50.632557,5.579666",
        "lat": "Lille",
        "lng": null
      },
      "finish": {
        "city": "France",
        "country": "50.62925,3.057256",
        "lat": "221",
        "lng": null
      },
      "length": 0
    },
    {
      "id": "E-1953-04",
      "year": 1953,
      "leg": "4",
      "leg_num": 0,
      "title": "Lille",
      "start": {
        "city": "France",
        "country": "50.62925,3.057256",
        "lat": "Dieppe",
        "lng": null
      },
      "finish": {
        "city": "France",
        "country": "49.922992,1.077483",
        "lat": "198",
        "lng": null
      },
      "length": 0
    },
    {
      "id": "E-1953-05",
      "year": 1953,
      "leg": "5",
      "leg_num": 0,
      "title": "Dieppe",
      "start": {
        "city": "France",
        "country": "49.922992,1.077483",
        "lat": "Caen",
        "lng": null
      },
      "finish": {
        "city": "France",
        "country": "49.182863,-0.370679",
        "lat": "131",
        "lng": null
      },
      "length": 0
    },
    {
      "id": "E-1953-06",
      "year": 1953,
      "leg": "6",
      "leg_num": 0,
      "title": "Caen",
      "start": {
        "city": "France",
        "country": "49.182863,-0.370679",
        "lat": "Le Mans",
        "lng": null
      },
      "finish": {
        "city": "France",
        "country": "48.00611,0.199556",
        "lat": "180",
        "lng": null
      },
      "length": 0
    },
    {
      "id": "E-1953-07",
      "year": 1953,
      "leg": "7",
      "leg_num": 0,
      "title": "Le Mans",
      "start": {
        "city": "France",
        "country": "48.00611,0.199556",
        "lat": "Nantes",
        "lng": null
      },
      "finish": {
        "city": "France",
        "country": "47.218371,-1.553621",
        "lat": "181",
        "lng": null
      },
      "length": 0
    },
    {
      "id": "E-1953-08",
      "year": 1953,
      "leg": "8",
      "leg_num": 0,
      "title": "Nantes",
      "start": {
        "city": "France",
        "country": "47.218371,-1.553621",
        "lat": "Bordeaux",
        "lng": null
      },
      "finish": {
        "city": "France",
        "country": "44.837789,-0.57918",
        "lat": "345",
        "lng": null
      },
      "length": 0
    },
    {
      "id": "E-1953-09",
      "year": 1953,
      "leg": "9",
      "leg_num": 0,
      "title": "Bordeaux",
      "start": {
        "city": "France",
        "country": "44.837789,-0.57918",
        "lat": "Pau",
        "lng": null
      },
      "finish": {
        "city": "France",
        "country": "43.2951,-0.370797",
        "lat": "197",
        "lng": null
      },
      "length": 0
    },
    {
      "id": "E-1953-10",
      "year": 1953,
      "leg": "10",
      "leg_num": 0,
      "title": "Pau",
      "start": {
        "city": "France",
        "country": "43.2951,-0.370797",
        "lat": "Cauterets",
        "lng": null
      },
      "finish": {
        "city": "France",
        "country": "42.889054,-0.114246",
        "lat": "103",
        "lng": null
      },
      "length": 0
    },
    {
      "id": "E-1953-11",
      "year": 1953,
      "leg": "11",
      "leg_num": 0,
      "title": "Cauterets",
      "start": {
        "city": "France",
        "country": "42.889054,-0.114246",
        "lat": "Luchon",
        "lng": null
      },
      "finish": {
        "city": "France",
        "country": "42.788963,0.592943",
        "lat": "115",
        "lng": null
      },
      "length": 0
    },
    {
      "id": "E-1953-12",
      "year": 1953,
      "leg": "12",
      "leg_num": 0,
      "title": "Luchon",
      "start": {
        "city": "France",
        "country": "42.788963,0.592943",
        "lat": "Albi",
        "lng": null
      },
      "finish": {
        "city": "France",
        "country": "43.926896,2.146343",
        "lat": "241",
        "lng": null
      },
      "length": 0
    },
    {
      "id": "E-1953-13",
      "year": 1953,
      "leg": "13",
      "leg_num": 0,
      "title": "Albi",
      "start": {
        "city": "France",
        "country": "43.926896,2.146343",
        "lat": "Béziers",
        "lng": null
      },
      "finish": {
        "city": "France",
        "country": "43.344233,3.215795",
        "lat": "189",
        "lng": null
      },
      "length": 0
    },
    {
      "id": "E-1953-14",
      "year": 1953,
      "leg": "14",
      "leg_num": 0,
      "title": "Béziers",
      "start": {
        "city": "France",
        "country": "43.344233,3.215795",
        "lat": "Nîmes",
        "lng": null
      },
      "finish": {
        "city": "France",
        "country": "43.836699,4.360054",
        "lat": "214",
        "lng": null
      },
      "length": 0
    },
    {
      "id": "E-1953-15",
      "year": 1953,
      "leg": "15",
      "leg_num": 0,
      "title": "Nîmes",
      "start": {
        "city": "France",
        "country": "43.836699,4.360054",
        "lat": "Marseille",
        "lng": null
      },
      "finish": {
        "city": "France",
        "country": "43.296482,5.36978",
        "lat": "173",
        "lng": null
      },
      "length": 0
    },
    {
      "id": "E-1953-16",
      "year": 1953,
      "leg": "16",
      "leg_num": 0,
      "title": "Marseille",
      "start": {
        "city": "France",
        "country": "43.296482,5.36978",
        "lat": "Monaco",
        "lng": null
      },
      "finish": {
        "city": "France",
        "country": "43.738418,7.424616",
        "lat": "208",
        "lng": null
      },
      "length": 0
    },
    {
      "id": "E-1953-17",
      "year": 1953,
      "leg": "17",
      "leg_num": 0,
      "title": "Monaco",
      "start": {
        "city": "France",
        "country": "43.738418,7.424616",
        "lat": "Gap",
        "lng": null
      },
      "finish": {
        "city": "France",
        "country": "44.559638,6.079758",
        "lat": "261",
        "lng": null
      },
      "length": 0
    },
    {
      "id": "E-1953-18",
      "year": 1953,
      "leg": "18",
      "leg_num": 0,
      "title": "Gap",
      "start": {
        "city": "France",
        "country": "44.559638,6.079758",
        "lat": "Briançon",
        "lng": null
      },
      "finish": {
        "city": "France",
        "country": "44.899416,6.643179",
        "lat": "165",
        "lng": null
      },
      "length": 0
    },
    {
      "id": "E-1953-19",
      "year": 1953,
      "leg": "19",
      "leg_num": 0,
      "title": "Briançon",
      "start": {
        "city": "France",
        "country": "44.899416,6.643179",
        "lat": "Lyon",
        "lng": null
      },
      "finish": {
        "city": "France",
        "country": "45.764043,4.835659",
        "lat": "227",
        "lng": null
      },
      "length": 0
    },
    {
      "id": "E-1953-20",
      "year": 1953,
      "leg": "20",
      "leg_num": 0,
      "title": "Lyon",
      "start": {
        "city": "France",
        "country": "45.764043,4.835659",
        "lat": "Saint-Étienne",
        "lng": null
      },
      "finish": {
        "city": "France",
        "country": "45.439695,4.387178",
        "lat": "70",
        "lng": null
      },
      "length": 0
    },
    {
      "id": "E-1953-21",
      "year": 1953,
      "leg": "21",
      "leg_num": 0,
      "title": "Saint-Étienne",
      "start": {
        "city": "France",
        "country": "45.439695,4.387178",
        "lat": "Montluçon",
        "lng": null
      },
      "finish": {
        "city": "France",
        "country": "46.339966,2.606645",
        "lat": "210",
        "lng": null
      },
      "length": 0
    },
    {
      "id": "E-1953-22",
      "year": 1953,
      "leg": "22",
      "leg_num": 0,
      "title": "Montluçon",
      "start": {
        "city": "France",
        "country": "46.339966,2.606645",
        "lat": "Paris",
        "lng": null
      },
      "finish": {
        "city": "France",
        "country": "48.856614,2.352222",
        "lat": "328",
        "lng": null
      },
      "length": 0
    }
  ]
}