{
  "year": 1954,
  "edition": 41,
  "total_length": 4656,
  "nb_legs": 23,
  "has_prologue": false,
  "nb_concurrents": 110,
  "nb_finishers": 69,
  "pct_finishers": 63,
  "winner_first_name": "Louison",
  "winner_last_name": "Bobet",
  "winner_id": "louison-bobet",
  "winner_total_time": "140h 06' 05\"",
  "winner_age": "29",
  "winner_country": "France",
  "winner_avg_speed": "33,229",
  "ahead_of_2nd": "0h 15' 49\" ",
  "second_name": "F. Kübler",
  "second_country": "Suisse",
  "second_id": "ferdi-kubler",
  "ahead_of_3rd": "0h 21' 46\"",
  "third_name": "F. Schaer",
  "third_country": "Suisse",
  "third_id": null,
  "legs": [
    {
      "id": "E-1954-01",
      "year": 1954,
      "leg": "1",
      "leg_num": 0,
      "title": "Amsterdam",
      "start": {
        "city": "Pays-Bas",
        "country": "52.370216,4.895168",
        "lat": "Brasschaat",
        "lng": null
      },
      "finish": {
        "city": "Belgique",
        "country": "51.283333,4.483333",
        "lat": "216",
        "lng": null
      },
      "length": 0
    },
    {
      "id": "E-1954-02",
      "year": 1954,
      "leg": "2",
      "leg_num": 0,
      "title": "Beveren",
      "start": {
        "city": "Belgique",
        "country": "51.210318,4.257476",
        "lat": "Lille",
        "lng": null
      },
      "finish": {
        "city": "France",
        "country": "50.62925,3.057256",
        "lat": "227",
        "lng": null
      },
      "length": 0
    },
    {
      "id": "E-1954-03",
      "year": 1954,
      "leg": "3",
      "leg_num": 0,
      "title": "Lille",
      "start": {
        "city": "France",
        "country": "50.62925,3.057256",
        "lat": "Rouen",
        "lng": null
      },
      "finish": {
        "city": "France",
        "country": "49.443232,1.099971",
        "lat": "219",
        "lng": null
      },
      "length": 0
    },
    {
      "id": "E-1954-4a",
      "year": 1954,
      "leg": "4a",
      "leg_num": 0,
      "title": "Rouen",
      "start": {
        "city": "France",
        "country": "49.443232,1.099971",
        "lat": "Rouen",
        "lng": null
      },
      "finish": {
        "city": "France",
        "country": "49.443232,1.099971",
        "lat": "10",
        "lng": null
      },
      "length": 0
    },
    {
      "id": "E-1954-4b",
      "year": 1954,
      "leg": "4b",
      "leg_num": 0,
      "title": "Rouen",
      "start": {
        "city": "France",
        "country": "49.443232,1.099971",
        "lat": "Caen",
        "lng": null
      },
      "finish": {
        "city": "France",
        "country": "49.182863,-0.370679",
        "lat": "131",
        "lng": null
      },
      "length": 0
    },
    {
      "id": "E-1954-05",
      "year": 1954,
      "leg": "5",
      "leg_num": 0,
      "title": "Caen",
      "start": {
        "city": "France",
        "country": "49.182863,-0.370679",
        "lat": "Saint-Brieuc",
        "lng": null
      },
      "finish": {
        "city": "France",
        "country": "48.51418,-2.765835",
        "lat": "224",
        "lng": null
      },
      "length": 0
    },
    {
      "id": "E-1954-06",
      "year": 1954,
      "leg": "6",
      "leg_num": 0,
      "title": "Saint-Brieuc",
      "start": {
        "city": "France",
        "country": "48.51418,-2.765835",
        "lat": "Brest",
        "lng": null
      },
      "finish": {
        "city": "France",
        "country": "48.390394,-4.486076",
        "lat": "179",
        "lng": null
      },
      "length": 0
    },
    {
      "id": "E-1954-07",
      "year": 1954,
      "leg": "7",
      "leg_num": 0,
      "title": "Brest",
      "start": {
        "city": "France",
        "country": "48.390394,-4.486076",
        "lat": "Vannes",
        "lng": null
      },
      "finish": {
        "city": "France",
        "country": "47.658236,-2.760847",
        "lat": "211",
        "lng": null
      },
      "length": 0
    },
    {
      "id": "E-1954-08",
      "year": 1954,
      "leg": "8",
      "leg_num": 0,
      "title": "Vannes",
      "start": {
        "city": "France",
        "country": "47.658236,-2.760847",
        "lat": "Angers",
        "lng": null
      },
      "finish": {
        "city": "France",
        "country": "47.478419,-0.563166",
        "lat": "190",
        "lng": null
      },
      "length": 0
    },
    {
      "id": "E-1954-09",
      "year": 1954,
      "leg": "9",
      "leg_num": 0,
      "title": "Angers",
      "start": {
        "city": "France",
        "country": "47.478419,-0.563166",
        "lat": "Bordeaux",
        "lng": null
      },
      "finish": {
        "city": "France",
        "country": "44.837789,-0.57918",
        "lat": "343",
        "lng": null
      },
      "length": 0
    },
    {
      "id": "E-1954-10",
      "year": 1954,
      "leg": "10",
      "leg_num": 0,
      "title": "Bordeaux",
      "start": {
        "city": "France",
        "country": "44.837789,-0.57918",
        "lat": "Bayonne",
        "lng": null
      },
      "finish": {
        "city": "France",
        "country": "43.492949,-1.474841",
        "lat": "202",
        "lng": null
      },
      "length": 0
    },
    {
      "id": "E-1954-11",
      "year": 1954,
      "leg": "11",
      "leg_num": 0,
      "title": "Bayonne",
      "start": {
        "city": "France",
        "country": "43.492949,-1.474841",
        "lat": "Pau",
        "lng": null
      },
      "finish": {
        "city": "France",
        "country": "43.2951,-0.370797",
        "lat": "241",
        "lng": null
      },
      "length": 0
    },
    {
      "id": "E-1954-12",
      "year": 1954,
      "leg": "12",
      "leg_num": 0,
      "title": "Pau",
      "start": {
        "city": "France",
        "country": "43.2951,-0.370797",
        "lat": "Luchon",
        "lng": null
      },
      "finish": {
        "city": "France",
        "country": "42.788963,0.592943",
        "lat": "161",
        "lng": null
      },
      "length": 0
    },
    {
      "id": "E-1954-13",
      "year": 1954,
      "leg": "13",
      "leg_num": 0,
      "title": "Luchon",
      "start": {
        "city": "France",
        "country": "42.788963,0.592943",
        "lat": "Toulouse",
        "lng": null
      },
      "finish": {
        "city": "France",
        "country": "43.604652,1.444209",
        "lat": "203",
        "lng": null
      },
      "length": 0
    },
    {
      "id": "E-1954-14",
      "year": 1954,
      "leg": "14",
      "leg_num": 0,
      "title": "Toulouse",
      "start": {
        "city": "France",
        "country": "43.604652,1.444209",
        "lat": "Millau",
        "lng": null
      },
      "finish": {
        "city": "France",
        "country": "44.100575,3.077801",
        "lat": "225",
        "lng": null
      },
      "length": 0
    },
    {
      "id": "E-1954-15",
      "year": 1954,
      "leg": "15",
      "leg_num": 0,
      "title": "Millau",
      "start": {
        "city": "France",
        "country": "44.100575,3.077801",
        "lat": "Le Puy-en-Velay",
        "lng": null
      },
      "finish": {
        "city": "France",
        "country": "45.042768,3.882936",
        "lat": "197",
        "lng": null
      },
      "length": 0
    },
    {
      "id": "E-1954-16",
      "year": 1954,
      "leg": "16",
      "leg_num": 0,
      "title": "Le Puy-en-Velay",
      "start": {
        "city": "France",
        "country": "45.042768,3.882936",
        "lat": "Lyon",
        "lng": null
      },
      "finish": {
        "city": "France",
        "country": "45.764043,4.835659",
        "lat": "194",
        "lng": null
      },
      "length": 0
    },
    {
      "id": "E-1954-17",
      "year": 1954,
      "leg": "17",
      "leg_num": 0,
      "title": "Lyon",
      "start": {
        "city": "France",
        "country": "45.764043,4.835659",
        "lat": "Grenoble",
        "lng": null
      },
      "finish": {
        "city": "France",
        "country": "45.188529,5.724524",
        "lat": "192",
        "lng": null
      },
      "length": 0
    },
    {
      "id": "E-1954-18",
      "year": 1954,
      "leg": "18",
      "leg_num": 0,
      "title": "Grenoble",
      "start": {
        "city": "France",
        "country": "45.188529,5.724524",
        "lat": "Briançon",
        "lng": null
      },
      "finish": {
        "city": "France",
        "country": "44.899416,6.643179",
        "lat": "216",
        "lng": null
      },
      "length": 0
    },
    {
      "id": "E-1954-19",
      "year": 1954,
      "leg": "19",
      "leg_num": 0,
      "title": "Briançon",
      "start": {
        "city": "France",
        "country": "44.899416,6.643179",
        "lat": "Aix-les-Bains",
        "lng": null
      },
      "finish": {
        "city": "France",
        "country": "45.692341,5.908998",
        "lat": "221",
        "lng": null
      },
      "length": 0
    },
    {
      "id": "E-1954-20",
      "year": 1954,
      "leg": "20",
      "leg_num": 0,
      "title": "Aix-les-Bains",
      "start": {
        "city": "France",
        "country": "45.692341,5.908998",
        "lat": "Besançon",
        "lng": null
      },
      "finish": {
        "city": "France",
        "country": "47.237829,6.024054",
        "lat": "243",
        "lng": null
      },
      "length": 0
    },
    {
      "id": "E-1954-21a",
      "year": 1954,
      "leg": "21a",
      "leg_num": 0,
      "title": "Besançon",
      "start": {
        "city": "France",
        "country": "47.237829,6.024054",
        "lat": "Épinal",
        "lng": null
      },
      "finish": {
        "city": "France",
        "country": "48.172402,6.449403",
        "lat": "134",
        "lng": null
      },
      "length": 0
    },
    {
      "id": "E-1954-21b",
      "year": 1954,
      "leg": "21b",
      "leg_num": 0,
      "title": "Épinal",
      "start": {
        "city": "France",
        "country": "48.172402,6.449403",
        "lat": "Nancy",
        "lng": null
      },
      "finish": {
        "city": "France",
        "country": "48.692054,6.184417",
        "lat": "72",
        "lng": null
      },
      "length": 0
    },
    {
      "id": "E-1954-22",
      "year": 1954,
      "leg": "22",
      "leg_num": 0,
      "title": "Nancy",
      "start": {
        "city": "France",
        "country": "48.692054,6.184417",
        "lat": "Troyes",
        "lng": null
      },
      "finish": {
        "city": "France",
        "country": "48.296592,4.074735",
        "lat": "216",
        "lng": null
      },
      "length": 0
    },
    {
      "id": "E-1954-23",
      "year": 1954,
      "leg": "23",
      "leg_num": 0,
      "title": "Troyes",
      "start": {
        "city": "France",
        "country": "48.296592,4.074735",
        "lat": "Paris",
        "lng": null
      },
      "finish": {
        "city": "France",
        "country": "48.856614,2.352222",
        "lat": "188",
        "lng": null
      },
      "length": 0
    }
  ]
}