{
  "year": 1955,
  "edition": 42,
  "total_length": 4495,
  "nb_legs": 22,
  "has_prologue": false,
  "nb_concurrents": 130,
  "nb_finishers": 69,
  "pct_finishers": 53,
  "winner_first_name": "Louison",
  "winner_last_name": "Bobet",
  "winner_id": "louison-bobet",
  "winner_total_time": "130h 29' 26\"",
  "winner_age": "30",
  "winner_country": "France",
  "winner_avg_speed": "34,446",
  "ahead_of_2nd": "0h 04' 53\" ",
  "second_name": "J. Brankart",
  "second_country": "Belgique",
  "second_id": null,
  "ahead_of_3rd": "0h 11' 30\"",
  "third_name": "C. Gaul",
  "third_country": "Luxembourg",
  "third_id": "charly-gaul",
  "legs": [
    {
      "id": "E-1955-1a",
      "year": 1955,
      "leg": "1a",
      "leg_num": 0,
      "title": "Le Havre",
      "start": {
        "city": "France",
        "country": "49.49437,0.107929",
        "lat": "Dieppe",
        "lng": null
      },
      "finish": {
        "city": "France",
        "country": "49.922992,1.077483",
        "lat": "216",
        "lng": null
      },
      "length": 0
    },
    {
      "id": "E-1955-1b",
      "year": 1955,
      "leg": "1b",
      "leg_num": 0,
      "title": "Dieppe",
      "start": {
        "city": "France",
        "country": "49.922992,1.077483",
        "lat": "Dieppe",
        "lng": null
      },
      "finish": {
        "city": "France",
        "country": "49.922992,1.077483",
        "lat": "13",
        "lng": null
      },
      "length": 0
    },
    {
      "id": "E-1955-02",
      "year": 1955,
      "leg": "2",
      "leg_num": 0,
      "title": "Dieppe",
      "start": {
        "city": "France",
        "country": "49.922992,1.077483",
        "lat": "Roubaix",
        "lng": null
      },
      "finish": {
        "city": "France",
        "country": "50.692705,3.177847",
        "lat": "204",
        "lng": null
      },
      "length": 0
    },
    {
      "id": "E-1955-03",
      "year": 1955,
      "leg": "3",
      "leg_num": 0,
      "title": "Roubaix",
      "start": {
        "city": "France",
        "country": "50.692705,3.177847",
        "lat": "Namur",
        "lng": null
      },
      "finish": {
        "city": "Belgique",
        "country": "50.465328,4.867665",
        "lat": "210",
        "lng": null
      },
      "length": 0
    },
    {
      "id": "E-1955-04",
      "year": 1955,
      "leg": "4",
      "leg_num": 0,
      "title": "Namur",
      "start": {
        "city": "Belgique",
        "country": "50.465328,4.867665",
        "lat": "Metz",
        "lng": null
      },
      "finish": {
        "city": "France",
        "country": "49.119666,6.176905",
        "lat": "225",
        "lng": null
      },
      "length": 0
    },
    {
      "id": "E-1955-05",
      "year": 1955,
      "leg": "5",
      "leg_num": 0,
      "title": "Metz",
      "start": {
        "city": "France",
        "country": "49.119666,6.176905",
        "lat": "Colmar",
        "lng": null
      },
      "finish": {
        "city": "France",
        "country": "48.079359,7.358512",
        "lat": "229",
        "lng": null
      },
      "length": 0
    },
    {
      "id": "E-1955-06",
      "year": 1955,
      "leg": "6",
      "leg_num": 0,
      "title": "Colmar",
      "start": {
        "city": "France",
        "country": "48.079359,7.358512",
        "lat": "Zurich",
        "lng": null
      },
      "finish": {
        "city": "Suisse",
        "country": "47.36865,8.539182",
        "lat": "195",
        "lng": null
      },
      "length": 0
    },
    {
      "id": "E-1955-07",
      "year": 1955,
      "leg": "7",
      "leg_num": 0,
      "title": "Zurich",
      "start": {
        "city": "Suisse",
        "country": "47.36865,8.539182",
        "lat": "Thonon-les-Bains",
        "lng": null
      },
      "finish": {
        "city": "France",
        "country": "46.373565,6.477635",
        "lat": "267",
        "lng": null
      },
      "length": 0
    },
    {
      "id": "E-1955-08",
      "year": 1955,
      "leg": "8",
      "leg_num": 0,
      "title": "Thonon-les-Bains",
      "start": {
        "city": "France",
        "country": "46.373565,6.477635",
        "lat": "Briançon",
        "lng": null
      },
      "finish": {
        "city": "France",
        "country": "44.899416,6.643179",
        "lat": "253",
        "lng": null
      },
      "length": 0
    },
    {
      "id": "E-1955-09",
      "year": 1955,
      "leg": "9",
      "leg_num": 0,
      "title": "Briançon",
      "start": {
        "city": "France",
        "country": "44.899416,6.643179",
        "lat": "Monaco",
        "lng": null
      },
      "finish": {
        "city": "Monaco",
        "country": "43.738418,7.424616",
        "lat": "275",
        "lng": null
      },
      "length": 0
    },
    {
      "id": "E-1955-10",
      "year": 1955,
      "leg": "10",
      "leg_num": 0,
      "title": "Monaco",
      "start": {
        "city": "Monaco",
        "country": "43.738418,7.424616",
        "lat": "Marseille",
        "lng": null
      },
      "finish": {
        "city": "France",
        "country": "43.296482,5.36978",
        "lat": "240",
        "lng": null
      },
      "length": 0
    },
    {
      "id": "E-1955-11",
      "year": 1955,
      "leg": "11",
      "leg_num": 0,
      "title": "Marseille",
      "start": {
        "city": "France",
        "country": "43.296482,5.36978",
        "lat": "Avignon",
        "lng": null
      },
      "finish": {
        "city": "France",
        "country": "43.949317,4.805528",
        "lat": "198",
        "lng": null
      },
      "length": 0
    },
    {
      "id": "E-1955-12",
      "year": 1955,
      "leg": "12",
      "leg_num": 0,
      "title": "Avignon",
      "start": {
        "city": "France",
        "country": "43.949317,4.805528",
        "lat": "Millau",
        "lng": null
      },
      "finish": {
        "city": "France",
        "country": "44.100575,3.077801",
        "lat": "240",
        "lng": null
      },
      "length": 0
    },
    {
      "id": "E-1955-13",
      "year": 1955,
      "leg": "13",
      "leg_num": 0,
      "title": "Millau",
      "start": {
        "city": "France",
        "country": "44.100575,3.077801",
        "lat": "Albi",
        "lng": null
      },
      "finish": {
        "city": "France",
        "country": "43.926896,2.146343",
        "lat": "205",
        "lng": null
      },
      "length": 0
    },
    {
      "id": "E-1955-14",
      "year": 1955,
      "leg": "14",
      "leg_num": 0,
      "title": "Albi",
      "start": {
        "city": "France",
        "country": "43.926896,2.146343",
        "lat": "Narbonne",
        "lng": null
      },
      "finish": {
        "city": "France",
        "country": "43.184277,3.003078",
        "lat": "156",
        "lng": null
      },
      "length": 0
    },
    {
      "id": "E-1955-15",
      "year": 1955,
      "leg": "15",
      "leg_num": 0,
      "title": "Narbonne",
      "start": {
        "city": "France",
        "country": "43.184277,3.003078",
        "lat": "Ax-les-Thermes",
        "lng": null
      },
      "finish": {
        "city": "France",
        "country": "42.720254,1.837545",
        "lat": "151",
        "lng": null
      },
      "length": 0
    },
    {
      "id": "E-1955-16",
      "year": 1955,
      "leg": "16",
      "leg_num": 0,
      "title": "Ax-les-Thermes",
      "start": {
        "city": "France",
        "country": "42.720254,1.837545",
        "lat": "Toulouse",
        "lng": null
      },
      "finish": {
        "city": "France",
        "country": "43.604652,1.444209",
        "lat": "123",
        "lng": null
      },
      "length": 0
    },
    {
      "id": "E-1955-17",
      "year": 1955,
      "leg": "17",
      "leg_num": 0,
      "title": "Toulouse",
      "start": {
        "city": "France",
        "country": "43.604652,1.444209",
        "lat": "Saint-Gaudens",
        "lng": null
      },
      "finish": {
        "city": "France",
        "country": "43.106895,0.723763",
        "lat": "249",
        "lng": null
      },
      "length": 0
    },
    {
      "id": "E-1955-18",
      "year": 1955,
      "leg": "18",
      "leg_num": 0,
      "title": "Saint-Gaudens",
      "start": {
        "city": "France",
        "country": "43.106895,0.723763",
        "lat": "Pau",
        "lng": null
      },
      "finish": {
        "city": "France",
        "country": "43.2951,-0.370797",
        "lat": "206",
        "lng": null
      },
      "length": 0
    },
    {
      "id": "E-1955-19",
      "year": 1955,
      "leg": "19",
      "leg_num": 0,
      "title": "Pau",
      "start": {
        "city": "France",
        "country": "43.2951,-0.370797",
        "lat": "Bordeaux",
        "lng": null
      },
      "finish": {
        "city": "France",
        "country": "44.837789,-0.57918",
        "lat": "195",
        "lng": null
      },
      "length": 0
    },
    {
      "id": "E-1955-20",
      "year": 1955,
      "leg": "20",
      "leg_num": 0,
      "title": "Bordeaux",
      "start": {
        "city": "France",
        "country": "44.837789,-0.57918",
        "lat": "Poitiers",
        "lng": null
      },
      "finish": {
        "city": "France",
        "country": "46.580224,0.340375",
        "lat": "243",
        "lng": null
      },
      "length": 0
    },
    {
      "id": "E-1955-21",
      "year": 1955,
      "leg": "21",
      "leg_num": 0,
      "title": "Châtellerault",
      "start": {
        "city": "France",
        "country": "46.816487,0.548146",
        "lat": "Tours",
        "lng": null
      },
      "finish": {
        "city": "France",
        "country": "47.394144,0.68484",
        "lat": "69",
        "lng": null
      },
      "length": 0
    },
    {
      "id": "E-1955-22",
      "year": 1955,
      "leg": "22",
      "leg_num": 0,
      "title": "Tours",
      "start": {
        "city": "France",
        "country": "47.394144,0.68484",
        "lat": "Paris",
        "lng": null
      },
      "finish": {
        "city": "France",
        "country": "48.856614,2.352222",
        "lat": "229",
        "lng": null
      },
      "length": 0
    }
  ]
}