{
  "year": 1956,
  "edition": 43,
  "total_length": 4498,
  "nb_legs": 22,
  "has_prologue": false,
  "nb_concurrents": 120,
  "nb_finishers": 88,
  "pct_finishers": 73,
  "winner_first_name": "Roger",
  "winner_last_name": "Walkowiak",
  "winner_id": "roger-walkowiak",
  "winner_total_time": "124h 01' 16\"",
  "winner_age": "29",
  "winner_country": "France",
  "winner_avg_speed": "36,268",
  "ahead_of_2nd": "0h 01' 25\" ",
  "second_name": "G. Bauvin",
  "second_country": "France",
  "second_id": null,
  "ahead_of_3rd": "0h 03' 44\"",
  "third_name": "J. Adriaensens",
  "third_country": "Belgique",
  "third_id": null,
  "legs": [
    {
      "id": "E-1956-01",
      "year": 1956,
      "leg": "1",
      "leg_num": 0,
      "title": "Reims",
      "start": {
        "city": "France",
        "country": "49.258329,4.031696",
        "lat": "Liège",
        "lng": null
      },
      "finish": {
        "city": "Belgique",
        "country": "50.632557,5.579666",
        "lat": "223",
        "lng": null
      },
      "length": 0
    },
    {
      "id": "E-1956-02",
      "year": 1956,
      "leg": "2",
      "leg_num": 0,
      "title": "Liège",
      "start": {
        "city": "Belgique",
        "country": "50.632557,5.579666",
        "lat": "Lille",
        "lng": null
      },
      "finish": {
        "city": "France",
        "country": "50.62925,3.057256",
        "lat": "217",
        "lng": null
      },
      "length": 0
    },
    {
      "id": "E-1956-03",
      "year": 1956,
      "leg": "3",
      "leg_num": 0,
      "title": "Lille",
      "start": {
        "city": "France",
        "country": "50.62925,3.057256",
        "lat": "Rouen",
        "lng": null
      },
      "finish": {
        "city": "France",
        "country": "49.443232,1.099971",
        "lat": "225",
        "lng": null
      },
      "length": 0
    },
    {
      "id": "E-1956-4a",
      "year": 1956,
      "leg": "4a",
      "leg_num": 0,
      "title": "Rouen",
      "start": {
        "city": "France",
        "country": "49.443232,1.099971",
        "lat": "Rouen",
        "lng": null
      },
      "finish": {
        "city": "France",
        "country": "49.443232,1.099971",
        "lat": "15",
        "lng": null
      },
      "length": 0
    },
    {
      "id": "E-1956-4b",
      "year": 1956,
      "leg": "4b",
      "leg_num": 0,
      "title": "Rouen",
      "start": {
        "city": "France",
        "country": "49.443232,1.099971",
        "lat": "Caen",
        "lng": null
      },
      "finish": {
        "city": "France",
        "country": "49.182863,-0.370679",
        "lat": "125",
        "lng": null
      },
      "length": 0
    },
    {
      "id": "E-1956-05",
      "year": 1956,
      "leg": "5",
      "leg_num": 0,
      "title": "Caen",
      "start": {
        "city": "France",
        "country": "49.182863,-0.370679",
        "lat": "Saint-Malo",
        "lng": null
      },
      "finish": {
        "city": "France",
        "country": "48.649337,-2.025674",
        "lat": "189",
        "lng": null
      },
      "length": 0
    },
    {
      "id": "E-1956-06",
      "year": 1956,
      "leg": "6",
      "leg_num": 0,
      "title": "Saint-Malo",
      "start": {
        "city": "France",
        "country": "48.649337,-2.025674",
        "lat": "Lorient",
        "lng": null
      },
      "finish": {
        "city": "France",
        "country": "47.748252,-3.370245",
        "lat": "192",
        "lng": null
      },
      "length": 0
    },
    {
      "id": "E-1956-07",
      "year": 1956,
      "leg": "7",
      "leg_num": 0,
      "title": "Lorient",
      "start": {
        "city": "France",
        "country": "47.748252,-3.370245",
        "lat": "Angers",
        "lng": null
      },
      "finish": {
        "city": "France",
        "country": "47.478419,-0.563166",
        "lat": "244",
        "lng": null
      },
      "length": 0
    },
    {
      "id": "E-1956-08",
      "year": 1956,
      "leg": "8",
      "leg_num": 0,
      "title": "Angers",
      "start": {
        "city": "France",
        "country": "47.478419,-0.563166",
        "lat": "La Rochelle",
        "lng": null
      },
      "finish": {
        "city": "France",
        "country": "46.160329,-1.151139",
        "lat": "180",
        "lng": null
      },
      "length": 0
    },
    {
      "id": "E-1956-09",
      "year": 1956,
      "leg": "9",
      "leg_num": 0,
      "title": "La Rochelle",
      "start": {
        "city": "France",
        "country": "46.160329,-1.151139",
        "lat": "Bordeaux",
        "lng": null
      },
      "finish": {
        "city": "France",
        "country": "44.837789,-0.57918",
        "lat": "219",
        "lng": null
      },
      "length": 0
    },
    {
      "id": "E-1956-10",
      "year": 1956,
      "leg": "10",
      "leg_num": 0,
      "title": "Bordeaux",
      "start": {
        "city": "France",
        "country": "44.837789,-0.57918",
        "lat": "Bayonne",
        "lng": null
      },
      "finish": {
        "city": "France",
        "country": "43.492949,-1.474841",
        "lat": "201",
        "lng": null
      },
      "length": 0
    },
    {
      "id": "E-1956-11",
      "year": 1956,
      "leg": "11",
      "leg_num": 0,
      "title": "Bayonne",
      "start": {
        "city": "France",
        "country": "43.492949,-1.474841",
        "lat": "Pau",
        "lng": null
      },
      "finish": {
        "city": "France",
        "country": "43.2951,-0.370797",
        "lat": "255",
        "lng": null
      },
      "length": 0
    },
    {
      "id": "E-1956-12",
      "year": 1956,
      "leg": "12",
      "leg_num": 0,
      "title": "Pau",
      "start": {
        "city": "France",
        "country": "43.2951,-0.370797",
        "lat": "Luchon",
        "lng": null
      },
      "finish": {
        "city": "France",
        "country": "42.788963,0.592943",
        "lat": "130",
        "lng": null
      },
      "length": 0
    },
    {
      "id": "E-1956-13",
      "year": 1956,
      "leg": "13",
      "leg_num": 0,
      "title": "Luchon",
      "start": {
        "city": "France",
        "country": "42.788963,0.592943",
        "lat": "Toulouse",
        "lng": null
      },
      "finish": {
        "city": "France",
        "country": "43.604652,1.444209",
        "lat": "176",
        "lng": null
      },
      "length": 0
    },
    {
      "id": "E-1956-14",
      "year": 1956,
      "leg": "14",
      "leg_num": 0,
      "title": "Toulouse",
      "start": {
        "city": "France",
        "country": "43.604652,1.444209",
        "lat": "Montpellier",
        "lng": null
      },
      "finish": {
        "city": "France",
        "country": "43.610769,3.876716",
        "lat": "231",
        "lng": null
      },
      "length": 0
    },
    {
      "id": "E-1956-15",
      "year": 1956,
      "leg": "15",
      "leg_num": 0,
      "title": "Montpellier",
      "start": {
        "city": "France",
        "country": "43.610769,3.876716",
        "lat": "Aix-en-Provence",
        "lng": null
      },
      "finish": {
        "city": "France",
        "country": "43.529742,5.447427",
        "lat": "204",
        "lng": null
      },
      "length": 0
    },
    {
      "id": "E-1956-16",
      "year": 1956,
      "leg": "16",
      "leg_num": 0,
      "title": "Aix-en-Provence",
      "start": {
        "city": "France",
        "country": "43.529742,5.447427",
        "lat": "Gap",
        "lng": null
      },
      "finish": {
        "city": "France",
        "country": "44.559638,6.079758",
        "lat": "203",
        "lng": null
      },
      "length": 0
    },
    {
      "id": "E-1956-17",
      "year": 1956,
      "leg": "17",
      "leg_num": 0,
      "title": "Gap",
      "start": {
        "city": "France",
        "country": "44.559638,6.079758",
        "lat": "Turin",
        "lng": null
      },
      "finish": {
        "city": "Italie",
        "country": "45.070982,7.685676",
        "lat": "234",
        "lng": null
      },
      "length": 0
    },
    {
      "id": "E-1956-18",
      "year": 1956,
      "leg": "18",
      "leg_num": 0,
      "title": "Turin",
      "start": {
        "city": "Italie",
        "country": "45.070982,7.685676",
        "lat": "Grenoble",
        "lng": null
      },
      "finish": {
        "city": "France",
        "country": "45.188529,5.724524",
        "lat": "250",
        "lng": null
      },
      "length": 0
    },
    {
      "id": "E-1956-19",
      "year": 1956,
      "leg": "19",
      "leg_num": 0,
      "title": "Grenoble",
      "start": {
        "city": "France",
        "country": "45.188529,5.724524",
        "lat": "Saint-Étienne",
        "lng": null
      },
      "finish": {
        "city": "France",
        "country": "45.439695,4.387178",
        "lat": "173",
        "lng": null
      },
      "length": 0
    },
    {
      "id": "E-1956-20",
      "year": 1956,
      "leg": "20",
      "leg_num": 0,
      "title": "Saint-Étienne",
      "start": {
        "city": "France",
        "country": "45.439695,4.387178",
        "lat": "Lyon",
        "lng": null
      },
      "finish": {
        "city": "France",
        "country": "45.764043,4.835659",
        "lat": "73",
        "lng": null
      },
      "length": 0
    },
    {
      "id": "E-1956-21",
      "year": 1956,
      "leg": "21",
      "leg_num": 0,
      "title": "Lyon",
      "start": {
        "city": "France",
        "country": "45.764043,4.835659",
        "lat": "Montluçon",
        "lng": null
      },
      "finish": {
        "city": "France",
        "country": "46.339966,2.606645",
        "lat": "237",
        "lng": null
      },
      "length": 0
    },
    {
      "id": "E-1956-22",
      "year": 1956,
      "leg": "22",
      "leg_num": 0,
      "title": "Montluçon",
      "start": {
        "city": "France",
        "country": "46.339966,2.606645",
        "lat": "Paris",
        "lng": null
      },
      "finish": {
        "city": "France",
        "country": "48.856614,2.352222",
        "lat": "331",
        "lng": null
      },
      "length": 0
    }
  ]
}