{
  "year": 1957,
  "edition": 44,
  "total_length": 4669,
  "nb_legs": 22,
  "has_prologue": false,
  "nb_concurrents": 120,
  "nb_finishers": 56,
  "pct_finishers": 47,
  "winner_first_name": "Jacques",
  "winner_last_name": "Anquetil",
  "winner_id": "jacques-anquetil",
  "winner_total_time": "135h 44' 42\"",
  "winner_age": "23",
  "winner_country": "France",
  "winner_avg_speed": "34,520",
  "ahead_of_2nd": "0h 14' 56\" ",
  "second_name": "M. Janssens",
  "second_country": "Belgique",
  "second_id": null,
  "ahead_of_3rd": "0h 17' 26\"",
  "third_name": "A. Christian",
  "third_country": "Autriche",
  "third_id": null,
  "legs": [
    {
      "id": "E-1957-01",
      "year": 1957,
      "leg": "1",
      "leg_num": 0,
      "title": "Nantes",
      "start": {
        "city": "France",
        "country": "47.218371,-1.553621",
        "lat": "Granville",
        "lng": null
      },
      "finish": {
        "city": "France",
        "country": "48.837579,-1.597302",
        "lat": "204",
        "lng": null
      },
      "length": 0
    },
    {
      "id": "E-1957-02",
      "year": 1957,
      "leg": "2",
      "leg_num": 0,
      "title": "Granville",
      "start": {
        "city": "France",
        "country": "48.837579,-1.597302",
        "lat": "Caen",
        "lng": null
      },
      "finish": {
        "city": "France",
        "country": "49.182863,-0.370679",
        "lat": "226",
        "lng": null
      },
      "length": 0
    },
    {
      "id": "E-1957-3a",
      "year": 1957,
      "leg": "3a",
      "leg_num": 0,
      "title": "Caen",
      "start": {
        "city": "France",
        "country": "49.182863,-0.370679",
        "lat": "Caen",
        "lng": null
      },
      "finish": {
        "city": "France",
        "country": "49.182863,-0.370679",
        "lat": "15",
        "lng": null
      },
      "length": 0
    },
    {
      "id": "E-1957-3b",
      "year": 1957,
      "leg": "3b",
      "leg_num": 0,
      "title": "Caen",
      "start": {
        "city": "France",
        "country": "49.182863,-0.370679",
        "lat": "Rouen",
        "lng": null
      },
      "finish": {
        "city": "France",
        "country": "49.443232,1.099971",
        "lat": "134",
        "lng": null
      },
      "length": 0
    },
    {
      "id": "E-1957-04",
      "year": 1957,
      "leg": "4",
      "leg_num": 0,
      "title": "Rouen",
      "start": {
        "city": "France",
        "country": "49.443232,1.099971",
        "lat": "Roubaix",
        "lng": null
      },
      "finish": {
        "city": "France",
        "country": "50.692705,3.177847",
        "lat": "232",
        "lng": null
      },
      "length": 0
    },
    {
      "id": "E-1957-05",
      "year": 1957,
      "leg": "5",
      "leg_num": 0,
      "title": "Roubaix",
      "start": {
        "city": "France",
        "country": "50.692705,3.177847",
        "lat": "Charleroi",
        "lng": null
      },
      "finish": {
        "city": "Belgique",
        "country": "50.41081,4.444643",
        "lat": "170",
        "lng": null
      },
      "length": 0
    },
    {
      "id": "E-1957-06",
      "year": 1957,
      "leg": "6",
      "leg_num": 0,
      "title": "Charleroi",
      "start": {
        "city": "Belgique",
        "country": "50.41081,4.444643",
        "lat": "Metz",
        "lng": null
      },
      "finish": {
        "city": "France",
        "country": "49.119666,6.176905",
        "lat": "248",
        "lng": null
      },
      "length": 0
    },
    {
      "id": "E-1957-07",
      "year": 1957,
      "leg": "7",
      "leg_num": 0,
      "title": "Metz",
      "start": {
        "city": "France",
        "country": "49.119666,6.176905",
        "lat": "Colmar",
        "lng": null
      },
      "finish": {
        "city": "France",
        "country": "48.079359,7.358512",
        "lat": "223",
        "lng": null
      },
      "length": 0
    },
    {
      "id": "E-1957-08",
      "year": 1957,
      "leg": "8",
      "leg_num": 0,
      "title": "Colmar",
      "start": {
        "city": "France",
        "country": "48.079359,7.358512",
        "lat": "Besançon",
        "lng": null
      },
      "finish": {
        "city": "France",
        "country": "47.237829,6.024054",
        "lat": "192",
        "lng": null
      },
      "length": 0
    },
    {
      "id": "E-1957-09",
      "year": 1957,
      "leg": "9",
      "leg_num": 0,
      "title": "Besançon",
      "start": {
        "city": "France",
        "country": "47.237829,6.024054",
        "lat": "Thonon-les-Bains",
        "lng": null
      },
      "finish": {
        "city": "France",
        "country": "46.373565,6.477635",
        "lat": "188",
        "lng": null
      },
      "length": 0
    },
    {
      "id": "E-1957-10",
      "year": 1957,
      "leg": "10",
      "leg_num": 0,
      "title": "Thonon-les-Bains",
      "start": {
        "city": "France",
        "country": "46.373565,6.477635",
        "lat": "Briançon",
        "lng": null
      },
      "finish": {
        "city": "France",
        "country": "44.899416,6.643179",
        "lat": "247",
        "lng": null
      },
      "length": 0
    },
    {
      "id": "E-1957-11",
      "year": 1957,
      "leg": "11",
      "leg_num": 0,
      "title": "Briançon",
      "start": {
        "city": "France",
        "country": "44.899416,6.643179",
        "lat": "Cannes",
        "lng": null
      },
      "finish": {
        "city": "France",
        "country": "43.552847,7.017369",
        "lat": "286",
        "lng": null
      },
      "length": 0
    },
    {
      "id": "E-1957-12",
      "year": 1957,
      "leg": "12",
      "leg_num": 0,
      "title": "Cannes",
      "start": {
        "city": "France",
        "country": "43.552847,7.017369",
        "lat": "Marseille",
        "lng": null
      },
      "finish": {
        "city": "France",
        "country": "43.296482,5.36978",
        "lat": "239",
        "lng": null
      },
      "length": 0
    },
    {
      "id": "E-1957-13",
      "year": 1957,
      "leg": "13",
      "leg_num": 0,
      "title": "Marseille",
      "start": {
        "city": "France",
        "country": "43.296482,5.36978",
        "lat": "Alès",
        "lng": null
      },
      "finish": {
        "city": "France",
        "country": "44.127204,4.083352",
        "lat": "160",
        "lng": null
      },
      "length": 0
    },
    {
      "id": "E-1957-14",
      "year": 1957,
      "leg": "14",
      "leg_num": 0,
      "title": "Alès",
      "start": {
        "city": "France",
        "country": "44.127204,4.083352",
        "lat": "Perpignan",
        "lng": null
      },
      "finish": {
        "city": "France",
        "country": "42.698684,2.895872",
        "lat": "246",
        "lng": null
      },
      "length": 0
    },
    {
      "id": "E-1957-15a",
      "year": 1957,
      "leg": "15a",
      "leg_num": 0,
      "title": "Perpignan",
      "start": {
        "city": "France",
        "country": "42.698684,2.895872",
        "lat": "Barcelone",
        "lng": null
      },
      "finish": {
        "city": "Espagne",
        "country": "41.385064,2.173404",
        "lat": "197",
        "lng": null
      },
      "length": 0
    },
    {
      "id": "E-1957-15b",
      "year": 1957,
      "leg": "15b",
      "leg_num": 0,
      "title": "Barcelone",
      "start": {
        "city": "Espagne",
        "country": "41.385064,2.173404",
        "lat": "Barcelone",
        "lng": null
      },
      "finish": {
        "city": "Espagne",
        "country": "41.385064,2.173404",
        "lat": "10",
        "lng": null
      },
      "length": 0
    },
    {
      "id": "E-1957-16",
      "year": 1957,
      "leg": "16",
      "leg_num": 0,
      "title": "Barcelone",
      "start": {
        "city": "Espagne",
        "country": "41.385064,2.173404",
        "lat": "Ax-les-Thermes",
        "lng": null
      },
      "finish": {
        "city": "France",
        "country": "42.720254,1.837545",
        "lat": "220",
        "lng": null
      },
      "length": 0
    },
    {
      "id": "E-1957-17",
      "year": 1957,
      "leg": "17",
      "leg_num": 0,
      "title": "Ax-les-Thermes",
      "start": {
        "city": "France",
        "country": "42.720254,1.837545",
        "lat": "Saint-Gaudens",
        "lng": null
      },
      "finish": {
        "city": "France",
        "country": "43.106895,0.723763",
        "lat": "236",
        "lng": null
      },
      "length": 0
    },
    {
      "id": "E-1957-18",
      "year": 1957,
      "leg": "18",
      "leg_num": 0,
      "title": "Saint-Gaudens",
      "start": {
        "city": "France",
        "country": "43.106895,0.723763",
        "lat": "Pau",
        "lng": null
      },
      "finish": {
        "city": "France",
        "country": "43.2951,-0.370797",
        "lat": "207",
        "lng": null
      },
      "length": 0
    },
    {
      "id": "E-1957-19",
      "year": 1957,
      "leg": "19",
      "leg_num": 0,
      "title": "Pau",
      "start": {
        "city": "France",
        "country": "43.2951,-0.370797",
        "lat": "Bordeaux",
        "lng": null
      },
      "finish": {
        "city": "France",
        "country": "44.837789,-0.57918",
        "lat": "194",
        "lng": null
      },
      "length": 0
    },
    {
      "id": "E-1957-20",
      "year": 1957,
      "leg": "20",
      "leg_num": 0,
      "title": "Bordeaux",
      "start": {
        "city": "France",
        "country": "44.837789,-0.57918",
        "lat": "Libourne",
        "lng": null
      },
      "finish": {
        "city": "France",
        "country": "44.912998,-0.243985",
        "lat": "66",
        "lng": null
      },
      "length": 0
    },
    {
      "id": "E-1957-21",
      "year": 1957,
      "leg": "21",
      "leg_num": 0,
      "title": "Libourne",
      "start": {
        "city": "France",
        "country": "44.912998,-0.243985",
        "lat": "Tours",
        "lng": null
      },
      "finish": {
        "city": "France",
        "country": "47.394144,0.68484",
        "lat": "317",
        "lng": null
      },
      "length": 0
    },
    {
      "id": "E-1957-22",
      "year": 1957,
      "leg": "22",
      "leg_num": 0,
      "title": "Tours",
      "start": {
        "city": "France",
        "country": "47.394144,0.68484",
        "lat": "Paris",
        "lng": null
      },
      "finish": {
        "city": "France",
        "country": "48.856614,2.352222",
        "lat": "227",
        "lng": null
      },
      "length": 0
    }
  ]
}