{
  "year": 1958,
  "edition": 45,
  "total_length": 4319,
  "nb_legs": 24,
  "has_prologue": false,
  "nb_concurrents": 120,
  "nb_finishers": 78,
  "pct_finishers": 65,
  "winner_first_name": "Charly",
  "winner_last_name": "Gaul",
  "winner_id": "charly-gaul",
  "winner_total_time": "116h 59' 05\"",
  "winner_age": "25",
  "winner_country": "Luxembourg",
  "winner_avg_speed": "36,919",
  "ahead_of_2nd": "0h 03' 10\" ",
  "second_name": "V. Favero",
  "second_country": "Italie",
  "second_id": null,
  "ahead_of_3rd": "0h 03' 41\"",
  "third_name": "R. Geminiani",
  "third_country": "France",
  "third_id": null,
  "legs": [
    {
      "id": "E-1958-01",
      "year": 1958,
      "leg": "1",
      "leg_num": 1,
      "title": "Bruxelles (Bel.) - Gand (Bel.)",
      "start": {
        "city": "Bruxelles",
        "country": "Belgique",
        "lat": "50.85034",
        "lng": "4.35171"
      },
      "finish": {
        "city": "Gand",
        "country": "Belgique",
        "lat": "51.053468",
        "lng": "3.73038"
      },
      "length": 184
    },
    {
      "id": "E-1958-02",
      "year": 1958,
      "leg": "2",
      "leg_num": 2,
      "title": "Gand (Bel.) - Dunkerque",
      "start": {
        "city": "Gand",
        "country": "Belgique",
        "lat": "51.053468",
        "lng": "3.73038"
      },
      "finish": {
        "city": "Dunkerque",
        "country": "France",
        "lat": "51.03456",
        "lng": "2.375202"
      },
      "length": 198
    },
    {
      "id": "E-1958-03",
      "year": 1958,
      "leg": "3",
      "leg_num": 3,
      "title": "Dunkerque - Le Tréport",
      "start": {
        "city": "Dunkerque",
        "country": "France",
        "lat": "51.03456",
        "lng": "2.375202"
      },
      "finish": {
        "city": "Le Tréport",
        "country": "France",
        "lat": "50.05917",
        "lng": "1.382472"
      },
      "length": 177
    },
    {
      "id": "E-1958-04",
      "year": 1958,
      "leg": "4",
      "leg_num": 4,
      "title": "Le Tréport - Versailles",
      "start": {
        "city": "Le Tréport",
        "country": "France",
        "lat": "50.05917",
        "lng": "1.382472"
      },
      "finish": {
        "city": "Versailles",
        "country": "France",
        "lat": "48.801408",
        "lng": "2.130122"
      },
      "length": 205
    },
    {
      "id": "E-1958-05",
      "year": 1958,
      "leg": "5",
      "leg_num": 5,
      "title": "Versailles - Caen",
      "start": {
        "city": "Versailles",
        "country": "France",
        "lat": "48.801408",
        "lng": "2.130122"
      },
      "finish": {
        "city": "Caen",
        "country": "France",
        "lat": "49.182863",
        "lng": "-0.370679"
      },
      "length": 232
    },
    {
      "id": "E-1958-06",
      "year": 1958,
      "leg": "6",
      "leg_num": 6,
      "title": "Caen - Saint-Brieuc",
      "start": {
        "city": "Caen",
        "country": "France",
        "lat": "49.182863",
        "lng": "-0.370679"
      },
      "finish": {
        "city": "Saint-Brieuc",
        "country": "France",
        "lat": "48.51418",
        "lng": "-2.765835"
      },
      "length": 223
    },
    {
      "id": "E-1958-07",
      "year": 1958,
      "leg": "7",
      "leg_num": 7,
      "title": "Saint-Brieuc - Brest",
      "start": {
        "city": "Saint-Brieuc",
        "country": "France",
        "lat": "48.51418",
        "lng": "-2.765835"
      },
      "finish": {
        "city": "Brest",
        "country": "France",
        "lat": "48.390394",
        "lng": "-4.486076"
      },
      "length": 170
    },
    {
      "id": "E-1958-08",
      "year": 1958,
      "leg": "8",
      "leg_num": 8,
      "title": "Circuit de Châteaulin",
      "start": {
        "city": "Châteaulin",
        "country": "France",
        "lat": "48.195389",
        "lng": "-4.094207"
      },
      "finish": {
        "city": "Châteaulin",
        "country": "France",
        "lat": "48.195389",
        "lng": "-4.094207"
      },
      "length": 46
    },
    {
      "id": "E-1958-09",
      "year": 1958,
      "leg": "9",
      "leg_num": 9,
      "title": "Quimper - Saint-Nazaire",
      "start": {
        "city": "Quimper",
        "country": "France",
        "lat": "47.997542",
        "lng": "-4.097899"
      },
      "finish": {
        "city": "Saint-Nazaire",
        "country": "France",
        "lat": "47.273498",
        "lng": "-2.213848"
      },
      "length": 206
    },
    {
      "id": "E-1958-10",
      "year": 1958,
      "leg": "10",
      "leg_num": 10,
      "title": "Saint-Brévin - Royan",
      "start": {
        "city": "Saint-Brévin",
        "country": "France",
        "lat": "47.24666",
        "lng": "-2.16581"
      },
      "finish": {
        "city": "Royan",
        "country": "France",
        "lat": "45.623027",
        "lng": "-1.043182"
      },
      "length": 255
    },
    {
      "id": "E-1958-11",
      "year": 1958,
      "leg": "11",
      "leg_num": 11,
      "title": "Royan - Bordeaux",
      "start": {
        "city": "Royan",
        "country": "France",
        "lat": "45.623027",
        "lng": "-1.043182"
      },
      "finish": {
        "city": "Bordeaux",
        "country": "France",
        "lat": "44.837789",
        "lng": "-0.57918"
      },
      "length": 137
    },
    {
      "id": "E-1958-12",
      "year": 1958,
      "leg": "12",
      "leg_num": 12,
      "title": "Bordeaux - Dax",
      "start": {
        "city": "Bordeaux",
        "country": "France",
        "lat": "44.837789",
        "lng": "-0.57918"
      },
      "finish": {
        "city": "Dax",
        "country": "France",
        "lat": "43.708608",
        "lng": "-1.051945"
      },
      "length": 161
    },
    {
      "id": "E-1958-13",
      "year": 1958,
      "leg": "13",
      "leg_num": 13,
      "title": "Dax - Pau",
      "start": {
        "city": "Dax",
        "country": "France",
        "lat": "43.708608",
        "lng": "-1.051945"
      },
      "finish": {
        "city": "Pau",
        "country": "France",
        "lat": "43.2951",
        "lng": "-0.370797"
      },
      "length": 230
    },
    {
      "id": "E-1958-14",
      "year": 1958,
      "leg": "14",
      "leg_num": 14,
      "title": "Pau - Luchon",
      "start": {
        "city": "Pau",
        "country": "France",
        "lat": "43.2951",
        "lng": "-0.370797"
      },
      "finish": {
        "city": "Luchon",
        "country": "France",
        "lat": "42.788963",
        "lng": "0.592943"
      },
      "length": 129
    },
    {
      "id": "E-1958-15",
      "year": 1958,
      "leg": "15",
      "leg_num": 15,
      "title": "Luchon - Toulouse",
      "start": {
        "city": "Luchon",
        "country": "France",
        "lat": "42.788963",
        "lng": "0.592943"
      },
      "finish": {
        "city": "Toulouse",
        "country": "France",
        "lat": "43.604652",
        "lng": "1.444209"
      },
      "length": 176
    },
    {
      "id": "E-1958-16",
      "year": 1958,
      "leg": "16",
      "leg_num": 16,
      "title": "Toulouse - Béziers",
      "start": {
        "city": "Toulouse",
        "country": "France",
        "lat": "43.604652",
        "lng": "1.444209"
      },
      "finish": {
        "city": "Béziers",
        "country": "France",
        "lat": "43.344233",
        "lng": "3.215795"
      },
      "length": 187
    },
    {
      "id": "E-1958-17",
      "year": 1958,
      "leg": "17",
      "leg_num": 17,
      "title": "Béziers - Nîmes",
      "start": {
        "city": "Béziers",
        "country": "France",
        "lat": "43.344233",
        "lng": "3.215795"
      },
      "finish": {
        "city": "Nîmes",
        "country": "France",
        "lat": "43.836699",
        "lng": "4.360054"
      },
      "length": 189
    },
    {
      "id": "E-1958-18",
      "year": 1958,
      "leg": "18",
      "leg_num": 18,
      "title": "Bédoin - Mont Ventoux",
      "start": {
        "city": "Bédoin",
        "country": "France",
        "lat": "44.124008",
        "lng": "5.180374"
      },
      "finish": {
        "city": "Mont Ventoux (Bédoin)",
        "country": "France",
        "lat": "44.173925",
        "lng": "5.283795"
      },
      "length": 22
    },
    {
      "id": "E-1958-19",
      "year": 1958,
      "leg": "19",
      "leg_num": 19,
      "title": "Carpentras - Gap",
      "start": {
        "city": "Carpentras",
        "country": "France",
        "lat": "44.055564",
        "lng": "5.048722"
      },
      "finish": {
        "city": "Gap",
        "country": "France",
        "lat": "44.559638",
        "lng": "6.079758"
      },
      "length": 178
    },
    {
      "id": "E-1958-20",
      "year": 1958,
      "leg": "20",
      "leg_num": 20,
      "title": "Gap - Briançon",
      "start": {
        "city": "Gap",
        "country": "France",
        "lat": "44.559638",
        "lng": "6.079758"
      },
      "finish": {
        "city": "Briançon",
        "country": "France",
        "lat": "44.899416",
        "lng": "6.643179"
      },
      "length": 165
    },
    {
      "id": "E-1958-21",
      "year": 1958,
      "leg": "21",
      "leg_num": 21,
      "title": "Briançon - Aix-les-Bains",
      "start": {
        "city": "Briançon",
        "country": "France",
        "lat": "44.899416",
        "lng": "6.643179"
      },
      "finish": {
        "city": "Aix-les-Bains",
        "country": "France",
        "lat": "45.692341",
        "lng": "5.908998"
      },
      "length": 219
    },
    {
      "id": "E-1958-22",
      "year": 1958,
      "leg": "22",
      "leg_num": 22,
      "title": "Aix-les-Bains - Besançon",
      "start": {
        "city": "Aix-les-Bains",
        "country": "France",
        "lat": "45.692341",
        "lng": "5.908998"
      },
      "finish": {
        "city": "Besançon",
        "country": "France",
        "lat": "47.237829",
        "lng": "6.024054"
      },
      "length": 237
    },
    {
      "id": "E-1958-23",
      "year": 1958,
      "leg": "23",
      "leg_num": 23,
      "title": "Besançon - Dijon",
      "start": {
        "city": "Besançon",
        "country": "France",
        "lat": "47.237829",
        "lng": "6.024054"
      },
      "finish": {
        "city": "Dijon",
        "country": "France",
        "lat": "47.322047",
        "lng": "5.04148"
      },
      "length": 74
    },
    {
      "id": "E-1958-24",
      "year": 1958,
      "leg": "24",
      "leg_num": 24,
      "title": "Dijon - Paris",
      "start": {
        "city": "Dijon",
        "country": "France",
        "lat": "47.322047",
        "lng": "5.04148"
      },
      "finish": {
        "city": "Paris",
        "country": "France",
        "lat": "48.856614",
        "lng": "2.352222"
      },
      "length": 320
    }
  ]
}