{
  "year": 1959,
  "edition": 46,
  "total_length": 4358,
  "nb_legs": 22,
  "has_prologue": false,
  "nb_concurrents": 120,
  "nb_finishers": 65,
  "pct_finishers": 54,
  "winner_first_name": "Federico",
  "winner_last_name": "Bahamontes",
  "winner_id": "federico-bahamontes",
  "winner_total_time": "123h 46' 45\"",
  "winner_age": "30",
  "winner_country": "Espagne",
  "winner_avg_speed": "35,474",
  "ahead_of_2nd": "0h 04' 01\" ",
  "second_name": "H. Anglade",
  "second_country": "France",
  "second_id": null,
  "ahead_of_3rd": "0h 05' 05\"",
  "third_name": "J. Anquetil",
  "third_country": "France",
  "third_id": "jacques-anquetil",
  "legs": [
    {
      "id": "E-1959-01",
      "year": 1959,
      "leg": "1",
      "leg_num": 0,
      "title": "Mulhouse",
      "start": {
        "city": "France",
        "country": "47.750839,7.335888",
        "lat": "Metz",
        "lng": null
      },
      "finish": {
        "city": "France",
        "country": "49.119666,6.176905",
        "lat": "238",
        "lng": null
      },
      "length": 0
    },
    {
      "id": "E-1959-02",
      "year": 1959,
      "leg": "2",
      "leg_num": 0,
      "title": "Metz",
      "start": {
        "city": "France",
        "country": "49.119666,6.176905",
        "lat": "Namur",
        "lng": null
      },
      "finish": {
        "city": "Belgique",
        "country": "50.465328,4.867665",
        "lat": "240",
        "lng": null
      },
      "length": 0
    },
    {
      "id": "E-1959-03",
      "year": 1959,
      "leg": "3",
      "leg_num": 0,
      "title": "Namur",
      "start": {
        "city": "Belgique",
        "country": "50.465328,4.867665",
        "lat": "Roubaix",
        "lng": null
      },
      "finish": {
        "city": "France",
        "country": "50.692705,3.177847",
        "lat": "217",
        "lng": null
      },
      "length": 0
    },
    {
      "id": "E-1959-04",
      "year": 1959,
      "leg": "4",
      "leg_num": 0,
      "title": "Roubaix",
      "start": {
        "city": "France",
        "country": "50.692705,3.177847",
        "lat": "Rouen",
        "lng": null
      },
      "finish": {
        "city": "France",
        "country": "49.443232,1.099971",
        "lat": "230",
        "lng": null
      },
      "length": 0
    },
    {
      "id": "E-1959-05",
      "year": 1959,
      "leg": "5",
      "leg_num": 0,
      "title": "Rouen",
      "start": {
        "city": "France",
        "country": "49.443232,1.099971",
        "lat": "Rennes",
        "lng": null
      },
      "finish": {
        "city": "France",
        "country": "48.113475,-1.675708",
        "lat": "286",
        "lng": null
      },
      "length": 0
    },
    {
      "id": "E-1959-06",
      "year": 1959,
      "leg": "6",
      "leg_num": 0,
      "title": "Blain",
      "start": {
        "city": "France",
        "country": "47.475279,-1.764935",
        "lat": "Nantes",
        "lng": null
      },
      "finish": {
        "city": "France",
        "country": "47.218371,-1.553621",
        "lat": "45",
        "lng": null
      },
      "length": 0
    },
    {
      "id": "E-1959-07",
      "year": 1959,
      "leg": "7",
      "leg_num": 0,
      "title": "Nantes",
      "start": {
        "city": "France",
        "country": "47.218371,-1.553621",
        "lat": "La Rochelle",
        "lng": null
      },
      "finish": {
        "city": "France",
        "country": "46.160329,-1.151139",
        "lat": "190",
        "lng": null
      },
      "length": 0
    },
    {
      "id": "E-1959-08",
      "year": 1959,
      "leg": "8",
      "leg_num": 0,
      "title": "La Rochelle",
      "start": {
        "city": "France",
        "country": "46.160329,-1.151139",
        "lat": "Bordeaux",
        "lng": null
      },
      "finish": {
        "city": "France",
        "country": "44.837789,-0.57918",
        "lat": "201",
        "lng": null
      },
      "length": 0
    },
    {
      "id": "E-1959-09",
      "year": 1959,
      "leg": "9",
      "leg_num": 0,
      "title": "Bordeaux",
      "start": {
        "city": "France",
        "country": "44.837789,-0.57918",
        "lat": "Bayonne",
        "lng": null
      },
      "finish": {
        "city": "France",
        "country": "43.492949,-1.474841",
        "lat": "207",
        "lng": null
      },
      "length": 0
    },
    {
      "id": "E-1959-10",
      "year": 1959,
      "leg": "10",
      "leg_num": 0,
      "title": "Bayonne",
      "start": {
        "city": "France",
        "country": "43.492949,-1.474841",
        "lat": "Bagnères-de-Bigorre",
        "lng": null
      },
      "finish": {
        "city": "France",
        "country": "43.065093,0.149105",
        "lat": "235",
        "lng": null
      },
      "length": 0
    },
    {
      "id": "E-1959-11",
      "year": 1959,
      "leg": "11",
      "leg_num": 0,
      "title": "Bagnères-de-Bigorre",
      "start": {
        "city": "France",
        "country": "43.065093,0.149105",
        "lat": "Saint-Gaudens",
        "lng": null
      },
      "finish": {
        "city": "France",
        "country": "43.106895,0.723763",
        "lat": "119",
        "lng": null
      },
      "length": 0
    },
    {
      "id": "E-1959-12",
      "year": 1959,
      "leg": "12",
      "leg_num": 0,
      "title": "Saint-Gaudens",
      "start": {
        "city": "France",
        "country": "43.106895,0.723763",
        "lat": "Albi",
        "lng": null
      },
      "finish": {
        "city": "France",
        "country": "43.926896,2.146343",
        "lat": "184",
        "lng": null
      },
      "length": 0
    },
    {
      "id": "E-1959-13",
      "year": 1959,
      "leg": "13",
      "leg_num": 0,
      "title": "Albi",
      "start": {
        "city": "France",
        "country": "43.926896,2.146343",
        "lat": "Aurillac",
        "lng": null
      },
      "finish": {
        "city": "France",
        "country": "44.930953,2.444997",
        "lat": "219",
        "lng": null
      },
      "length": 0
    },
    {
      "id": "E-1959-14",
      "year": 1959,
      "leg": "14",
      "leg_num": 0,
      "title": "Aurillac",
      "start": {
        "city": "France",
        "country": "44.930953,2.444997",
        "lat": "Clermont-Ferrand",
        "lng": null
      },
      "finish": {
        "city": "France",
        "country": "45.777222,3.087025",
        "lat": "231",
        "lng": null
      },
      "length": 0
    },
    {
      "id": "E-1959-15",
      "year": 1959,
      "leg": "15",
      "leg_num": 0,
      "title": "Puy de Dôme",
      "start": {
        "city": "France",
        "country": "45.77207,2.96974",
        "lat": "Puy de Dôme",
        "lng": null
      },
      "finish": {
        "city": "France",
        "country": "45.77207,2.96974",
        "lat": "13",
        "lng": null
      },
      "length": 0
    },
    {
      "id": "E-1959-16",
      "year": 1959,
      "leg": "16",
      "leg_num": 0,
      "title": "Clermont-Ferrand",
      "start": {
        "city": "France",
        "country": "45.777222,3.087025",
        "lat": "Saint-Étienne",
        "lng": null
      },
      "finish": {
        "city": "France",
        "country": "45.439695,4.387178",
        "lat": "210",
        "lng": null
      },
      "length": 0
    },
    {
      "id": "E-1959-17",
      "year": 1959,
      "leg": "17",
      "leg_num": 0,
      "title": "Saint-Étienne",
      "start": {
        "city": "France",
        "country": "45.439695,4.387178",
        "lat": "Grenoble",
        "lng": null
      },
      "finish": {
        "city": "France",
        "country": "45.188529,5.724524",
        "lat": "197",
        "lng": null
      },
      "length": 0
    },
    {
      "id": "E-1959-18",
      "year": 1959,
      "leg": "18",
      "leg_num": 0,
      "title": "Le Lautaret",
      "start": {
        "city": "France",
        "country": "45.035408,6.40514",
        "lat": "Aoste",
        "lng": null
      },
      "finish": {
        "city": "Italie",
        "country": "45.73279,7.32101",
        "lat": "243",
        "lng": null
      },
      "length": 0
    },
    {
      "id": "E-1959-19",
      "year": 1959,
      "leg": "19",
      "leg_num": 0,
      "title": "Aoste",
      "start": {
        "city": "Italie",
        "country": "45.73279,7.32101",
        "lat": "Annecy",
        "lng": null
      },
      "finish": {
        "city": "France",
        "country": "45.899247,6.129384",
        "lat": "251",
        "lng": null
      },
      "length": 0
    },
    {
      "id": "E-1959-20",
      "year": 1959,
      "leg": "20",
      "leg_num": 0,
      "title": "Annecy",
      "start": {
        "city": "France",
        "country": "45.899247,6.129384",
        "lat": "Chalon-sur-Saône",
        "lng": null
      },
      "finish": {
        "city": "France",
        "country": "46.780764,4.853947",
        "lat": "202",
        "lng": null
      },
      "length": 0
    },
    {
      "id": "E-1959-21",
      "year": 1959,
      "leg": "21",
      "leg_num": 0,
      "title": "Seurre",
      "start": {
        "city": "France",
        "country": "46.999317,5.145516",
        "lat": "Dijon",
        "lng": null
      },
      "finish": {
        "city": "France",
        "country": "47.322047,5.04148",
        "lat": "69",
        "lng": null
      },
      "length": 0
    },
    {
      "id": "E-1959-22",
      "year": 1959,
      "leg": "22",
      "leg_num": 0,
      "title": "Dijon",
      "start": {
        "city": "France",
        "country": "47.322047,5.04148",
        "lat": "Paris",
        "lng": null
      },
      "finish": {
        "city": "France",
        "country": "48.856614,2.352222",
        "lat": "331",
        "lng": null
      },
      "length": 0
    }
  ]
}