{
  "year": 1960,
  "edition": 47,
  "total_length": 4173,
  "nb_legs": 21,
  "has_prologue": false,
  "nb_concurrents": 128,
  "nb_finishers": 81,
  "pct_finishers": 63,
  "winner_first_name": "Gastone",
  "winner_last_name": "Nencini",
  "winner_id": "gastone-nencini",
  "winner_total_time": "112h 08' 42\"",
  "winner_age": "30",
  "winner_country": "Italie",
  "winner_avg_speed": "37,210",
  "ahead_of_2nd": "0h 05' 02\" ",
  "second_name": "G. Battistini",
  "second_country": "Italie",
  "second_id": null,
  "ahead_of_3rd": "0h 10' 24\"",
  "third_name": "J. Adriaensens",
  "third_country": "Belgique",
  "third_id": null,
  "legs": [
    {
      "id": "E-1960-1a",
      "year": 1960,
      "leg": "1a",
      "leg_num": 0,
      "title": "Lille",
      "start": {
        "city": "France",
        "country": "50.62925,3.057256",
        "lat": "Bruxelles",
        "lng": null
      },
      "finish": {
        "city": "Belgique",
        "country": "50.85034,4.35171",
        "lat": "108",
        "lng": null
      },
      "length": 0
    },
    {
      "id": "E-1960-1b",
      "year": 1960,
      "leg": "1b",
      "leg_num": 0,
      "title": "Bruxelles",
      "start": {
        "city": "Belgique",
        "country": "50.85034,4.35171",
        "lat": "Bruxelles",
        "lng": null
      },
      "finish": {
        "city": "Belgique",
        "country": "50.85034,4.35171",
        "lat": "28",
        "lng": null
      },
      "length": 0
    },
    {
      "id": "E-1960-02",
      "year": 1960,
      "leg": "2",
      "leg_num": 0,
      "title": "Bruxelles",
      "start": {
        "city": "Belgique",
        "country": "50.85034,4.35171",
        "lat": "Malo-les-Bains",
        "lng": null
      },
      "finish": {
        "city": "France",
        "country": "51.046636,2.398274",
        "lat": "208",
        "lng": null
      },
      "length": 0
    },
    {
      "id": "E-1960-03",
      "year": 1960,
      "leg": "3",
      "leg_num": 0,
      "title": "Malo-les-Bains",
      "start": {
        "city": "France",
        "country": "51.046636,2.398274",
        "lat": "Dieppe",
        "lng": null
      },
      "finish": {
        "city": "France",
        "country": "49.922992,1.077483",
        "lat": "209",
        "lng": null
      },
      "length": 0
    },
    {
      "id": "E-1960-04",
      "year": 1960,
      "leg": "4",
      "leg_num": 0,
      "title": "Dieppe",
      "start": {
        "city": "France",
        "country": "49.922992,1.077483",
        "lat": "Caen",
        "lng": null
      },
      "finish": {
        "city": "France",
        "country": "49.182863,-0.370679",
        "lat": "211",
        "lng": null
      },
      "length": 0
    },
    {
      "id": "E-1960-05",
      "year": 1960,
      "leg": "5",
      "leg_num": 0,
      "title": "Caen",
      "start": {
        "city": "France",
        "country": "49.182863,-0.370679",
        "lat": "Saint-Malo",
        "lng": null
      },
      "finish": {
        "city": "France",
        "country": "48.649337,-2.025674",
        "lat": "189",
        "lng": null
      },
      "length": 0
    },
    {
      "id": "E-1960-06",
      "year": 1960,
      "leg": "6",
      "leg_num": 0,
      "title": "Saint-Malo",
      "start": {
        "city": "France",
        "country": "48.649337,-2.025674",
        "lat": "Lorient",
        "lng": null
      },
      "finish": {
        "city": "France",
        "country": "47.748252,-3.370245",
        "lat": "191",
        "lng": null
      },
      "length": 0
    },
    {
      "id": "E-1960-07",
      "year": 1960,
      "leg": "7",
      "leg_num": 0,
      "title": "Lorient",
      "start": {
        "city": "France",
        "country": "47.748252,-3.370245",
        "lat": "Angers",
        "lng": null
      },
      "finish": {
        "city": "France",
        "country": "47.478419,-0.563166",
        "lat": "244",
        "lng": null
      },
      "length": 0
    },
    {
      "id": "E-1960-08",
      "year": 1960,
      "leg": "8",
      "leg_num": 0,
      "title": "Angers",
      "start": {
        "city": "France",
        "country": "47.478419,-0.563166",
        "lat": "Limoges",
        "lng": null
      },
      "finish": {
        "city": "France",
        "country": "45.833619,1.261105",
        "lat": "240",
        "lng": null
      },
      "length": 0
    },
    {
      "id": "E-1960-09",
      "year": 1960,
      "leg": "9",
      "leg_num": 0,
      "title": "Limoges",
      "start": {
        "city": "France",
        "country": "45.833619,1.261105",
        "lat": "Bordeaux",
        "lng": null
      },
      "finish": {
        "city": "France",
        "country": "44.837789,-0.57918",
        "lat": "225",
        "lng": null
      },
      "length": 0
    },
    {
      "id": "E-1960-10",
      "year": 1960,
      "leg": "10",
      "leg_num": 0,
      "title": "Mont-de-Marsan",
      "start": {
        "city": "France",
        "country": "43.893485,-0.499782",
        "lat": "Pau",
        "lng": null
      },
      "finish": {
        "city": "France",
        "country": "43.2951,-0.370797",
        "lat": "228",
        "lng": null
      },
      "length": 0
    },
    {
      "id": "E-1960-11",
      "year": 1960,
      "leg": "11",
      "leg_num": 0,
      "title": "Pau",
      "start": {
        "city": "France",
        "country": "43.2951,-0.370797",
        "lat": "Luchon",
        "lng": null
      },
      "finish": {
        "city": "France",
        "country": "42.788963,0.592943",
        "lat": "161",
        "lng": null
      },
      "length": 0
    },
    {
      "id": "E-1960-12",
      "year": 1960,
      "leg": "12",
      "leg_num": 0,
      "title": "Luchon",
      "start": {
        "city": "France",
        "country": "42.788963,0.592943",
        "lat": "Toulouse",
        "lng": null
      },
      "finish": {
        "city": "France",
        "country": "43.604652,1.444209",
        "lat": "176",
        "lng": null
      },
      "length": 0
    },
    {
      "id": "E-1960-13",
      "year": 1960,
      "leg": "13",
      "leg_num": 0,
      "title": "Toulouse",
      "start": {
        "city": "France",
        "country": "43.604652,1.444209",
        "lat": "Millau",
        "lng": null
      },
      "finish": {
        "city": "France",
        "country": "44.100575,3.077801",
        "lat": "224",
        "lng": null
      },
      "length": 0
    },
    {
      "id": "E-1960-14",
      "year": 1960,
      "leg": "14",
      "leg_num": 0,
      "title": "Millau",
      "start": {
        "city": "France",
        "country": "44.100575,3.077801",
        "lat": "Avignon",
        "lng": null
      },
      "finish": {
        "city": "France",
        "country": "43.949317,4.805528",
        "lat": "217",
        "lng": null
      },
      "length": 0
    },
    {
      "id": "E-1960-15",
      "year": 1960,
      "leg": "15",
      "leg_num": 0,
      "title": "Avignon",
      "start": {
        "city": "France",
        "country": "43.949317,4.805528",
        "lat": "Gap",
        "lng": null
      },
      "finish": {
        "city": "France",
        "country": "44.559638,6.079758",
        "lat": "187",
        "lng": null
      },
      "length": 0
    },
    {
      "id": "E-1960-16",
      "year": 1960,
      "leg": "16",
      "leg_num": 0,
      "title": "Gap",
      "start": {
        "city": "France",
        "country": "44.559638,6.079758",
        "lat": "Briançon",
        "lng": null
      },
      "finish": {
        "city": "France",
        "country": "44.899416,6.643179",
        "lat": "172",
        "lng": null
      },
      "length": 0
    },
    {
      "id": "E-1960-17",
      "year": 1960,
      "leg": "17",
      "leg_num": 0,
      "title": "Briançon",
      "start": {
        "city": "France",
        "country": "44.899416,6.643179",
        "lat": "Aix-les-Bains",
        "lng": null
      },
      "finish": {
        "city": "France",
        "country": "45.692341,5.908998",
        "lat": "229",
        "lng": null
      },
      "length": 0
    },
    {
      "id": "E-1960-18",
      "year": 1960,
      "leg": "18",
      "leg_num": 0,
      "title": "Aix-les-Bains",
      "start": {
        "city": "France",
        "country": "45.692341,5.908998",
        "lat": "Thonon-les-Bains",
        "lng": null
      },
      "finish": {
        "city": "France",
        "country": "46.373565,6.477635",
        "lat": "215",
        "lng": null
      },
      "length": 0
    },
    {
      "id": "E-1960-19",
      "year": 1960,
      "leg": "19",
      "leg_num": 0,
      "title": "Pontarlier",
      "start": {
        "city": "France",
        "country": "46.904104,6.354242",
        "lat": "Besançon",
        "lng": null
      },
      "finish": {
        "city": "France",
        "country": "47.237829,6.024054",
        "lat": "83",
        "lng": null
      },
      "length": 0
    },
    {
      "id": "E-1960-20",
      "year": 1960,
      "leg": "20",
      "leg_num": 0,
      "title": "Besançon",
      "start": {
        "city": "France",
        "country": "47.237829,6.024054",
        "lat": "Troyes",
        "lng": null
      },
      "finish": {
        "city": "France",
        "country": "48.296592,4.074735",
        "lat": "229",
        "lng": null
      },
      "length": 0
    },
    {
      "id": "E-1960-21",
      "year": 1960,
      "leg": "21",
      "leg_num": 0,
      "title": "Troyes",
      "start": {
        "city": "France",
        "country": "48.296592,4.074735",
        "lat": "Paris",
        "lng": null
      },
      "finish": {
        "city": "France",
        "country": "48.856614,2.352222",
        "lat": "200",
        "lng": null
      },
      "length": 0
    }
  ]
}