{
  "year": 1961,
  "edition": 48,
  "total_length": 4397,
  "nb_legs": 21,
  "has_prologue": false,
  "nb_concurrents": 132,
  "nb_finishers": 72,
  "pct_finishers": 55,
  "winner_first_name": "Jacques",
  "winner_last_name": "Anquetil",
  "winner_id": "jacques-anquetil",
  "winner_total_time": "122h 01' 33\"",
  "winner_age": "27",
  "winner_country": "France",
  "winner_avg_speed": "36,033",
  "ahead_of_2nd": "0h 12' 14\" ",
  "second_name": "G. CarlesiI",
  "second_country": "Italie",
  "second_id": null,
  "ahead_of_3rd": "0h 12' 16\"",
  "third_name": "C. Gaul",
  "third_country": "Luxembourg",
  "third_id": null,
  "legs": [
    {
      "id": "E-1961-1a",
      "year": 1961,
      "leg": "1a",
      "leg_num": 0,
      "title": "Rouen",
      "start": {
        "city": "France",
        "country": "49.443232,1.099971",
        "lat": "Versailles",
        "lng": null
      },
      "finish": {
        "city": "France",
        "country": "48.801408,2.130122",
        "lat": "136",
        "lng": "5"
      },
      "length": 0
    },
    {
      "id": "E-1961-1b",
      "year": 1961,
      "leg": "1b",
      "leg_num": 0,
      "title": "Versailles",
      "start": {
        "city": "France",
        "country": "48.801408,2.130122",
        "lat": "Versailles",
        "lng": null
      },
      "finish": {
        "city": "France",
        "country": "48.801408,2.130122",
        "lat": "28",
        "lng": "5"
      },
      "length": 0
    },
    {
      "id": "E-1961-02",
      "year": 1961,
      "leg": "2",
      "leg_num": 0,
      "title": "Pontoise",
      "start": {
        "city": "France",
        "country": "49.050966,2.100645",
        "lat": "Roubaix",
        "lng": null
      },
      "finish": {
        "city": "France",
        "country": "50.692705,3.177847",
        "lat": "230",
        "lng": "5"
      },
      "length": 0
    },
    {
      "id": "E-1961-03",
      "year": 1961,
      "leg": "3",
      "leg_num": 0,
      "title": "Roubaix",
      "start": {
        "city": "France",
        "country": "50.692705,3.177847",
        "lat": "Charleroi",
        "lng": null
      },
      "finish": {
        "city": "Belgique",
        "country": "50.41081,4.444643",
        "lat": "197",
        "lng": "5"
      },
      "length": 0
    },
    {
      "id": "E-1961-04",
      "year": 1961,
      "leg": "4",
      "leg_num": 0,
      "title": "Charleroi",
      "start": {
        "city": "Belgique",
        "country": "50.41081,4.444643",
        "lat": "Metz",
        "lng": null
      },
      "finish": {
        "city": "France",
        "country": "49.119666,6.176905",
        "lat": "237",
        "lng": "5"
      },
      "length": 0
    },
    {
      "id": "E-1961-05",
      "year": 1961,
      "leg": "5",
      "leg_num": 0,
      "title": "Metz",
      "start": {
        "city": "France",
        "country": "49.119666,6.176905",
        "lat": "Strasbourg",
        "lng": null
      },
      "finish": {
        "city": "France",
        "country": "48.583148,7.747882",
        "lat": "221",
        "lng": null
      },
      "length": 0
    },
    {
      "id": "E-1961-06",
      "year": 1961,
      "leg": "6",
      "leg_num": 0,
      "title": "Strasbourg",
      "start": {
        "city": "France",
        "country": "48.583148,7.747882",
        "lat": "Belfort",
        "lng": null
      },
      "finish": {
        "city": "France",
        "country": "47.639674,6.863849",
        "lat": "180",
        "lng": "5"
      },
      "length": 0
    },
    {
      "id": "E-1961-07",
      "year": 1961,
      "leg": "7",
      "leg_num": 0,
      "title": "Belfort",
      "start": {
        "city": "France",
        "country": "47.639674,6.863849",
        "lat": "Chalon-sur-Saône",
        "lng": null
      },
      "finish": {
        "city": "France",
        "country": "46.780764,4.853947",
        "lat": "214",
        "lng": "5"
      },
      "length": 0
    },
    {
      "id": "E-1961-08",
      "year": 1961,
      "leg": "8",
      "leg_num": 0,
      "title": "Chalon-sur-Saône",
      "start": {
        "city": "France",
        "country": "46.780764,4.853947",
        "lat": "Saint-Étienne",
        "lng": null
      },
      "finish": {
        "city": "France",
        "country": "45.439695,4.387178",
        "lat": "240",
        "lng": "5"
      },
      "length": 0
    },
    {
      "id": "E-1961-09",
      "year": 1961,
      "leg": "9",
      "leg_num": 0,
      "title": "Saint-Étienne",
      "start": {
        "city": "France",
        "country": "45.439695,4.387178",
        "lat": "Grenoble",
        "lng": null
      },
      "finish": {
        "city": "France",
        "country": "45.188529,5.724524",
        "lat": "230",
        "lng": null
      },
      "length": 0
    },
    {
      "id": "E-1961-10",
      "year": 1961,
      "leg": "10",
      "leg_num": 0,
      "title": "Grenoble",
      "start": {
        "city": "France",
        "country": "45.188529,5.724524",
        "lat": "Turin",
        "lng": null
      },
      "finish": {
        "city": "Italie",
        "country": "45.070982,7.685676",
        "lat": "250",
        "lng": "5"
      },
      "length": 0
    },
    {
      "id": "E-1961-11",
      "year": 1961,
      "leg": "11",
      "leg_num": 0,
      "title": "Turin",
      "start": {
        "city": "Italie",
        "country": "45.070982,7.685676",
        "lat": "Antibes",
        "lng": null
      },
      "finish": {
        "city": "France",
        "country": "43.580418,7.125102",
        "lat": "225",
        "lng": null
      },
      "length": 0
    },
    {
      "id": "E-1961-12",
      "year": 1961,
      "leg": "12",
      "leg_num": 0,
      "title": "Antibes",
      "start": {
        "city": "France",
        "country": "43.580418,7.125102",
        "lat": "Aix-en-Provence",
        "lng": null
      },
      "finish": {
        "city": "France",
        "country": "43.529742,5.447427",
        "lat": "199",
        "lng": null
      },
      "length": 0
    },
    {
      "id": "E-1961-13",
      "year": 1961,
      "leg": "13",
      "leg_num": 0,
      "title": "Aix-en-Provence",
      "start": {
        "city": "France",
        "country": "43.529742,5.447427",
        "lat": "Montpellier",
        "lng": null
      },
      "finish": {
        "city": "France",
        "country": "43.610769,3.876716",
        "lat": "177",
        "lng": "5"
      },
      "length": 0
    },
    {
      "id": "E-1961-14",
      "year": 1961,
      "leg": "14",
      "leg_num": 0,
      "title": "Montpellier",
      "start": {
        "city": "France",
        "country": "43.610769,3.876716",
        "lat": "Perpignan",
        "lng": null
      },
      "finish": {
        "city": "France",
        "country": "42.698684,2.895872",
        "lat": "174",
        "lng": null
      },
      "length": 0
    },
    {
      "id": "E-1961-15",
      "year": 1961,
      "leg": "15",
      "leg_num": 0,
      "title": "Perpignan",
      "start": {
        "city": "France",
        "country": "42.698684,2.895872",
        "lat": "Toulouse",
        "lng": null
      },
      "finish": {
        "city": "France",
        "country": "43.604652,1.444209",
        "lat": "206",
        "lng": null
      },
      "length": 0
    },
    {
      "id": "E-1961-16",
      "year": 1961,
      "leg": "16",
      "leg_num": 0,
      "title": "Toulouse",
      "start": {
        "city": "France",
        "country": "43.604652,1.444209",
        "lat": "Superbagnères",
        "lng": " Saint-Aventin"
      },
      "finish": {
        "city": "France",
        "country": "42.768576,0.576927",
        "lat": "208",
        "lng": null
      },
      "length": 0
    },
    {
      "id": "E-1961-17",
      "year": 1961,
      "leg": "17",
      "leg_num": 0,
      "title": "Luchon",
      "start": {
        "city": "France",
        "country": "42.788963,0.592943",
        "lat": "Pau",
        "lng": null
      },
      "finish": {
        "city": "France",
        "country": "43.2951,-0.370797",
        "lat": "197",
        "lng": null
      },
      "length": 0
    },
    {
      "id": "E-1961-18",
      "year": 1961,
      "leg": "18",
      "leg_num": 0,
      "title": "Pau",
      "start": {
        "city": "France",
        "country": "43.2951,-0.370797",
        "lat": "Bordeaux",
        "lng": null
      },
      "finish": {
        "city": "France",
        "country": "44.837789,-0.57918",
        "lat": "207",
        "lng": null
      },
      "length": 0
    },
    {
      "id": "E-1961-19",
      "year": 1961,
      "leg": "19",
      "leg_num": 0,
      "title": "Bergerac",
      "start": {
        "city": "France",
        "country": "44.853806,0.483392",
        "lat": "Périgueux",
        "lng": null
      },
      "finish": {
        "city": "France",
        "country": "45.184029,0.721115",
        "lat": "74",
        "lng": "5"
      },
      "length": 0
    },
    {
      "id": "E-1961-20",
      "year": 1961,
      "leg": "20",
      "leg_num": 0,
      "title": "Périgueux",
      "start": {
        "city": "France",
        "country": "45.184029,0.721115",
        "lat": "Tours",
        "lng": null
      },
      "finish": {
        "city": "France",
        "country": "47.394144,0.68484",
        "lat": "309",
        "lng": "5"
      },
      "length": 0
    },
    {
      "id": "E-1961-21",
      "year": 1961,
      "leg": "21",
      "leg_num": 0,
      "title": "Tours",
      "start": {
        "city": "France",
        "country": "47.394144,0.68484",
        "lat": "Paris",
        "lng": null
      },
      "finish": {
        "city": "France",
        "country": "48.856614,2.352222",
        "lat": "252",
        "lng": "5"
      },
      "length": 0
    }
  ]
}