{
  "year": 1962,
  "edition": 49,
  "total_length": 4274,
  "nb_legs": 22,
  "has_prologue": false,
  "nb_concurrents": 150,
  "nb_finishers": 94,
  "pct_finishers": 63,
  "winner_first_name": "Jacques",
  "winner_last_name": "Anquetil",
  "winner_id": "jacques-anquetil",
  "winner_total_time": "114h 31' 45\"",
  "winner_age": "28",
  "winner_country": "France",
  "winner_avg_speed": "37,317",
  "ahead_of_2nd": "0h 04' 59\" ",
  "second_name": "J. Planckaert",
  "second_country": "Belgique",
  "second_id": null,
  "ahead_of_3rd": "0h 10' 24\"",
  "third_name": "R. Poulidor",
  "third_country": "France",
  "third_id": null,
  "legs": [
    {
      "id": "E-1962-01",
      "year": 1962,
      "leg": "1",
      "leg_num": 0,
      "title": "Nancy",
      "start": {
        "city": "France",
        "country": "48.692054,6.184417",
        "lat": "Spa",
        "lng": null
      },
      "finish": {
        "city": "Belgique",
        "country": "50.49243,5.86432",
        "lat": "253",
        "lng": null
      },
      "length": 0
    },
    {
      "id": "E-1962-2a",
      "year": 1962,
      "leg": "2a",
      "leg_num": 0,
      "title": "Spa",
      "start": {
        "city": "Belgique",
        "country": "50.49243,5.86432",
        "lat": "Herentals",
        "lng": null
      },
      "finish": {
        "city": "Belgique",
        "country": "51.176854,4.835595",
        "lat": "147",
        "lng": null
      },
      "length": 0
    },
    {
      "id": "E-1962-2b",
      "year": 1962,
      "leg": "2b",
      "leg_num": 0,
      "title": "Herentals",
      "start": {
        "city": "Belgique",
        "country": "51.176854,4.835595",
        "lat": "Herentals",
        "lng": null
      },
      "finish": {
        "city": "Belgique",
        "country": "51.176854,4.835595",
        "lat": "23",
        "lng": null
      },
      "length": 0
    },
    {
      "id": "E-1962-03",
      "year": 1962,
      "leg": "3",
      "leg_num": 0,
      "title": "Bruxelles",
      "start": {
        "city": "Belgique",
        "country": "50.85034,4.35171",
        "lat": "Amiens",
        "lng": null
      },
      "finish": {
        "city": "France",
        "country": "49.894067,2.295753",
        "lat": "210",
        "lng": null
      },
      "length": 0
    },
    {
      "id": "E-1962-04",
      "year": 1962,
      "leg": "4",
      "leg_num": 0,
      "title": "Amiens",
      "start": {
        "city": "France",
        "country": "49.894067,2.295753",
        "lat": "Le Havre",
        "lng": null
      },
      "finish": {
        "city": "France",
        "country": "49.49437,0.107929",
        "lat": "196",
        "lng": "5"
      },
      "length": 0
    },
    {
      "id": "E-1962-05",
      "year": 1962,
      "leg": "5",
      "leg_num": 0,
      "title": "Pont-l'Évêque",
      "start": {
        "city": "France",
        "country": "49.284982,0.182766",
        "lat": "Saint-Malo",
        "lng": null
      },
      "finish": {
        "city": "France",
        "country": "48.649337,-2.025674",
        "lat": "215",
        "lng": null
      },
      "length": 0
    },
    {
      "id": "E-1962-06",
      "year": 1962,
      "leg": "6",
      "leg_num": 0,
      "title": "Dinard",
      "start": {
        "city": "France",
        "country": "48.633024,-2.055125",
        "lat": "Brest",
        "lng": null
      },
      "finish": {
        "city": "France",
        "country": "48.390394,-4.486076",
        "lat": "235",
        "lng": "5"
      },
      "length": 0
    },
    {
      "id": "E-1962-07",
      "year": 1962,
      "leg": "7",
      "leg_num": 0,
      "title": "Quimper",
      "start": {
        "city": "France",
        "country": "47.997542,-4.097899",
        "lat": "Saint-Nazaire",
        "lng": null
      },
      "finish": {
        "city": "France",
        "country": "47.273498,-2.213848",
        "lat": "201",
        "lng": null
      },
      "length": 0
    },
    {
      "id": "E-1962-8a",
      "year": 1962,
      "leg": "8a",
      "leg_num": 0,
      "title": "Saint-Nazaire",
      "start": {
        "city": "France",
        "country": "47.273498,-2.213848",
        "lat": "Luçon",
        "lng": null
      },
      "finish": {
        "city": "France",
        "country": "46.454772,-1.167062",
        "lat": "155",
        "lng": null
      },
      "length": 0
    },
    {
      "id": "E-1962-8b",
      "year": 1962,
      "leg": "8b",
      "leg_num": 0,
      "title": "Luçon",
      "start": {
        "city": "France",
        "country": "46.454772,-1.167062",
        "lat": "La Rochelle",
        "lng": null
      },
      "finish": {
        "city": "France",
        "country": "46.160329,-1.151139",
        "lat": "43",
        "lng": null
      },
      "length": 0
    },
    {
      "id": "E-1962-09",
      "year": 1962,
      "leg": "9",
      "leg_num": 0,
      "title": "La Rochelle",
      "start": {
        "city": "France",
        "country": "46.160329,-1.151139",
        "lat": "Bordeaux",
        "lng": null
      },
      "finish": {
        "city": "France",
        "country": "44.837789,-0.57918",
        "lat": "214",
        "lng": null
      },
      "length": 0
    },
    {
      "id": "E-1962-10",
      "year": 1962,
      "leg": "10",
      "leg_num": 0,
      "title": "Bordeaux",
      "start": {
        "city": "France",
        "country": "44.837789,-0.57918",
        "lat": "Bayonne",
        "lng": null
      },
      "finish": {
        "city": "France",
        "country": "43.492949,-1.474841",
        "lat": "184",
        "lng": "5"
      },
      "length": 0
    },
    {
      "id": "E-1962-11",
      "year": 1962,
      "leg": "11",
      "leg_num": 0,
      "title": "Bayonne",
      "start": {
        "city": "France",
        "country": "43.492949,-1.474841",
        "lat": "Pau",
        "lng": null
      },
      "finish": {
        "city": "France",
        "country": "43.2951,-0.370797",
        "lat": "155",
        "lng": "5"
      },
      "length": 0
    },
    {
      "id": "E-1962-12",
      "year": 1962,
      "leg": "12",
      "leg_num": 0,
      "title": "Pau",
      "start": {
        "city": "France",
        "country": "43.2951,-0.370797",
        "lat": "Saint-Gaudens",
        "lng": null
      },
      "finish": {
        "city": "France",
        "country": "43.106895,0.723763",
        "lat": "207",
        "lng": "5"
      },
      "length": 0
    },
    {
      "id": "E-1962-13",
      "year": 1962,
      "leg": "13",
      "leg_num": 0,
      "title": "Luchon",
      "start": {
        "city": "France",
        "country": "42.788963,0.592943",
        "lat": "Superbagnères",
        "lng": " Saint-Aventin"
      },
      "finish": {
        "city": "France",
        "country": "42.768576,0.576927",
        "lat": "18",
        "lng": "5"
      },
      "length": 0
    },
    {
      "id": "E-1962-14",
      "year": 1962,
      "leg": "14",
      "leg_num": 0,
      "title": "Luchon",
      "start": {
        "city": "France",
        "country": "42.788963,0.592943",
        "lat": "Carcassonne",
        "lng": null
      },
      "finish": {
        "city": "France",
        "country": "43.212161,2.353663",
        "lat": "215",
        "lng": null
      },
      "length": 0
    },
    {
      "id": "E-1962-15",
      "year": 1962,
      "leg": "15",
      "leg_num": 0,
      "title": "Carcassonne",
      "start": {
        "city": "France",
        "country": "43.212161,2.353663",
        "lat": "Montpellier",
        "lng": null
      },
      "finish": {
        "city": "France",
        "country": "43.610769,3.876716",
        "lat": "196",
        "lng": "5"
      },
      "length": 0
    },
    {
      "id": "E-1962-16",
      "year": 1962,
      "leg": "16",
      "leg_num": 0,
      "title": "Montpellier",
      "start": {
        "city": "France",
        "country": "43.610769,3.876716",
        "lat": "Aix-en-Provence",
        "lng": null
      },
      "finish": {
        "city": "France",
        "country": "43.529742,5.447427",
        "lat": "185",
        "lng": null
      },
      "length": 0
    },
    {
      "id": "E-1962-17",
      "year": 1962,
      "leg": "17",
      "leg_num": 0,
      "title": "Aix-en-Provence",
      "start": {
        "city": "France",
        "country": "43.529742,5.447427",
        "lat": "Juan-les-Pins",
        "lng": null
      },
      "finish": {
        "city": "France",
        "country": "43.571111,7.109444",
        "lat": "201",
        "lng": null
      },
      "length": 0
    },
    {
      "id": "E-1962-18",
      "year": 1962,
      "leg": "18",
      "leg_num": 0,
      "title": "Juan-les-Pins",
      "start": {
        "city": "France",
        "country": "43.571111,7.109444",
        "lat": "Briançon",
        "lng": null
      },
      "finish": {
        "city": "France",
        "country": "44.899416,6.643179",
        "lat": "241",
        "lng": "5"
      },
      "length": 0
    },
    {
      "id": "E-1962-19",
      "year": 1962,
      "leg": "19",
      "leg_num": 0,
      "title": "Briançon",
      "start": {
        "city": "France",
        "country": "44.899416,6.643179",
        "lat": "Aix-les-Bains",
        "lng": null
      },
      "finish": {
        "city": "France",
        "country": "45.692341,5.908998",
        "lat": "204",
        "lng": "5"
      },
      "length": 0
    },
    {
      "id": "E-1962-20",
      "year": 1962,
      "leg": "20",
      "leg_num": 0,
      "title": "Bourgoin",
      "start": {
        "city": "France",
        "country": "45.597108,5.27212",
        "lat": "Lyon",
        "lng": null
      },
      "finish": {
        "city": "France",
        "country": "45.764043,4.835659",
        "lat": "68",
        "lng": null
      },
      "length": 0
    },
    {
      "id": "E-1962-21",
      "year": 1962,
      "leg": "21",
      "leg_num": 0,
      "title": "Lyon",
      "start": {
        "city": "France",
        "country": "45.764043,4.835659",
        "lat": "Pougues-les-Eaux",
        "lng": null
      },
      "finish": {
        "city": "France",
        "country": "47.072803,3.101573",
        "lat": "232",
        "lng": null
      },
      "length": 0
    },
    {
      "id": "E-1962-22",
      "year": 1962,
      "leg": "22",
      "leg_num": 0,
      "title": "Nevers",
      "start": {
        "city": "France",
        "country": "46.990896,3.162845",
        "lat": "Paris",
        "lng": null
      },
      "finish": {
        "city": "France",
        "country": "48.856614,2.352222",
        "lat": "271",
        "lng": null
      },
      "length": 0
    }
  ]
}