{
  "year": 1963,
  "edition": 50,
  "total_length": 4138,
  "nb_legs": 21,
  "has_prologue": false,
  "nb_concurrents": 130,
  "nb_finishers": 76,
  "pct_finishers": 58,
  "winner_first_name": "Jacques",
  "winner_last_name": "Anquetil",
  "winner_id": "jacques-anquetil",
  "winner_total_time": "113h 30' 05\"",
  "winner_age": "29",
  "winner_country": "France",
  "winner_avg_speed": "37,092",
  "ahead_of_2nd": "0h 03' 35\" ",
  "second_name": "F. Bahamontes",
  "second_country": "Espagne",
  "second_id": "federico-bahamontes",
  "ahead_of_3rd": "0h 10' 14\"",
  "third_name": "J. Perez-Frances",
  "third_country": "Espagne",
  "third_id": null,
  "legs": [
    {
      "id": "E-1963-01",
      "year": 1963,
      "leg": "1",
      "leg_num": 0,
      "title": "Nogent-sur-Marne",
      "start": {
        "city": "France",
        "country": "48.837631,2.481699",
        "lat": "Épernay",
        "lng": null
      },
      "finish": {
        "city": "France",
        "country": "49.043411,3.956242",
        "lat": "152",
        "lng": "5"
      },
      "length": 0
    },
    {
      "id": "E-1963-2a",
      "year": 1963,
      "leg": "2a",
      "leg_num": 0,
      "title": "Reims",
      "start": {
        "city": "France",
        "country": "49.258329,4.031696",
        "lat": "Jambes",
        "lng": null
      },
      "finish": {
        "city": "Belgique",
        "country": "50.456367,4.871877",
        "lat": "185",
        "lng": "5"
      },
      "length": 0
    },
    {
      "id": "E-1963-2b",
      "year": 1963,
      "leg": "2b",
      "leg_num": 0,
      "title": "Jambes",
      "start": {
        "city": "Belgique",
        "country": "50.456367,4.871877",
        "lat": "Jambes",
        "lng": null
      },
      "finish": {
        "city": "Belgique",
        "country": "50.456367,4.871877",
        "lat": "21",
        "lng": "5"
      },
      "length": 0
    },
    {
      "id": "E-1963-03",
      "year": 1963,
      "leg": "3",
      "leg_num": 0,
      "title": "Jambes",
      "start": {
        "city": "Belgique",
        "country": "50.456367,4.871877",
        "lat": "Roubaix",
        "lng": null
      },
      "finish": {
        "city": "France",
        "country": "50.692705,3.177847",
        "lat": "223",
        "lng": "5"
      },
      "length": 0
    },
    {
      "id": "E-1963-04",
      "year": 1963,
      "leg": "4",
      "leg_num": 0,
      "title": "Roubaix",
      "start": {
        "city": "France",
        "country": "50.692705,3.177847",
        "lat": "Rouen",
        "lng": null
      },
      "finish": {
        "city": "France",
        "country": "49.443232,1.099971",
        "lat": "235",
        "lng": "5"
      },
      "length": 0
    },
    {
      "id": "E-1963-05",
      "year": 1963,
      "leg": "5",
      "leg_num": 0,
      "title": "Rouen",
      "start": {
        "city": "France",
        "country": "49.443232,1.099971",
        "lat": "Rennes",
        "lng": null
      },
      "finish": {
        "city": "France",
        "country": "48.113475,-1.675708",
        "lat": "285",
        "lng": null
      },
      "length": 0
    },
    {
      "id": "E-1963-6a",
      "year": 1963,
      "leg": "6a",
      "leg_num": 0,
      "title": "Rennes",
      "start": {
        "city": "France",
        "country": "48.113475,-1.675708",
        "lat": "Angers",
        "lng": null
      },
      "finish": {
        "city": "France",
        "country": "47.478419,-0.563166",
        "lat": "118",
        "lng": "5"
      },
      "length": 0
    },
    {
      "id": "E-1963-6b",
      "year": 1963,
      "leg": "6b",
      "leg_num": 0,
      "title": "Angers",
      "start": {
        "city": "France",
        "country": "47.478419,-0.563166",
        "lat": "Angers",
        "lng": null
      },
      "finish": {
        "city": "France",
        "country": "47.478419,-0.563166",
        "lat": "24",
        "lng": "5"
      },
      "length": 0
    },
    {
      "id": "E-1963-07",
      "year": 1963,
      "leg": "7",
      "leg_num": 0,
      "title": "Angers",
      "start": {
        "city": "France",
        "country": "47.478419,-0.563166",
        "lat": "Limoges",
        "lng": null
      },
      "finish": {
        "city": "France",
        "country": "45.833619,1.261105",
        "lat": "236",
        "lng": null
      },
      "length": 0
    },
    {
      "id": "E-1963-08",
      "year": 1963,
      "leg": "8",
      "leg_num": 0,
      "title": "Limoges",
      "start": {
        "city": "France",
        "country": "45.833619,1.261105",
        "lat": "Bordeaux",
        "lng": null
      },
      "finish": {
        "city": "France",
        "country": "44.837789,-0.57918",
        "lat": "231",
        "lng": "5"
      },
      "length": 0
    },
    {
      "id": "E-1963-09",
      "year": 1963,
      "leg": "9",
      "leg_num": 0,
      "title": "Bordeaux",
      "start": {
        "city": "France",
        "country": "44.837789,-0.57918",
        "lat": "Pau",
        "lng": null
      },
      "finish": {
        "city": "France",
        "country": "43.2951,-0.370797",
        "lat": "202",
        "lng": null
      },
      "length": 0
    },
    {
      "id": "E-1963-10",
      "year": 1963,
      "leg": "10",
      "leg_num": 0,
      "title": "Pau",
      "start": {
        "city": "France",
        "country": "43.2951,-0.370797",
        "lat": "Bagnères-de-Bigorre",
        "lng": null
      },
      "finish": {
        "city": "France",
        "country": "43.065093,0.149105",
        "lat": "148",
        "lng": "5"
      },
      "length": 0
    },
    {
      "id": "E-1963-11",
      "year": 1963,
      "leg": "11",
      "leg_num": 0,
      "title": "Bagnères-de-Bigorre",
      "start": {
        "city": "France",
        "country": "43.065093,0.149105",
        "lat": "Luchon",
        "lng": null
      },
      "finish": {
        "city": "France",
        "country": "42.788963,0.592943",
        "lat": "131",
        "lng": null
      },
      "length": 0
    },
    {
      "id": "E-1963-12",
      "year": 1963,
      "leg": "12",
      "leg_num": 0,
      "title": "Luchon",
      "start": {
        "city": "France",
        "country": "42.788963,0.592943",
        "lat": "Toulouse",
        "lng": null
      },
      "finish": {
        "city": "France",
        "country": "43.604652,1.444209",
        "lat": "207",
        "lng": "5"
      },
      "length": 0
    },
    {
      "id": "E-1963-13",
      "year": 1963,
      "leg": "13",
      "leg_num": 0,
      "title": "Toulouse",
      "start": {
        "city": "France",
        "country": "43.604652,1.444209",
        "lat": "Aurillac",
        "lng": null
      },
      "finish": {
        "city": "France",
        "country": "44.930953,2.444997",
        "lat": "234",
        "lng": null
      },
      "length": 0
    },
    {
      "id": "E-1963-14",
      "year": 1963,
      "leg": "14",
      "leg_num": 0,
      "title": "Aurillac",
      "start": {
        "city": "France",
        "country": "44.930953,2.444997",
        "lat": "Saint-Étienne",
        "lng": null
      },
      "finish": {
        "city": "France",
        "country": "45.439695,4.387178",
        "lat": "236",
        "lng": "5"
      },
      "length": 0
    },
    {
      "id": "E-1963-15",
      "year": 1963,
      "leg": "15",
      "leg_num": 0,
      "title": "Saint-Étienne",
      "start": {
        "city": "France",
        "country": "45.439695,4.387178",
        "lat": "Grenoble",
        "lng": null
      },
      "finish": {
        "city": "France",
        "country": "45.188529,5.724524",
        "lat": "174",
        "lng": null
      },
      "length": 0
    },
    {
      "id": "E-1963-16",
      "year": 1963,
      "leg": "16",
      "leg_num": 0,
      "title": "Grenoble",
      "start": {
        "city": "France",
        "country": "45.188529,5.724524",
        "lat": "Val-d'Isère",
        "lng": null
      },
      "finish": {
        "city": "France",
        "country": "45.448034,6.980226",
        "lat": "202",
        "lng": null
      },
      "length": 0
    },
    {
      "id": "E-1963-17",
      "year": 1963,
      "leg": "17",
      "leg_num": 0,
      "title": "Val-d'Isère",
      "start": {
        "city": "France",
        "country": "45.448034,6.980226",
        "lat": "Chamonix",
        "lng": null
      },
      "finish": {
        "city": "France",
        "country": "45.923697,6.869433",
        "lat": "227",
        "lng": "5"
      },
      "length": 0
    },
    {
      "id": "E-1963-18",
      "year": 1963,
      "leg": "18",
      "leg_num": 0,
      "title": "Chamonix",
      "start": {
        "city": "France",
        "country": "45.923697,6.869433",
        "lat": "Lons-le-Saunier",
        "lng": null
      },
      "finish": {
        "city": "France",
        "country": "46.671361,5.550796",
        "lat": "225",
        "lng": null
      },
      "length": 0
    },
    {
      "id": "E-1963-19",
      "year": 1963,
      "leg": "19",
      "leg_num": 0,
      "title": "Arbois",
      "start": {
        "city": "France",
        "country": "46.902851,5.772342",
        "lat": "Besançon",
        "lng": null
      },
      "finish": {
        "city": "France",
        "country": "47.237829,6.024054",
        "lat": "54",
        "lng": "5"
      },
      "length": 0
    },
    {
      "id": "E-1963-20",
      "year": 1963,
      "leg": "20",
      "leg_num": 0,
      "title": "Besançon",
      "start": {
        "city": "France",
        "country": "47.237829,6.024054",
        "lat": "Troyes",
        "lng": null
      },
      "finish": {
        "city": "France",
        "country": "48.296592,4.074735",
        "lat": "233",
        "lng": "5"
      },
      "length": 0
    },
    {
      "id": "E-1963-21",
      "year": 1963,
      "leg": "21",
      "leg_num": 0,
      "title": "Troyes",
      "start": {
        "city": "France",
        "country": "48.296592,4.074735",
        "lat": "Paris",
        "lng": null
      },
      "finish": {
        "city": "France",
        "country": "48.856614,2.352222",
        "lat": "185",
        "lng": "5"
      },
      "length": 0
    }
  ]
}