{
  "year": 1964,
  "edition": 51,
  "total_length": 4504,
  "nb_legs": 22,
  "has_prologue": false,
  "nb_concurrents": 132,
  "nb_finishers": 81,
  "pct_finishers": 61,
  "winner_first_name": "Jacques",
  "winner_last_name": "Anquetil",
  "winner_id": "jacques-anquetil",
  "winner_total_time": "127h 09' 44\"",
  "winner_age": "30",
  "winner_country": "France",
  "winner_avg_speed": "35,419",
  "ahead_of_2nd": "0h 00' 55\" ",
  "second_name": "R. Poulidor",
  "second_country": "France",
  "second_id": null,
  "ahead_of_3rd": "0h 4' 44\"",
  "third_name": "F. Bahamontes",
  "third_country": "Espagne",
  "third_id": "federico-bahamontes",
  "legs": [
    {
      "id": "E-1964-01",
      "year": 1964,
      "leg": "1",
      "leg_num": 0,
      "title": "Rennes",
      "start": {
        "city": "France",
        "country": "48.113475,-1.675708",
        "lat": "Lisieux",
        "lng": null
      },
      "finish": {
        "city": "France",
        "country": "49.145922,0.227849",
        "lat": "215",
        "lng": null
      },
      "length": 0
    },
    {
      "id": "E-1964-02",
      "year": 1964,
      "leg": "2",
      "leg_num": 0,
      "title": "Lisieux",
      "start": {
        "city": "France",
        "country": "49.145922,0.227849",
        "lat": "Amiens",
        "lng": null
      },
      "finish": {
        "city": "France",
        "country": "49.894067,2.295753",
        "lat": "208",
        "lng": null
      },
      "length": 0
    },
    {
      "id": "E-1964-3a",
      "year": 1964,
      "leg": "3a",
      "leg_num": 0,
      "title": "Amiens",
      "start": {
        "city": "France",
        "country": "49.894067,2.295753",
        "lat": "Forest",
        "lng": null
      },
      "finish": {
        "city": "Belgique",
        "country": "50.8,4.316667",
        "lat": "196",
        "lng": "5"
      },
      "length": 0
    },
    {
      "id": "E-1964-3b",
      "year": 1964,
      "leg": "3b",
      "leg_num": 0,
      "title": "Forest",
      "start": {
        "city": "Belgique",
        "country": "50.8,4.316667",
        "lat": "Forest",
        "lng": null
      },
      "finish": {
        "city": "Belgique",
        "country": "50.8,4.316667",
        "lat": "21",
        "lng": "3"
      },
      "length": 0
    },
    {
      "id": "E-1964-04",
      "year": 1964,
      "leg": "4",
      "leg_num": 0,
      "title": "Forest",
      "start": {
        "city": "Belgique",
        "country": "50.8,4.316667",
        "lat": "Metz",
        "lng": null
      },
      "finish": {
        "city": "France",
        "country": "49.119666,6.176905",
        "lat": "291",
        "lng": "5"
      },
      "length": 0
    },
    {
      "id": "E-1964-05",
      "year": 1964,
      "leg": "5",
      "leg_num": 0,
      "title": "Lunéville",
      "start": {
        "city": "France",
        "country": "48.592237,6.492339",
        "lat": "Fribourg en Brisgau",
        "lng": null
      },
      "finish": {
        "city": "Allemagne",
        "country": "47.99901,7.84210",
        "lat": "161",
        "lng": "5"
      },
      "length": 0
    },
    {
      "id": "E-1964-06",
      "year": 1964,
      "leg": "6",
      "leg_num": 0,
      "title": "Fribourg en Brisgau",
      "start": {
        "city": "Allemagne",
        "country": "46.801666,7.145568",
        "lat": "Besançon",
        "lng": null
      },
      "finish": {
        "city": "France",
        "country": "47.237829,6.024054",
        "lat": "200",
        "lng": null
      },
      "length": 0
    },
    {
      "id": "E-1964-07",
      "year": 1964,
      "leg": "7",
      "leg_num": 0,
      "title": "Champagnole",
      "start": {
        "city": "France",
        "country": "46.74609,5.90573",
        "lat": "Thonon-les-Bains",
        "lng": null
      },
      "finish": {
        "city": "France",
        "country": "46.373565,6.477635",
        "lat": "195",
        "lng": null
      },
      "length": 0
    },
    {
      "id": "E-1964-08",
      "year": 1964,
      "leg": "8",
      "leg_num": 0,
      "title": "Thonon-les-Bains",
      "start": {
        "city": "France",
        "country": "46.373565,6.477635",
        "lat": "Briançon",
        "lng": null
      },
      "finish": {
        "city": "France",
        "country": "44.899416,6.643179",
        "lat": "248",
        "lng": "5"
      },
      "length": 0
    },
    {
      "id": "E-1964-09",
      "year": 1964,
      "leg": "9",
      "leg_num": 0,
      "title": "Briançon",
      "start": {
        "city": "France",
        "country": "44.899416,6.643179",
        "lat": "Monaco",
        "lng": null
      },
      "finish": {
        "city": "Monaco",
        "country": "43.738418,7.424616",
        "lat": "239",
        "lng": null
      },
      "length": 0
    },
    {
      "id": "E-1964-10a",
      "year": 1964,
      "leg": "10a",
      "leg_num": 0,
      "title": "Monaco",
      "start": {
        "city": "Monaco",
        "country": "43.738418,7.424616",
        "lat": "Hyères",
        "lng": null
      },
      "finish": {
        "city": "France",
        "country": "43.120541,6.128639",
        "lat": "187",
        "lng": "5"
      },
      "length": 0
    },
    {
      "id": "E-1964-10b",
      "year": 1964,
      "leg": "10b",
      "leg_num": 0,
      "title": "Hyères",
      "start": {
        "city": "France",
        "country": "43.120541,6.128639",
        "lat": "Toulon",
        "lng": null
      },
      "finish": {
        "city": "France",
        "country": "43.124228,5.928",
        "lat": "21",
        "lng": null
      },
      "length": 0
    },
    {
      "id": "E-1964-11",
      "year": 1964,
      "leg": "11",
      "leg_num": 0,
      "title": "Toulon",
      "start": {
        "city": "France",
        "country": "43.124228,5.928",
        "lat": "Montpellier",
        "lng": null
      },
      "finish": {
        "city": "France",
        "country": "43.610769,3.876716",
        "lat": "250",
        "lng": null
      },
      "length": 0
    },
    {
      "id": "E-1964-12",
      "year": 1964,
      "leg": "12",
      "leg_num": 0,
      "title": "Montpellier",
      "start": {
        "city": "France",
        "country": "43.610769,3.876716",
        "lat": "Perpignan",
        "lng": null
      },
      "finish": {
        "city": "France",
        "country": "42.698684,2.895872",
        "lat": "174",
        "lng": null
      },
      "length": 0
    },
    {
      "id": "E-1964-13",
      "year": 1964,
      "leg": "13",
      "leg_num": 0,
      "title": "Perpignan",
      "start": {
        "city": "France",
        "country": "42.698684,2.895872",
        "lat": "Andorre",
        "lng": null
      },
      "finish": {
        "city": "France",
        "country": "42.506285,1.521801",
        "lat": "170",
        "lng": null
      },
      "length": 0
    },
    {
      "id": "E-1964-14",
      "year": 1964,
      "leg": "14",
      "leg_num": 0,
      "title": "Andorre-la-Vieille",
      "start": {
        "city": "Andorre",
        "country": "42.506317,1.521836",
        "lat": "Toulouse",
        "lng": null
      },
      "finish": {
        "city": "France",
        "country": "43.604652,1.444209",
        "lat": "186",
        "lng": null
      },
      "length": 0
    },
    {
      "id": "E-1964-15",
      "year": 1964,
      "leg": "15",
      "leg_num": 0,
      "title": "Toulouse",
      "start": {
        "city": "France",
        "country": "43.604652,1.444209",
        "lat": "Luchon",
        "lng": null
      },
      "finish": {
        "city": "France",
        "country": "42.788963,0.592943",
        "lat": "203",
        "lng": null
      },
      "length": 0
    },
    {
      "id": "E-1964-16",
      "year": 1964,
      "leg": "16",
      "leg_num": 0,
      "title": "Luchon",
      "start": {
        "city": "France",
        "country": "42.788963,0.592943",
        "lat": "Pau",
        "lng": null
      },
      "finish": {
        "city": "France",
        "country": "43.2951,-0.370797",
        "lat": "197",
        "lng": null
      },
      "length": 0
    },
    {
      "id": "E-1964-17",
      "year": 1964,
      "leg": "17",
      "leg_num": 0,
      "title": "Peyrehorade",
      "start": {
        "city": "France",
        "country": "43.545627,-1.097208",
        "lat": "Bayonne",
        "lng": null
      },
      "finish": {
        "city": "France",
        "country": "43.492949,-1.474841",
        "lat": "42",
        "lng": "5"
      },
      "length": 0
    },
    {
      "id": "E-1964-18",
      "year": 1964,
      "leg": "18",
      "leg_num": 0,
      "title": "Bayonne",
      "start": {
        "city": "France",
        "country": "43.492949,-1.474841",
        "lat": "Bordeaux",
        "lng": null
      },
      "finish": {
        "city": "France",
        "country": "44.837789,-0.57918",
        "lat": "187",
        "lng": null
      },
      "length": 0
    },
    {
      "id": "E-1964-19",
      "year": 1964,
      "leg": "19",
      "leg_num": 0,
      "title": "Bordeaux",
      "start": {
        "city": "France",
        "country": "44.837789,-0.57918",
        "lat": "Brive",
        "lng": null
      },
      "finish": {
        "city": "France",
        "country": "45.159555,1.533937",
        "lat": "215",
        "lng": "5"
      },
      "length": 0
    },
    {
      "id": "E-1964-20",
      "year": 1964,
      "leg": "20",
      "leg_num": 0,
      "title": "Brive",
      "start": {
        "city": "France",
        "country": "45.159555,1.533937",
        "lat": "Puy de Dôme",
        "lng": " Orcines"
      },
      "finish": {
        "city": "France",
        "country": "45.77207,2.96974",
        "lat": "237",
        "lng": "5"
      },
      "length": 0
    },
    {
      "id": "E-1964-21",
      "year": 1964,
      "leg": "21",
      "leg_num": 0,
      "title": "Clermont-Ferrand",
      "start": {
        "city": "France",
        "country": "45.777222,3.087025",
        "lat": "Orléans",
        "lng": null
      },
      "finish": {
        "city": "France",
        "country": "47.902964,1.909251",
        "lat": "311",
        "lng": null
      },
      "length": 0
    },
    {
      "id": "E-1964-22a",
      "year": 1964,
      "leg": "22a",
      "leg_num": 0,
      "title": "Orléans",
      "start": {
        "city": "France",
        "country": "47.902964,1.909251",
        "lat": "Versailles",
        "lng": null
      },
      "finish": {
        "city": "France",
        "country": "48.801408,2.130122",
        "lat": "118",
        "lng": "5"
      },
      "length": 0
    },
    {
      "id": "E-1964-22b",
      "year": 1964,
      "leg": "22b",
      "leg_num": 0,
      "title": "Versailles",
      "start": {
        "city": "France",
        "country": "48.801408,2.130122",
        "lat": "Paris",
        "lng": null
      },
      "finish": {
        "city": "France",
        "country": "48.856614,2.352222",
        "lat": "37",
        "lng": "5"
      },
      "length": 0
    }
  ]
}