{
  "year": 1965,
  "edition": 52,
  "total_length": 4188,
  "nb_legs": 22,
  "has_prologue": false,
  "nb_concurrents": 130,
  "nb_finishers": 96,
  "pct_finishers": 74,
  "winner_first_name": "Felice",
  "winner_last_name": "Gimondi",
  "winner_id": "felice-gimondi",
  "winner_total_time": "116h 42' 06\"",
  "winner_age": "22",
  "winner_country": "Italie",
  "winner_avg_speed": "35,886",
  "ahead_of_2nd": "0h 02' 40\" ",
  "second_name": "R. Poulidor",
  "second_country": "France",
  "second_id": null,
  "ahead_of_3rd": "0h 09' 18\"",
  "third_name": "G. Motta",
  "third_country": "Italie",
  "third_id": null,
  "legs": [
    {
      "id": "E-1965-1a",
      "year": 1965,
      "leg": "1a",
      "leg_num": 0,
      "title": "Cologne",
      "start": {
        "city": "Allemagne",
        "country": "50.937531,6.960279",
        "lat": "Liège",
        "lng": null
      },
      "finish": {
        "city": "Belgique",
        "country": "50.632557,5.579666",
        "lat": "149",
        "lng": null
      },
      "length": 0
    },
    {
      "id": "E-1965-1b",
      "year": 1965,
      "leg": "1b",
      "leg_num": 0,
      "title": "Liège",
      "start": {
        "city": "Belgique",
        "country": "50.632557,5.579666",
        "lat": "Liège",
        "lng": null
      },
      "finish": {
        "city": "Belgique",
        "country": "50.632557,5.579666",
        "lat": "22",
        "lng": "5"
      },
      "length": 0
    },
    {
      "id": "E-1965-02",
      "year": 1965,
      "leg": "2",
      "leg_num": 0,
      "title": "Liège",
      "start": {
        "city": "Belgique",
        "country": "50.632557,5.579666",
        "lat": "Roubaix",
        "lng": null
      },
      "finish": {
        "city": "France",
        "country": "50.692705,3.177847",
        "lat": "200",
        "lng": "5"
      },
      "length": 0
    },
    {
      "id": "E-1965-03",
      "year": 1965,
      "leg": "3",
      "leg_num": 0,
      "title": "Roubaix",
      "start": {
        "city": "France",
        "country": "50.692705,3.177847",
        "lat": "Rouen",
        "lng": null
      },
      "finish": {
        "city": "France",
        "country": "49.443232,1.099971",
        "lat": "240",
        "lng": null
      },
      "length": 0
    },
    {
      "id": "E-1965-04",
      "year": 1965,
      "leg": "4",
      "leg_num": 0,
      "title": "Caen",
      "start": {
        "city": "France",
        "country": "49.182863,-0.370679",
        "lat": "Saint-Brieuc",
        "lng": null
      },
      "finish": {
        "city": "France",
        "country": "48.51418,-2.765835",
        "lat": "227",
        "lng": null
      },
      "length": 0
    },
    {
      "id": "E-1965-5a",
      "year": 1965,
      "leg": "5a",
      "leg_num": 0,
      "title": "Saint-Brieuc",
      "start": {
        "city": "France",
        "country": "48.51418,-2.765835",
        "lat": "Châteaulin",
        "lng": null
      },
      "finish": {
        "city": "France",
        "country": "48.195389,-4.094207",
        "lat": "147",
        "lng": null
      },
      "length": 0
    },
    {
      "id": "E-1965-5b",
      "year": 1965,
      "leg": "5b",
      "leg_num": 0,
      "title": "Châteaulin",
      "start": {
        "city": "France",
        "country": "48.195389,-4.094207",
        "lat": "Châteaulin",
        "lng": null
      },
      "finish": {
        "city": "France",
        "country": "48.195389,-4.094207",
        "lat": "26",
        "lng": "5"
      },
      "length": 0
    },
    {
      "id": "E-1965-06",
      "year": 1965,
      "leg": "6",
      "leg_num": 0,
      "title": "Quimper",
      "start": {
        "city": "France",
        "country": "47.997542,-4.097899",
        "lat": "La Baule",
        "lng": null
      },
      "finish": {
        "city": "France",
        "country": "47.285448,-2.393236",
        "lat": "210",
        "lng": "5"
      },
      "length": 0
    },
    {
      "id": "E-1965-07",
      "year": 1965,
      "leg": "7",
      "leg_num": 0,
      "title": "La Baule",
      "start": {
        "city": "France",
        "country": "47.285448,-2.393236",
        "lat": "La Rochelle",
        "lng": null
      },
      "finish": {
        "city": "France",
        "country": "46.160329,-1.151139",
        "lat": "219",
        "lng": null
      },
      "length": 0
    },
    {
      "id": "E-1965-08",
      "year": 1965,
      "leg": "8",
      "leg_num": 0,
      "title": "La Rochelle",
      "start": {
        "city": "France",
        "country": "46.160329,-1.151139",
        "lat": "Bordeaux",
        "lng": null
      },
      "finish": {
        "city": "France",
        "country": "44.837789,-0.57918",
        "lat": "197",
        "lng": "5"
      },
      "length": 0
    },
    {
      "id": "E-1965-09",
      "year": 1965,
      "leg": "9",
      "leg_num": 0,
      "title": "Dax",
      "start": {
        "city": "France",
        "country": "43.708608,-1.051945",
        "lat": "Bagnères-de-Bigorre",
        "lng": null
      },
      "finish": {
        "city": "France",
        "country": "43.065093,0.149105",
        "lat": "226",
        "lng": "5"
      },
      "length": 0
    },
    {
      "id": "E-1965-10",
      "year": 1965,
      "leg": "10",
      "leg_num": 0,
      "title": "Bagnères-de-Bigorre",
      "start": {
        "city": "France",
        "country": "43.065093,0.149105",
        "lat": "Ax-les-Thermes",
        "lng": null
      },
      "finish": {
        "city": "France",
        "country": "42.720254,1.837545",
        "lat": "222",
        "lng": "5"
      },
      "length": 0
    },
    {
      "id": "E-1965-11",
      "year": 1965,
      "leg": "11",
      "leg_num": 0,
      "title": "Ax-les-Thermes",
      "start": {
        "city": "France",
        "country": "42.720254,1.837545",
        "lat": "Barcelone",
        "lng": null
      },
      "finish": {
        "city": "Espagne",
        "country": "41.385064,2.173404",
        "lat": "240",
        "lng": "5"
      },
      "length": 0
    },
    {
      "id": "E-1965-12",
      "year": 1965,
      "leg": "12",
      "leg_num": 0,
      "title": "Barcelone",
      "start": {
        "city": "Espagne",
        "country": "41.385064,2.173404",
        "lat": "Perpignan",
        "lng": null
      },
      "finish": {
        "city": "France",
        "country": "42.698684,2.895872",
        "lat": "219",
        "lng": null
      },
      "length": 0
    },
    {
      "id": "E-1965-13",
      "year": 1965,
      "leg": "13",
      "leg_num": 0,
      "title": "Perpignan",
      "start": {
        "city": "France",
        "country": "42.698684,2.895872",
        "lat": "Montpellier",
        "lng": null
      },
      "finish": {
        "city": "France",
        "country": "43.610769,3.876716",
        "lat": "164",
        "lng": null
      },
      "length": 0
    },
    {
      "id": "E-1965-14",
      "year": 1965,
      "leg": "14",
      "leg_num": 0,
      "title": "Montpellier",
      "start": {
        "city": "France",
        "country": "43.610769,3.876716",
        "lat": "Mont Ventoux",
        "lng": null
      },
      "finish": {
        "city": "France",
        "country": "44.173925,5.283795",
        "lat": "173",
        "lng": null
      },
      "length": 0
    },
    {
      "id": "E-1965-15",
      "year": 1965,
      "leg": "15",
      "leg_num": 0,
      "title": "Carpentras",
      "start": {
        "city": "France",
        "country": "44.055564,5.048722",
        "lat": "Gap",
        "lng": null
      },
      "finish": {
        "city": "France",
        "country": "44.559638,6.079758",
        "lat": "167",
        "lng": "5"
      },
      "length": 0
    },
    {
      "id": "E-1965-16",
      "year": 1965,
      "leg": "16",
      "leg_num": 0,
      "title": "Gap",
      "start": {
        "city": "France",
        "country": "44.559638,6.079758",
        "lat": "Briançon",
        "lng": null
      },
      "finish": {
        "city": "France",
        "country": "44.899416,6.643179",
        "lat": "177",
        "lng": null
      },
      "length": 0
    },
    {
      "id": "E-1965-17",
      "year": 1965,
      "leg": "17",
      "leg_num": 0,
      "title": "Briançon",
      "start": {
        "city": "France",
        "country": "44.899416,6.643179",
        "lat": "Aix-les-Bains",
        "lng": null
      },
      "finish": {
        "city": "France",
        "country": "45.692341,5.908998",
        "lat": "193",
        "lng": "5"
      },
      "length": 0
    },
    {
      "id": "E-1965-18",
      "year": 1965,
      "leg": "18",
      "leg_num": 0,
      "title": "Aix-les-Bains",
      "start": {
        "city": "France",
        "country": "45.692341,5.908998",
        "lat": "Le Revard",
        "lng": null
      },
      "finish": {
        "city": "France",
        "country": "45.666493,5.97784",
        "lat": "27",
        "lng": null
      },
      "length": 0
    },
    {
      "id": "E-1965-19",
      "year": 1965,
      "leg": "19",
      "leg_num": 0,
      "title": "Aix-les-Bains",
      "start": {
        "city": "France",
        "country": "45.692341,5.908998",
        "lat": "Lyon",
        "lng": null
      },
      "finish": {
        "city": "France",
        "country": "45.764043,4.835659",
        "lat": "165",
        "lng": null
      },
      "length": 0
    },
    {
      "id": "E-1965-20",
      "year": 1965,
      "leg": "20",
      "leg_num": 0,
      "title": "Lyon",
      "start": {
        "city": "France",
        "country": "45.764043,4.835659",
        "lat": "Auxerre",
        "lng": null
      },
      "finish": {
        "city": "France",
        "country": "47.798202,3.573781",
        "lat": "298",
        "lng": "5"
      },
      "length": 0
    },
    {
      "id": "E-1965-21",
      "year": 1965,
      "leg": "21",
      "leg_num": 0,
      "title": "Auxerre",
      "start": {
        "city": "France",
        "country": "47.798202,3.573781",
        "lat": "Versailles",
        "lng": null
      },
      "finish": {
        "city": "France",
        "country": "48.801408,2.130122",
        "lat": "225",
        "lng": "5"
      },
      "length": 0
    },
    {
      "id": "E-1965-22",
      "year": 1965,
      "leg": "22",
      "leg_num": 0,
      "title": "Versailles",
      "start": {
        "city": "France",
        "country": "48.801408,2.130122",
        "lat": "Paris",
        "lng": null
      },
      "finish": {
        "city": "France",
        "country": "48.856614,2.352222",
        "lat": "38",
        "lng": null
      },
      "length": 0
    }
  ]
}