{
  "year": 1967,
  "edition": 54,
  "total_length": 4779,
  "nb_legs": 22,
  "has_prologue": false,
  "nb_concurrents": 130,
  "nb_finishers": 88,
  "pct_finishers": 68,
  "winner_first_name": "Roger",
  "winner_last_name": "Pingeon",
  "winner_id": "roger-pingeon",
  "winner_total_time": "136h 53' 50\"",
  "winner_age": "26",
  "winner_country": "France",
  "winner_avg_speed": "34,756",
  "ahead_of_2nd": "0h 03' 40\" ",
  "second_name": "J. Jimenez",
  "second_country": "Espagne",
  "second_id": null,
  "ahead_of_3rd": "0h 07' 23\"",
  "third_name": "F. Balmanion",
  "third_country": "Italie",
  "third_id": null,
  "legs": [
    {
      "id": "E-1967-Prologue",
      "year": 1967,
      "leg": "Prologue",
      "leg_num": 0,
      "title": "Angers",
      "start": {
        "city": "France",
        "country": "47.478419,-0.563166",
        "lat": "Angers",
        "lng": null
      },
      "finish": {
        "city": "France",
        "country": "47.478419,-0.563166",
        "lat": "5",
        "lng": "775"
      },
      "length": 0
    },
    {
      "id": "E-1967-01",
      "year": 1967,
      "leg": "1",
      "leg_num": 0,
      "title": "Angers",
      "start": {
        "city": "France",
        "country": "47.478419,-0.563166",
        "lat": "Saint-Malo",
        "lng": null
      },
      "finish": {
        "city": "France",
        "country": "48.649337,-2.025674",
        "lat": "185",
        "lng": "5"
      },
      "length": 0
    },
    {
      "id": "E-1967-02",
      "year": 1967,
      "leg": "2",
      "leg_num": 0,
      "title": "Saint-Malo",
      "start": {
        "city": "France",
        "country": "48.649337,-2.025674",
        "lat": "Caen",
        "lng": null
      },
      "finish": {
        "city": "France",
        "country": "49.182863,-0.370679",
        "lat": "180",
        "lng": null
      },
      "length": 0
    },
    {
      "id": "E-1967-03",
      "year": 1967,
      "leg": "3",
      "leg_num": 0,
      "title": "Caen",
      "start": {
        "city": "France",
        "country": "49.182863,-0.370679",
        "lat": "Amiens",
        "lng": null
      },
      "finish": {
        "city": "France",
        "country": "49.894067,2.295753",
        "lat": "248",
        "lng": null
      },
      "length": 0
    },
    {
      "id": "E-1967-04",
      "year": 1967,
      "leg": "4",
      "leg_num": 0,
      "title": "Amiens",
      "start": {
        "city": "France",
        "country": "49.894067,2.295753",
        "lat": "Roubaix",
        "lng": null
      },
      "finish": {
        "city": "France",
        "country": "50.692705,3.177847",
        "lat": "191",
        "lng": null
      },
      "length": 0
    },
    {
      "id": "E-1967-5a",
      "year": 1967,
      "leg": "5a",
      "leg_num": 0,
      "title": "Roubaix",
      "start": {
        "city": "France",
        "country": "50.692705,3.177847",
        "lat": "Jambes",
        "lng": null
      },
      "finish": {
        "city": "Belgique",
        "country": "50.456367,4.871877",
        "lat": "172",
        "lng": null
      },
      "length": 0
    },
    {
      "id": "E-1967-5b",
      "year": 1967,
      "leg": "5b",
      "leg_num": 0,
      "title": "Jambes",
      "start": {
        "city": "Belgique",
        "country": "50.456367,4.871877",
        "lat": "Jambes",
        "lng": null
      },
      "finish": {
        "city": "Belgique",
        "country": "50.456367,4.871877",
        "lat": "17",
        "lng": null
      },
      "length": 0
    },
    {
      "id": "E-1967-06",
      "year": 1967,
      "leg": "6",
      "leg_num": 0,
      "title": "Jambes",
      "start": {
        "city": "Belgique",
        "country": "50.456367,4.871877",
        "lat": "Metz",
        "lng": null
      },
      "finish": {
        "city": "France",
        "country": "49.119666,6.176905",
        "lat": "238",
        "lng": null
      },
      "length": 0
    },
    {
      "id": "E-1967-07",
      "year": 1967,
      "leg": "7",
      "leg_num": 0,
      "title": "Metz",
      "start": {
        "city": "France",
        "country": "49.119666,6.176905",
        "lat": "Strasbourg",
        "lng": null
      },
      "finish": {
        "city": "France",
        "country": "48.583148,7.747882",
        "lat": "205",
        "lng": "5"
      },
      "length": 0
    },
    {
      "id": "E-1967-08",
      "year": 1967,
      "leg": "8",
      "leg_num": 0,
      "title": "Strasbourg",
      "start": {
        "city": "France",
        "country": "48.583148,7.747882",
        "lat": "Ballon d'Alsace",
        "lng": null
      },
      "finish": {
        "city": "France",
        "country": "47.822893,6.84645",
        "lat": "215",
        "lng": null
      },
      "length": 0
    },
    {
      "id": "E-1967-09",
      "year": 1967,
      "leg": "9",
      "leg_num": 0,
      "title": "Belfort",
      "start": {
        "city": "France",
        "country": "47.639674,6.863849",
        "lat": "Divonne-les-Bains",
        "lng": null
      },
      "finish": {
        "city": "France",
        "country": "46.358168,6.13604",
        "lat": "238",
        "lng": "5"
      },
      "length": 0
    },
    {
      "id": "E-1967-10",
      "year": 1967,
      "leg": "10",
      "leg_num": 0,
      "title": "Divonne-les-Bains",
      "start": {
        "city": "France",
        "country": "46.358168,6.13604",
        "lat": "Briançon",
        "lng": null
      },
      "finish": {
        "city": "France",
        "country": "44.899416,6.643179",
        "lat": "243",
        "lng": null
      },
      "length": 0
    },
    {
      "id": "E-1967-11",
      "year": 1967,
      "leg": "11",
      "leg_num": 0,
      "title": "Briançon",
      "start": {
        "city": "France",
        "country": "44.899416,6.643179",
        "lat": "Digne-les-Bains",
        "lng": null
      },
      "finish": {
        "city": "France",
        "country": "44.092193,6.235976",
        "lat": "197",
        "lng": null
      },
      "length": 0
    },
    {
      "id": "E-1967-12",
      "year": 1967,
      "leg": "12",
      "leg_num": 0,
      "title": "Digne-les-Bains",
      "start": {
        "city": "France",
        "country": "44.092193,6.235976",
        "lat": "Marseille",
        "lng": null
      },
      "finish": {
        "city": "France",
        "country": "43.296482,5.36978",
        "lat": "207",
        "lng": "5"
      },
      "length": 0
    },
    {
      "id": "E-1967-13",
      "year": 1967,
      "leg": "13",
      "leg_num": 0,
      "title": "Marseille",
      "start": {
        "city": "France",
        "country": "43.296482,5.36978",
        "lat": "Carpentras",
        "lng": null
      },
      "finish": {
        "city": "France",
        "country": "44.055564,5.048722",
        "lat": "211",
        "lng": "5"
      },
      "length": 0
    },
    {
      "id": "E-1967-14",
      "year": 1967,
      "leg": "14",
      "leg_num": 0,
      "title": "Carpentras",
      "start": {
        "city": "France",
        "country": "44.055564,5.048722",
        "lat": "Sète",
        "lng": null
      },
      "finish": {
        "city": "France",
        "country": "43.40215,3.696624",
        "lat": "201",
        "lng": "5"
      },
      "length": 0
    },
    {
      "id": "E-1967-15",
      "year": 1967,
      "leg": "15",
      "leg_num": 0,
      "title": "Sète",
      "start": {
        "city": "France",
        "country": "43.40215,3.696624",
        "lat": "Toulouse",
        "lng": null
      },
      "finish": {
        "city": "France",
        "country": "43.604652,1.444209",
        "lat": "230",
        "lng": null
      },
      "length": 0
    },
    {
      "id": "E-1967-16",
      "year": 1967,
      "leg": "16",
      "leg_num": 0,
      "title": "Toulouse",
      "start": {
        "city": "France",
        "country": "43.604652,1.444209",
        "lat": "Luchon",
        "lng": null
      },
      "finish": {
        "city": "France",
        "country": "42.788963,0.592943",
        "lat": "188",
        "lng": null
      },
      "length": 0
    },
    {
      "id": "E-1967-17",
      "year": 1967,
      "leg": "17",
      "leg_num": 0,
      "title": "Luchon",
      "start": {
        "city": "France",
        "country": "42.788963,0.592943",
        "lat": "Pau",
        "lng": null
      },
      "finish": {
        "city": "France",
        "country": "43.2951,-0.370797",
        "lat": "250",
        "lng": null
      },
      "length": 0
    },
    {
      "id": "E-1967-18",
      "year": 1967,
      "leg": "18",
      "leg_num": 0,
      "title": "Pau",
      "start": {
        "city": "France",
        "country": "43.2951,-0.370797",
        "lat": "Bordeaux",
        "lng": null
      },
      "finish": {
        "city": "France",
        "country": "44.837789,-0.57918",
        "lat": "206",
        "lng": "5"
      },
      "length": 0
    },
    {
      "id": "E-1967-19",
      "year": 1967,
      "leg": "19",
      "leg_num": 0,
      "title": "Bordeaux",
      "start": {
        "city": "France",
        "country": "44.837789,-0.57918",
        "lat": "Limoges",
        "lng": null
      },
      "finish": {
        "city": "France",
        "country": "45.833619,1.261105",
        "lat": "217",
        "lng": null
      },
      "length": 0
    },
    {
      "id": "E-1967-20",
      "year": 1967,
      "leg": "20",
      "leg_num": 0,
      "title": "Limoges",
      "start": {
        "city": "France",
        "country": "45.833619,1.261105",
        "lat": "Puy de Dôme",
        "lng": null
      },
      "finish": {
        "city": "France",
        "country": "45.77207,2.96974",
        "lat": "222",
        "lng": null
      },
      "length": 0
    },
    {
      "id": "E-1967-21",
      "year": 1967,
      "leg": "21",
      "leg_num": 0,
      "title": "Clermont-Ferrand",
      "start": {
        "city": "France",
        "country": "45.777222,3.087025",
        "lat": "Fontainebleau",
        "lng": null
      },
      "finish": {
        "city": "France",
        "country": "48.404676,2.70162",
        "lat": "359",
        "lng": null
      },
      "length": 0
    },
    {
      "id": "E-1967-22a",
      "year": 1967,
      "leg": "22a",
      "leg_num": 0,
      "title": "Fontainebleau",
      "start": {
        "city": "France",
        "country": "48.404676,2.70162",
        "lat": "Versailles",
        "lng": null
      },
      "finish": {
        "city": "France",
        "country": "48.801408,2.130122",
        "lat": "104",
        "lng": null
      },
      "length": 0
    },
    {
      "id": "E-1967-22b",
      "year": 1967,
      "leg": "22b",
      "leg_num": 0,
      "title": "Versailles",
      "start": {
        "city": "France",
        "country": "48.801408,2.130122",
        "lat": "Paris",
        "lng": null
      },
      "finish": {
        "city": "France",
        "country": "48.856614,2.352222",
        "lat": "46",
        "lng": "6"
      },
      "length": 0
    }
  ]
}