{
  "year": 1968,
  "edition": 55,
  "total_length": 4492,
  "nb_legs": 22,
  "has_prologue": false,
  "nb_concurrents": 110,
  "nb_finishers": 63,
  "pct_finishers": 57,
  "winner_first_name": "Jan",
  "winner_last_name": "Janssen",
  "winner_id": "jan-janssen",
  "winner_total_time": "133h 49' 32\"",
  "winner_age": "28",
  "winner_country": "Pays-Bas",
  "winner_avg_speed": "33,556",
  "ahead_of_2nd": "0h 00' 38\" ",
  "second_name": "H. Van Springel",
  "second_country": "Belgique",
  "second_id": null,
  "ahead_of_3rd": "0h 03' 03\"",
  "third_name": "F. Bracke",
  "third_country": "Belgique",
  "third_id": null,
  "legs": [
    {
      "id": "E-1968-1a",
      "year": 1968,
      "leg": "1a",
      "leg_num": 1,
      "title": "Vittel",
      "start": {
        "city": "Vittel",
        "country": "France",
        "lat": "48.202541",
        "lng": "5.943496"
      },
      "finish": {
        "city": "Vittel",
        "country": "France",
        "lat": "48.202541",
        "lng": "5.943496"
      },
      "length": 6
    },
    {
      "id": "E-1968-1b",
      "year": 1968,
      "leg": "1b",
      "leg_num": 2,
      "title": "Vittel - Esch-sur-Alzette",
      "start": {
        "city": "Vittel",
        "country": "France",
        "lat": "48.202541",
        "lng": "5.943496"
      },
      "finish": {
        "city": "Esch-sur-Alzette",
        "country": "Luxembourg",
        "lat": "49.61162",
        "lng": "6.13193"
      },
      "length": 169
    },
    {
      "id": "E-1968-02",
      "year": 1968,
      "leg": "2",
      "leg_num": 3,
      "title": "Arlon - Forest",
      "start": {
        "city": "Arlon",
        "country": "Belgique",
        "lat": "49.683333",
        "lng": "5.816667"
      },
      "finish": {
        "city": "Forest",
        "country": "Belgique",
        "lat": "50.8",
        "lng": "4.316667"
      },
      "length": 210
    },
    {
      "id": "E-1968-3a",
      "year": 1968,
      "leg": "3a",
      "leg_num": 4,
      "title": "Forest - Forest",
      "start": {
        "city": "Forest",
        "country": "Belgique",
        "lat": "50.8",
        "lng": "4.316667"
      },
      "finish": {
        "city": "Forest",
        "country": "Belgique",
        "lat": "50.8",
        "lng": "4.316667"
      },
      "length": 22
    },
    {
      "id": "E-1968-3b",
      "year": 1968,
      "leg": "3b",
      "leg_num": 5,
      "title": "Forest - Roubaix",
      "start": {
        "city": "Forest",
        "country": "Belgique",
        "lat": "50.8",
        "lng": "4.316667"
      },
      "finish": {
        "city": "Roubaix",
        "country": "France",
        "lat": "50.692705",
        "lng": "3.177847"
      },
      "length": 112
    },
    {
      "id": "E-1968-04",
      "year": 1968,
      "leg": "4",
      "leg_num": 6,
      "title": "Roubaix - Rouen",
      "start": {
        "city": "Roubaix",
        "country": "France",
        "lat": "50.692705",
        "lng": "3.177847"
      },
      "finish": {
        "city": "Rouen",
        "country": "France",
        "lat": "49.443232",
        "lng": "1.099971"
      },
      "length": 238
    },
    {
      "id": "E-1968-5a",
      "year": 1968,
      "leg": "5a",
      "leg_num": 7,
      "title": "Rouen - Bagnoles-de-l'Orne",
      "start": {
        "city": "Rouen",
        "country": "France",
        "lat": "49.443232",
        "lng": "1.099971"
      },
      "finish": {
        "city": "Bagnoles-de-l'Orne",
        "country": "France",
        "lat": "48.558399",
        "lng": "-0.415091"
      },
      "length": 165
    },
    {
      "id": "E-1968-5b",
      "year": 1968,
      "leg": "5b",
      "leg_num": 8,
      "title": "Bagnoles-de-l'Orne - Dinard",
      "start": {
        "city": "Bagnoles-de-l'Orne",
        "country": "France",
        "lat": "48.558399",
        "lng": "-0.415091"
      },
      "finish": {
        "city": "Dinard",
        "country": "France",
        "lat": "48.633024",
        "lng": "-2.055125"
      },
      "length": 154
    },
    {
      "id": "E-1968-06",
      "year": 1968,
      "leg": "6",
      "leg_num": 9,
      "title": "Dinard - Lorient",
      "start": {
        "city": "Dinard",
        "country": "France",
        "lat": "48.633024",
        "lng": "-2.055125"
      },
      "finish": {
        "city": "Lorient",
        "country": "France",
        "lat": "47.748252",
        "lng": "-3.370245"
      },
      "length": 188
    },
    {
      "id": "E-1968-07",
      "year": 1968,
      "leg": "7",
      "leg_num": 10,
      "title": "Lorient - Nantes",
      "start": {
        "city": "Lorient",
        "country": "France",
        "lat": "47.748252",
        "lng": "-3.370245"
      },
      "finish": {
        "city": "Nantes",
        "country": "France",
        "lat": "47.218371",
        "lng": "-1.553621"
      },
      "length": 190
    },
    {
      "id": "E-1968-08",
      "year": 1968,
      "leg": "8",
      "leg_num": 11,
      "title": "Nantes - Royan",
      "start": {
        "city": "Nantes",
        "country": "France",
        "lat": "47.218371",
        "lng": "-1.553621"
      },
      "finish": {
        "city": "Royan",
        "country": "France",
        "lat": "45.623027",
        "lng": "-1.043182"
      },
      "length": 223
    },
    {
      "id": "E-1968-09",
      "year": 1968,
      "leg": "9",
      "leg_num": 12,
      "title": "Royan - Bordeaux",
      "start": {
        "city": "Royan",
        "country": "France",
        "lat": "45.623027",
        "lng": "-1.043182"
      },
      "finish": {
        "city": "Bordeaux",
        "country": "France",
        "lat": "44.837789",
        "lng": "-0.57918"
      },
      "length": 137
    },
    {
      "id": "E-1968-10",
      "year": 1968,
      "leg": "10",
      "leg_num": 13,
      "title": "Bordeaux - Bayonne",
      "start": {
        "city": "Bordeaux",
        "country": "France",
        "lat": "44.837789",
        "lng": "-0.57918"
      },
      "finish": {
        "city": "Bayonne",
        "country": "France",
        "lat": "43.492949",
        "lng": "-1.474841"
      },
      "length": 202
    },
    {
      "id": "E-1968-11",
      "year": 1968,
      "leg": "11",
      "leg_num": 14,
      "title": "Bayonne - Pau",
      "start": {
        "city": "Bayonne",
        "country": "France",
        "lat": "43.492949",
        "lng": "-1.474841"
      },
      "finish": {
        "city": "Pau",
        "country": "France",
        "lat": "43.2951",
        "lng": "-0.370797"
      },
      "length": 183
    },
    {
      "id": "E-1968-12",
      "year": 1968,
      "leg": "12",
      "leg_num": 15,
      "title": "Pau - Saint-Gaudens",
      "start": {
        "city": "Pau",
        "country": "France",
        "lat": "43.2951",
        "lng": "-0.370797"
      },
      "finish": {
        "city": "Saint-Gaudens",
        "country": "France",
        "lat": "43.106895",
        "lng": "0.723763"
      },
      "length": 226
    },
    {
      "id": "E-1968-13",
      "year": 1968,
      "leg": "13",
      "leg_num": 16,
      "title": "Saint-Gaudens - La Seu d'Urgell",
      "start": {
        "city": "Saint-Gaudens",
        "country": "France",
        "lat": "43.106895",
        "lng": "0.723763"
      },
      "finish": {
        "city": "La Seu d'Urgell",
        "country": "Espagne",
        "lat": "42.359105",
        "lng": "1.459173"
      },
      "length": 208
    },
    {
      "id": "E-1968-14",
      "year": 1968,
      "leg": "14",
      "leg_num": 17,
      "title": "La Seu d'Urgell - Canet-Plage",
      "start": {
        "city": "La Seu d'Urgell",
        "country": "Espagne",
        "lat": "42.359105",
        "lng": "1.459173"
      },
      "finish": {
        "city": "Canet-Plage",
        "country": "France",
        "lat": "42.706091",
        "lng": "3.009898"
      },
      "length": 231
    },
    {
      "id": "E-1968-15",
      "year": 1968,
      "leg": "15",
      "leg_num": 18,
      "title": "Font-Romeu - Albi",
      "start": {
        "city": "Font-Romeu",
        "country": "France",
        "lat": "42.4983",
        "lng": "2.0347"
      },
      "finish": {
        "city": "Albi",
        "country": "France",
        "lat": "43.926896",
        "lng": "2.146343"
      },
      "length": 250
    },
    {
      "id": "E-1968-16",
      "year": 1968,
      "leg": "16",
      "leg_num": 19,
      "title": "Albi - Aurillac",
      "start": {
        "city": "Albi",
        "country": "France",
        "lat": "43.926896",
        "lng": "2.146343"
      },
      "finish": {
        "city": "Aurillac",
        "country": "France",
        "lat": "44.930953",
        "lng": "2.444997"
      },
      "length": 199
    },
    {
      "id": "E-1968-17",
      "year": 1968,
      "leg": "17",
      "leg_num": 20,
      "title": "Aurillac - Saint-Étienne",
      "start": {
        "city": "Aurillac",
        "country": "France",
        "lat": "44.930953",
        "lng": "2.444997"
      },
      "finish": {
        "city": "Saint-Étienne",
        "country": "France",
        "lat": "45.439695",
        "lng": "4.387178"
      },
      "length": 236
    },
    {
      "id": "E-1968-18",
      "year": 1968,
      "leg": "18",
      "leg_num": 21,
      "title": "Saint-Étienne - Grenoble",
      "start": {
        "city": "Saint-Étienne",
        "country": "France",
        "lat": "45.439695",
        "lng": "4.387178"
      },
      "finish": {
        "city": "Grenoble",
        "country": "France",
        "lat": "45.188529",
        "lng": "5.724524"
      },
      "length": 235
    },
    {
      "id": "E-1968-19",
      "year": 1968,
      "leg": "19",
      "leg_num": 22,
      "title": "Grenoble - Sallanches",
      "start": {
        "city": "Grenoble",
        "country": "France",
        "lat": "45.188529",
        "lng": "5.724524"
      },
      "finish": {
        "city": "Sallanches",
        "country": "France",
        "lat": "45.936661",
        "lng": "6.630557"
      },
      "length": 200
    },
    {
      "id": "E-1968-20",
      "year": 1968,
      "leg": "20",
      "leg_num": 23,
      "title": "Sallanches - Besançon",
      "start": {
        "city": "Sallanches",
        "country": "France",
        "lat": "45.936661",
        "lng": "6.630557"
      },
      "finish": {
        "city": "Besançon",
        "country": "France",
        "lat": "47.237829",
        "lng": "6.024054"
      },
      "length": 242
    },
    {
      "id": "E-1968-21",
      "year": 1968,
      "leg": "21",
      "leg_num": 24,
      "title": "Besançon - Auxerre",
      "start": {
        "city": "Besançon",
        "country": "France",
        "lat": "47.237829",
        "lng": "6.024054"
      },
      "finish": {
        "city": "Auxerre",
        "country": "France",
        "lat": "47.798202",
        "lng": "3.573781"
      },
      "length": 242
    },
    {
      "id": "E-1968-22a",
      "year": 1968,
      "leg": "22a",
      "leg_num": 25,
      "title": "Auxerre - Melun",
      "start": {
        "city": "Auxerre",
        "country": "France",
        "lat": "47.798202",
        "lng": "3.573781"
      },
      "finish": {
        "city": "Melun",
        "country": "France",
        "lat": "48.542105",
        "lng": "2.6554"
      },
      "length": 136
    },
    {
      "id": "E-1968-22b",
      "year": 1968,
      "leg": "22b",
      "leg_num": 26,
      "title": "Melun - Paris",
      "start": {
        "city": "Melun",
        "country": "France",
        "lat": "48.542105",
        "lng": "2.6554"
      },
      "finish": {
        "city": "Paris",
        "country": "France",
        "lat": "48.856614",
        "lng": "2.352222"
      },
      "length": 55
    }
  ]
}