{
  "year": 1969,
  "edition": 56,
  "total_length": 4117,
  "nb_legs": 22,
  "has_prologue": false,
  "nb_concurrents": 130,
  "nb_finishers": 86,
  "pct_finishers": 66,
  "winner_first_name": "Eddy",
  "winner_last_name": "Merckx",
  "winner_id": "eddy-merckx",
  "winner_total_time": "116h 16' 02\"",
  "winner_age": "24",
  "winner_country": "Belgique",
  "winner_avg_speed": "35,409",
  "ahead_of_2nd": "0h 17' 54\" ",
  "second_name": "R. Pingeon",
  "second_country": "France",
  "second_id": "roger-pingeon",
  "ahead_of_3rd": "0h 22' 13\"",
  "third_name": "R. Poulidor",
  "third_country": "France",
  "third_id": null,
  "legs": [
    {
      "id": "E-1969-Prologue",
      "year": 1969,
      "leg": "Prologue",
      "leg_num": 0,
      "title": "Roubaix",
      "start": {
        "city": "Roubaix",
        "country": "France",
        "lat": "50.692705",
        "lng": "3.177847"
      },
      "finish": {
        "city": "Roubaix",
        "country": "France",
        "lat": "50.692705",
        "lng": "3.177847"
      },
      "length": 10
    },
    {
      "id": "E-1969-1a",
      "year": 1969,
      "leg": "1a",
      "leg_num": 1,
      "title": "Roubaix - Woluwe-Saint-Pierre (Bel.)",
      "start": {
        "city": "Roubaix",
        "country": "France",
        "lat": "50.692705",
        "lng": "3.177847"
      },
      "finish": {
        "city": "Woluwe-Saint-Pierre",
        "country": "Belgique",
        "lat": "50.82672",
        "lng": "4.41759"
      },
      "length": 147
    },
    {
      "id": "E-1969-1b",
      "year": 1969,
      "leg": "1b",
      "leg_num": 2,
      "title": "Woluwe-Saint-Pierre - Woluwe-Saint-Pierre",
      "start": {
        "city": "Woluwe-Saint-Pierre",
        "country": "Belgique",
        "lat": "50.82672",
        "lng": "4.41759"
      },
      "finish": {
        "city": "Woluwe-Saint-Pierre",
        "country": "Belgique",
        "lat": "50.82672",
        "lng": "4.41759"
      },
      "length": 16
    },
    {
      "id": "E-1969-02",
      "year": 1969,
      "leg": "2",
      "leg_num": 3,
      "title": "Woluwe-Saint-Pierre - Maastricht (P.-B.)",
      "start": {
        "city": "Woluwe-Saint-Pierre",
        "country": "Belgique",
        "lat": "50.82672",
        "lng": "4.41759"
      },
      "finish": {
        "city": "Maastricht",
        "country": "Pays-Bas",
        "lat": "50.85121",
        "lng": "5.68304"
      },
      "length": 181
    },
    {
      "id": "E-1969-03",
      "year": 1969,
      "leg": "3",
      "leg_num": 4,
      "title": "Maastricht - Charleville-Mézières",
      "start": {
        "city": "Maastricht",
        "country": "Pays-Bas",
        "lat": "50.85121",
        "lng": "5.68304"
      },
      "finish": {
        "city": "Charleville-Mézières",
        "country": "France",
        "lat": "49.762085",
        "lng": "4.726096"
      },
      "length": 213
    },
    {
      "id": "E-1969-04",
      "year": 1969,
      "leg": "4",
      "leg_num": 5,
      "title": "Charleville-Mézières - Nancy",
      "start": {
        "city": "Charleville-Mézières",
        "country": "France",
        "lat": "49.762085",
        "lng": "4.726096"
      },
      "finish": {
        "city": "Nancy",
        "country": "France",
        "lat": "48.692054",
        "lng": "6.184417"
      },
      "length": 214
    },
    {
      "id": "E-1969-05",
      "year": 1969,
      "leg": "5",
      "leg_num": 6,
      "title": "Nancy - Mulhouse",
      "start": {
        "city": "Nancy",
        "country": "France",
        "lat": "48.692054",
        "lng": "6.184417"
      },
      "finish": {
        "city": "Mulhouse",
        "country": "France",
        "lat": "47.750839",
        "lng": "7.335888"
      },
      "length": 193
    },
    {
      "id": "E-1969-06",
      "year": 1969,
      "leg": "6",
      "leg_num": 7,
      "title": "Mulhouse - Ballon d'Alsace",
      "start": {
        "city": "Mulhouse",
        "country": "France",
        "lat": "47.750839",
        "lng": "7.335888"
      },
      "finish": {
        "city": "Ballon d'Alsace",
        "country": "France",
        "lat": "47.82289",
        "lng": "6.84645"
      },
      "length": 133
    },
    {
      "id": "E-1969-07",
      "year": 1969,
      "leg": "7",
      "leg_num": 8,
      "title": "Belfort - Divonne-les-Bains",
      "start": {
        "city": "Belfort",
        "country": "France",
        "lat": "47.63967",
        "lng": "6.86385"
      },
      "finish": {
        "city": "Divonne-les-Bains",
        "country": "France",
        "lat": "46.35817",
        "lng": "6.13604"
      },
      "length": 241
    },
    {
      "id": "E-1969-8a",
      "year": 1969,
      "leg": "8a",
      "leg_num": 9,
      "title": "Divonne-les-Bains - Divonne-les-Bains",
      "start": {
        "city": "Divonne-les-Bains",
        "country": "France",
        "lat": "46.35817",
        "lng": "6.13604"
      },
      "finish": {
        "city": "Divonne-les-Bains",
        "country": "France",
        "lat": "46.35817",
        "lng": "6.13604"
      },
      "length": 9
    },
    {
      "id": "E-1969-8b",
      "year": 1969,
      "leg": "8b",
      "leg_num": 10,
      "title": "Divonne-les-Bains - Thonon-les-Bains",
      "start": {
        "city": "Divonne-les-Bains",
        "country": "France",
        "lat": "46.35817",
        "lng": "6.13604"
      },
      "finish": {
        "city": "Thonon-les-Bains",
        "country": "France",
        "lat": "46.37357",
        "lng": "6.47764"
      },
      "length": 136
    },
    {
      "id": "E-1969-09",
      "year": 1969,
      "leg": "9",
      "leg_num": 11,
      "title": "Thonon-les-Bains - Chamonix",
      "start": {
        "city": "Thonon-les-Bains",
        "country": "France",
        "lat": "46.37357",
        "lng": "6.47764"
      },
      "finish": {
        "city": "Chamonix",
        "country": "France",
        "lat": "45.92370",
        "lng": "6.86943"
      },
      "length": 111
    },
    {
      "id": "E-1969-10",
      "year": 1969,
      "leg": "10",
      "leg_num": 12,
      "title": "Chamonix - Briançon",
      "start": {
        "city": "Chamonix",
        "country": "France",
        "lat": "45.92370",
        "lng": "6.86943"
      },
      "finish": {
        "city": "Briançon",
        "country": "France",
        "lat": "44.89942",
        "lng": "6.64318"
      },
      "length": 220
    },
    {
      "id": "E-1969-11",
      "year": 1969,
      "leg": "11",
      "leg_num": 13,
      "title": "Briançon - Digne-les-Bains",
      "start": {
        "city": "Briançon",
        "country": "France",
        "lat": "44.89942",
        "lng": "6.64318"
      },
      "finish": {
        "city": "Digne-les-Bains",
        "country": "France",
        "lat": "44.09219",
        "lng": "6.23598"
      },
      "length": 198
    },
    {
      "id": "E-1969-12",
      "year": 1969,
      "leg": "12",
      "leg_num": 14,
      "title": "Digne-les-Bains - Aubagne",
      "start": {
        "city": "Digne-les-Bains",
        "country": "France",
        "lat": "44.09219",
        "lng": "6.23598"
      },
      "finish": {
        "city": "Aubagne",
        "country": "France",
        "lat": "43.29218",
        "lng": "5.56934"
      },
      "length": 161
    },
    {
      "id": "E-1969-13",
      "year": 1969,
      "leg": "13",
      "leg_num": 15,
      "title": "Aubagne - La Grande Motte",
      "start": {
        "city": "Aubagne",
        "country": "France",
        "lat": "43.29218",
        "lng": "5.56934"
      },
      "finish": {
        "city": "La Grande-Motte",
        "country": "France",
        "lat": "43.56070",
        "lng": "4.08607"
      },
      "length": 195
    },
    {
      "id": "E-1969-14",
      "year": 1969,
      "leg": "14",
      "leg_num": 16,
      "title": "La Grande Motte - Revel",
      "start": {
        "city": "La Grande Motte",
        "country": "France",
        "lat": "43.56070",
        "lng": "4.08607"
      },
      "finish": {
        "city": "Revel",
        "country": "France",
        "lat": "43.458611",
        "lng": "2.004573"
      },
      "length": 234
    },
    {
      "id": "E-1969-15",
      "year": 1969,
      "leg": "15",
      "leg_num": 17,
      "title": "Revel - Revel",
      "start": {
        "city": "Revel",
        "country": "France",
        "lat": "43.458611",
        "lng": "2.004573"
      },
      "finish": {
        "city": "Revel",
        "country": "France",
        "lat": "43.458611",
        "lng": "2.004573"
      },
      "length": 18
    },
    {
      "id": "E-1969-16",
      "year": 1969,
      "leg": "16",
      "leg_num": 18,
      "title": "Castelnaudary - Luchon",
      "start": {
        "city": "Castelnaudary",
        "country": "France",
        "lat": "43.31712",
        "lng": "1.95333"
      },
      "finish": {
        "city": "Luchon",
        "country": "France",
        "lat": "42.788963",
        "lng": "0.592943"
      },
      "length": 199
    },
    {
      "id": "E-1969-17",
      "year": 1969,
      "leg": "17",
      "leg_num": 19,
      "title": "Luchon - Mourenx",
      "start": {
        "city": "Luchon",
        "country": "France",
        "lat": "42.788963",
        "lng": "0.592943"
      },
      "finish": {
        "city": "Mourenx",
        "country": "France",
        "lat": "43.368262",
        "lng": "-0.620552"
      },
      "length": 214
    },
    {
      "id": "E-1969-18",
      "year": 1969,
      "leg": "18",
      "leg_num": 20,
      "title": "Mourenx - Bordeaux",
      "start": {
        "city": "Mourenx",
        "country": "France",
        "lat": "43.368262",
        "lng": "-0.620552"
      },
      "finish": {
        "city": "Bordeaux",
        "country": "France",
        "lat": "44.837789",
        "lng": "-0.57918"
      },
      "length": 201
    },
    {
      "id": "E-1969-19",
      "year": 1969,
      "leg": "19",
      "leg_num": 21,
      "title": "Bordeaux - Brive-la-Gaillarde",
      "start": {
        "city": "Bordeaux",
        "country": "France",
        "lat": "44.837789",
        "lng": "-0.57918"
      },
      "finish": {
        "city": "Brive-la-Gaillarde",
        "country": "France",
        "lat": "45.159555",
        "lng": "1.533937"
      },
      "length": 192
    },
    {
      "id": "E-1969-20",
      "year": 1969,
      "leg": "20",
      "leg_num": 22,
      "title": "Brive-la-Gaillarde - Puy de Dôme",
      "start": {
        "city": "Brive-la-Gaillarde",
        "country": "France",
        "lat": "45.159555",
        "lng": "1.533937"
      },
      "finish": {
        "city": "Puy de Dôme",
        "country": "France",
        "lat": "45.77207",
        "lng": "2.96974"
      },
      "length": 198
    },
    {
      "id": "E-1969-21",
      "year": 1969,
      "leg": "21",
      "leg_num": 23,
      "title": "Clermont-Ferrand - Montargis",
      "start": {
        "city": "Clermont-Ferrand",
        "country": "France",
        "lat": "45.77722",
        "lng": "3.08703"
      },
      "finish": {
        "city": "Montargis",
        "country": "France",
        "lat": "47.99729",
        "lng": "2.736291"
      },
      "length": 329
    },
    {
      "id": "E-1969-22a",
      "year": 1969,
      "leg": "22a",
      "leg_num": 24,
      "title": "Montargis - Créteil",
      "start": {
        "city": "Montargis",
        "country": "France",
        "lat": "47.99729",
        "lng": "2.736291"
      },
      "finish": {
        "city": "Créteil",
        "country": "France",
        "lat": "48.790367",
        "lng": "2.455572"
      },
      "length": 111
    },
    {
      "id": "E-1969-22b",
      "year": 1969,
      "leg": "22b",
      "leg_num": 25,
      "title": "Créteil - Paris",
      "start": {
        "city": "Créteil",
        "country": "France",
        "lat": "48.790367",
        "lng": "2.455572"
      },
      "finish": {
        "city": "Paris",
        "country": "France",
        "lat": "48.856614",
        "lng": "2.352222"
      },
      "length": 37
    }
  ]
}