{
  "year": 1970,
  "edition": 57,
  "total_length": 4254,
  "nb_legs": 23,
  "has_prologue": true,
  "nb_concurrents": 150,
  "nb_finishers": 100,
  "pct_finishers": 67,
  "winner_name": "Eddy Merckx",
  "winner_time": "119h 31’ 49”",
  "ahead_of_2nd": "0h 12' 41\" ",
  "second_name": "J. Zoetemelk",
  "second_country": "Pays-Bas",
  "ahead_of_3rd": "0h 15' 54\"",
  "third_name": "G. Pettersson",
  "third_country": "G. Pettersson",
  "legs": [
    {
      "id": "E-1970-Prologue",
      "year": 1970,
      "leg": 0,
      "title": "Limoges",
      "start": {
        "city": "Limoges",
        "country": "France",
        "lng": "1.261105",
        "lat": "45.833619"
      },
      "finish": {
        "city": "Limoges",
        "country": "France",
        "lng": "1.261105",
        "lat": "45.833619"
      },
      "length": 54,
      "type": "(CLM)",
      "winner": {
        "name": "Eddy Merckx Drapeau belge Belgique",
        "nationality": null
      },
      "leader": {
        "name": "Eddy Merckx Drapeau belge Belgique",
        "nationality": null
      }
    },
    {
      "id": "E-1970-01",
      "year": 1970,
      "leg": 1,
      "title": "Limoges - La Rochelle",
      "start": {
        "city": "Limoges",
        "country": "France",
        "lng": "1.261105",
        "lat": "45.833619"
      },
      "finish": {
        "city": "La Rochelle",
        "country": "France",
        "lng": "-1.151139",
        "lat": "46.160329"
      },
      "length": 7,
      "type": "(CLM)",
      "winner": {
        "name": "Eddy Merckx Drapeau belge Belgique",
        "nationality": null
      },
      "leader": {
        "name": "Eddy Merckx Drapeau belge Belgique",
        "nationality": null
      }
    },
    {
      "id": "E-1970-02",
      "year": 1970,
      "leg": 2,
      "title": "La Rochelle - Angers",
      "start": {
        "city": "La Rochelle",
        "country": "France",
        "lng": "-1.151139",
        "lat": "46.160329"
      },
      "finish": {
        "city": "Saint-Gaudens",
        "country": "France",
        "lng": "0.723763",
        "lat": "43.106895"
      },
      "length": 119,
      "type": null,
      "winner": {
        "name": "Eddy Merckx Drapeau belge Belgique",
        "nationality": null
      },
      "leader": {
        "name": "Eddy Merckx Drapeau belge Belgique",
        "nationality": null
      }
    },
    {
      "id": "E-1970-3b",
      "year": 1970,
      "leg": 3,
      "title": "Angers - Rennes",
      "start": {
        "city": "Angers",
        "country": "France",
        "lng": "-0.563166",
        "lat": "47.478419"
      },
      "finish": {
        "city": "Thonon-les-Bains",
        "country": "France",
        "lng": "6.477635",
        "lat": "46.373565"
      },
      "length": 10,
      "type": "(CLM par équipes)",
      "winner": {
        "name": "Faema-Faemino",
        "nationality": null
      },
      "leader": {
        "name": "Italo Zilioli Drapeau d'Italie Italie",
        "nationality": null
      }
    },
    {
      "id": "E-1970-3a",
      "year": 1970,
      "leg": 3,
      "title": "Angers - Angers",
      "start": {
        "city": "Angers",
        "country": "France",
        "lng": "-0.563166",
        "lat": "47.478419"
      },
      "finish": {
        "city": "Divonne-les-Bains",
        "country": "France",
        "lng": "6.13604",
        "lat": "46.358168"
      },
      "length": 200,
      "type": null,
      "winner": {
        "name": "Italo Zilioli Drapeau d'Italie Italie",
        "nationality": null
      },
      "leader": {
        "name": "Italo Zilioli Drapeau d'Italie Italie",
        "nationality": null
      }
    },
    {
      "id": "E-1970-04",
      "year": 1970,
      "leg": 4,
      "title": "Rennes - Lisieux",
      "start": {
        "city": "Rennes",
        "country": "France",
        "lng": "-1.675708",
        "lat": "48.113475"
      },
      "finish": {
        "city": "Bordeaux",
        "country": "France",
        "lng": "-0.57918",
        "lat": "44.837789"
      },
      "length": 241,
      "type": null,
      "winner": {
        "name": "Eddy Merckx Drapeau belge Belgique",
        "nationality": null
      },
      "leader": {
        "name": "Eddy Merckx Drapeau belge Belgique",
        "nationality": null
      }
    },
    {
      "id": "E-1970-5a",
      "year": 1970,
      "leg": 5,
      "title": "Lisieux - Rouen",
      "start": {
        "city": "Lisieux",
        "country": "France",
        "lng": "0.227849",
        "lat": "49.145922"
      },
      "finish": {
        "city": "Bordeaux",
        "country": "France",
        "lng": "-0.57918",
        "lat": "44.837789"
      },
      "length": 8,
      "type": "(CLM)",
      "winner": {
        "name": "Eddy Merckx Drapeau belge Belgique",
        "nationality": null
      },
      "leader": {
        "name": "Eddy Merckx Drapeau belge Belgique",
        "nationality": null
      }
    },
    {
      "id": "E-1970-5b",
      "year": 1970,
      "leg": 5,
      "title": "Rouen - Amiens",
      "start": {
        "city": "Rouen",
        "country": "France",
        "lng": "1.099971",
        "lat": "49.443232"
      },
      "finish": {
        "city": "Angers",
        "country": "France",
        "lng": "-0.563166",
        "lat": "47.478419"
      },
      "length": 170,
      "type": null,
      "winner": {
        "name": "Eddy Merckx Drapeau belge Belgique",
        "nationality": null
      },
      "leader": {
        "name": "Eddy Merckx Drapeau belge Belgique",
        "nationality": null
      }
    },
    {
      "id": "E-1970-06",
      "year": 1970,
      "leg": 6,
      "title": "Amiens - Valenciennes",
      "start": {
        "city": "Amiens",
        "country": "France",
        "lng": "2.295753",
        "lat": "49.894067"
      },
      "finish": {
        "city": "Rennes",
        "country": "France",
        "lng": "-1.675708",
        "lat": "48.113475"
      },
      "length": 144,
      "type": null,
      "winner": {
        "name": "Marinus Wagtmans Drapeau : Pays-Bas Pays-Bas",
        "nationality": null
      },
      "leader": {
        "name": "Eddy Merckx Drapeau belge Belgique",
        "nationality": null
      }
    },
    {
      "id": "E-1970-7a",
      "year": 1970,
      "leg": 7,
      "title": "Valenciennes - Forest (BEL)",
      "start": {
        "city": "Valenciennes",
        "country": "France",
        "lng": "3.518332",
        "lat": "50.357113"
      },
      "finish": {
        "city": "Rouen",
        "country": "France",
        "lng": "1.099971",
        "lat": "49.443232"
      },
      "length": 190,
      "type": null,
      "winner": {
        "name": "Luis Ocaña Drapeau : EspagneEspagne",
        "nationality": null
      },
      "leader": {
        "name": "Eddy Merckx Drapeau belge Belgique",
        "nationality": null
      }
    },
    {
      "id": "E-1970-7b",
      "year": 1970,
      "leg": 7,
      "title": "Forest - Forest",
      "start": {
        "city": "Forest",
        "country": "Belgique",
        "lng": "4.316667",
        "lat": "50.8"
      },
      "finish": {
        "city": "Amiens",
        "country": "France",
        "lng": "2.295753",
        "lat": "49.894067"
      },
      "length": 135,
      "type": null,
      "winner": {
        "name": "Bernard Thévenet Drapeau de France France",
        "nationality": null
      },
      "leader": {
        "name": "Eddy Merckx Drapeau belge Belgique",
        "nationality": null
      }
    },
    {
      "id": "E-1970-08",
      "year": 1970,
      "leg": 8,
      "title": "Ciney (BEL) - Felsberg (RFA)",
      "start": {
        "city": "Ciney",
        "country": "Belgique",
        "lng": "5.100826",
        "lat": "50.295655"
      },
      "finish": {
        "city": "Forest",
        "country": "Belgique",
        "lng": "4.316667",
        "lat": "50.8"
      },
      "length": 231,
      "type": null,
      "winner": {
        "name": "Rolf Wolfshohl Drapeau d'Allemagne Allemagne",
        "nationality": null
      },
      "leader": {
        "name": "Eddy Merckx Drapeau belge Belgique",
        "nationality": null
      }
    },
    {
      "id": "E-1970-09",
      "year": 1970,
      "leg": 9,
      "title": "Saarlouis (RFA) - Mulhouse",
      "start": {
        "city": "Saarlouis",
        "country": "Allemagne",
        "lng": "6.752286",
        "lat": "49.313461"
      },
      "finish": {
        "city": "Forest",
        "country": "Belgique",
        "lng": "4.316667",
        "lat": "50.8"
      },
      "length": 8,
      "type": "(CLM)",
      "winner": {
        "name": "Eddy Merckx Drapeau belge Belgique",
        "nationality": null
      },
      "leader": {
        "name": "Eddy Merckx Drapeau belge Belgique",
        "nationality": null
      }
    },
    {
      "id": "E-1970-10",
      "year": 1970,
      "leg": 10,
      "title": "Belfort - Divonne-les-Bains",
      "start": {
        "city": "Belfort",
        "country": "France",
        "lng": "6.863849",
        "lat": "47.639674"
      },
      "finish": {
        "city": "Angers",
        "country": "France",
        "lng": "-0.563166",
        "lat": "47.478419"
      },
      "length": 269,
      "type": null,
      "winner": {
        "name": "Mogens Frey Drapeau du Danemark Danemark",
        "nationality": null
      },
      "leader": {
        "name": "Eddy Merckx Drapeau belge Belgique",
        "nationality": null
      }
    },
    {
      "id": "E-1970-11b",
      "year": 1970,
      "leg": 11,
      "title": "Divonne-les-Bains - Thonon-les-Bains",
      "start": {
        "city": "Divonne-les-Bains",
        "country": "France",
        "lng": "6.13604",
        "lat": "46.358168"
      },
      "finish": {
        "city": "Valenciennes",
        "country": "France",
        "lng": "3.518332",
        "lat": "50.357113"
      },
      "length": 185,
      "type": null,
      "winner": {
        "name": "Christian Raymond Drapeau de France France",
        "nationality": null
      },
      "leader": {
        "name": "Eddy Merckx Drapeau belge Belgique",
        "nationality": null
      }
    },
    {
      "id": "E-1970-11a",
      "year": 1970,
      "leg": 11,
      "title": "Divonne-les-Bains - Divonne-les-Bains",
      "start": {
        "city": "Divonne-les-Bains",
        "country": "France",
        "lng": "6.13604",
        "lat": "46.358168"
      },
      "finish": {
        "city": "Lisieux",
        "country": "France",
        "lng": "0.227849",
        "lat": "49.145922"
      },
      "length": 259,
      "type": null,
      "winner": {
        "name": "Albert Van Vlierberghe Drapeau belge Belgique",
        "nationality": null
      },
      "leader": {
        "name": "Eddy Merckx Drapeau belge Belgique",
        "nationality": null
      }
    },
    {
      "id": "E-1970-12",
      "year": 1970,
      "leg": 12,
      "title": "Thonon-les-Bains - Grenoble",
      "start": {
        "city": "Thonon-les-Bains",
        "country": "France",
        "lng": "6.477635",
        "lat": "46.373565"
      },
      "finish": {
        "city": "Felsberg",
        "country": "Allemagne",
        "lng": "6.708806",
        "lat": "49.110345"
      },
      "length": 191,
      "type": null,
      "winner": {
        "name": "Marino Basso Drapeau d'Italie Italie",
        "nationality": null
      },
      "leader": {
        "name": "Eddy Merckx Drapeau belge Belgique",
        "nationality": null
      }
    },
    {
      "id": "E-1970-13",
      "year": 1970,
      "leg": 13,
      "title": "Grenoble - Gap",
      "start": {
        "city": "Grenoble",
        "country": "France",
        "lng": "5.724524",
        "lat": "45.188529"
      },
      "finish": {
        "city": "Mulhouse",
        "country": "France",
        "lng": "7.335888",
        "lat": "47.750839"
      },
      "length": 238,
      "type": null,
      "winner": {
        "name": "Jean-Pierre Danguillaume Drapeau de France France",
        "nationality": null
      },
      "leader": {
        "name": "Eddy Merckx Drapeau belge Belgique",
        "nationality": null
      }
    },
    {
      "id": "E-1970-14",
      "year": 1970,
      "leg": 14,
      "title": "Gap - Mont Ventoux",
      "start": {
        "city": "Gap",
        "country": "France",
        "lng": "6.079758",
        "lat": "44.559638"
      },
      "finish": {
        "city": "Divonne-les-Bains",
        "country": "France",
        "lng": "6.13604",
        "lat": "46.358168"
      },
      "length": 224,
      "type": null,
      "winner": {
        "name": "Cyrille Guimard Drapeau de France France",
        "nationality": null
      },
      "leader": {
        "name": "Eddy Merckx Drapeau belge Belgique",
        "nationality": null
      }
    },
    {
      "id": "E-1970-15",
      "year": 1970,
      "leg": 15,
      "title": "Carpentras - Montpellier",
      "start": {
        "city": "Carpentras",
        "country": "France",
        "lng": "5.048722",
        "lat": "44.055564"
      },
      "finish": {
        "city": "Grenoble",
        "country": "France",
        "lng": "5.724524",
        "lat": "45.188529"
      },
      "length": 140,
      "type": null,
      "winner": {
        "name": "Marino Basso Drapeau d'Italie Italie",
        "nationality": null
      },
      "leader": {
        "name": "Italo Zilioli Drapeau d'Italie Italie",
        "nationality": null
      }
    },
    {
      "id": "E-1970-16",
      "year": 1970,
      "leg": 16,
      "title": "Montpellier - Toulouse",
      "start": {
        "city": "Montpellier",
        "country": "France",
        "lng": "3.876716",
        "lat": "43.610769"
      },
      "finish": {
        "city": "Gap",
        "country": "France",
        "lng": "6.079758",
        "lat": "44.559638"
      },
      "length": 229,
      "type": null,
      "winner": {
        "name": "Walter Godefroot Drapeau belge Belgique",
        "nationality": null
      },
      "leader": {
        "name": "Italo Zilioli Drapeau d'Italie Italie",
        "nationality": null
      }
    },
    {
      "id": "E-1970-17",
      "year": 1970,
      "leg": 17,
      "title": "Toulouse - Saint-Gaudens",
      "start": {
        "city": "Toulouse",
        "country": "France",
        "lng": "1.444209",
        "lat": "43.604652"
      },
      "finish": {
        "city": "Mont Ventoux",
        "country": "France",
        "lng": "5.283795",
        "lat": "44.173925"
      },
      "length": 94,
      "type": null,
      "winner": {
        "name": "Walter Godefroot Drapeau belge Belgique",
        "nationality": null
      },
      "leader": {
        "name": "Italo Zilioli Drapeau d'Italie Italie",
        "nationality": null
      }
    },
    {
      "id": "E-1970-18",
      "year": 1970,
      "leg": 18,
      "title": "Saint-Gaudens - La Mongie",
      "start": {
        "city": "Saint-Gaudens",
        "country": "France",
        "lng": "0.723763",
        "lat": "43.106895"
      },
      "finish": {
        "city": "Montpellier",
        "country": "France",
        "lng": "3.876716",
        "lat": "43.610769"
      },
      "length": 113,
      "type": null,
      "winner": {
        "name": "Jozef Spruyt Drapeau belge Belgique",
        "nationality": null
      },
      "leader": {
        "name": "Italo Zilioli Drapeau d'Italie Italie",
        "nationality": null
      }
    },
    {
      "id": "E-1970-19",
      "year": 1970,
      "leg": 19,
      "title": "Bagnères-de-Bigorre - Mourenx",
      "start": {
        "city": "Bagnères-de-Bigorre",
        "country": "France",
        "lng": "0.149105",
        "lat": "43.065093"
      },
      "finish": {
        "city": "Toulouse",
        "country": "France",
        "lng": "1.444209",
        "lat": "43.604652"
      },
      "length": 135,
      "type": null,
      "winner": {
        "name": "Roger De Vlaeminck Drapeau belge Belgique",
        "nationality": null
      },
      "leader": {
        "name": "Eddy Merckx Drapeau belge Belgique",
        "nationality": null
      }
    },
    {
      "id": "E-1970-20a",
      "year": 1970,
      "leg": 20,
      "title": "Mourenx - Bordeaux",
      "start": {
        "city": "Mourenx",
        "country": "France",
        "lng": "-0.620552",
        "lat": "43.368262"
      },
      "finish": {
        "city": "La Mongie",
        "country": "France",
        "lng": "0.179167",
        "lat": "42.91"
      },
      "length": 7,
      "type": "(CLM)",
      "winner": {
        "name": "José Antonio González Linares Drapeau : EspagneEspagne",
        "nationality": null
      },
      "leader": {
        "name": "Eddy Merckx Drapeau belge Belgique",
        "nationality": null
      }
    },
    {
      "id": "E-1970-20b",
      "year": 1970,
      "leg": 20,
      "title": "Bordeaux - Bordeaux",
      "start": {
        "city": "Bordeaux",
        "country": "France",
        "lng": "-0.57918",
        "lat": "44.837789"
      },
      "finish": {
        "city": "Mourenx",
        "country": "France",
        "lng": "-0.620552",
        "lat": "43.368262"
      },
      "length": 232,
      "type": null,
      "winner": {
        "name": "Alain Vasseur Drapeau de France France",
        "nationality": null
      },
      "leader": {
        "name": "Eddy Merckx Drapeau belge Belgique",
        "nationality": null
      }
    },
    {
      "id": "E-1970-21",
      "year": 1970,
      "leg": 21,
      "title": "Ruffec - Tours",
      "start": {
        "city": "Ruffec",
        "country": "France",
        "lng": "0.199339",
        "lat": "46.028559"
      },
      "finish": {
        "city": "Tours",
        "country": "France",
        "lng": "0.68484",
        "lat": "47.394144"
      },
      "length": 139,
      "type": null,
      "winner": {
        "name": "Marino Basso Drapeau d'Italie Italie",
        "nationality": null
      },
      "leader": {
        "name": "Eddy Merckx Drapeau belge Belgique",
        "nationality": null
      }
    },
    {
      "id": "E-1970-22",
      "year": 1970,
      "leg": 22,
      "title": "Tours - Versailles",
      "start": {
        "city": "Tours",
        "country": "France",
        "lng": "0.68484",
        "lat": "47.394144"
      },
      "finish": {
        "city": "Versailles",
        "country": "France",
        "lng": "2.130122",
        "lat": "48.801408"
      },
      "length": 194,
      "type": null,
      "winner": {
        "name": "Eddy Merckx Drapeau belge Belgique",
        "nationality": null
      },
      "leader": {
        "name": "Eddy Merckx Drapeau belge Belgique",
        "nationality": null
      }
    },
    {
      "id": "E-1970-23",
      "year": 1970,
      "leg": 23,
      "title": "Versailles - Paris",
      "start": {
        "city": "Versailles",
        "country": "France",
        "lng": "2.130122",
        "lat": "48.801408"
      },
      "finish": {
        "city": "Paris",
        "country": "France",
        "lng": "2.352222",
        "lat": "48.856614"
      },
      "length": 195,
      "type": null,
      "winner": {
        "name": "Primo Mori Drapeau d'Italie Italie",
        "nationality": null
      },
      "leader": {
        "name": "Eddy Merckx Drapeau belge Belgique",
        "nationality": null
      }
    }
  ]
}