{
  "year": 1970,
  "edition": 57,
  "total_length": 4254,
  "nb_legs": 23,
  "has_prologue": false,
  "nb_concurrents": 150,
  "nb_finishers": 100,
  "pct_finishers": 67,
  "winner_first_name": "Eddy",
  "winner_last_name": "Merckx",
  "winner_id": "eddy-merckx",
  "winner_total_time": "119h 31' 49\"",
  "winner_age": "25",
  "winner_country": "Belgique",
  "winner_avg_speed": "35,589",
  "ahead_of_2nd": "0h 12' 41\" ",
  "second_name": "J. Zoetemelk",
  "second_country": "Pays-Bas",
  "second_id": "joop-zoetemelk",
  "ahead_of_3rd": "0h 15' 54\"",
  "third_name": "G. Pettersson",
  "third_country": "Suede",
  "third_id": null,
  "legs": [
    {
      "id": "E-1970-Prologue",
      "year": 1970,
      "leg": "Prologue",
      "leg_num": 0,
      "title": "Limoges",
      "start": {
        "city": "Limoges",
        "country": "France",
        "lat": "45.833619",
        "lng": "1.261105"
      },
      "finish": {
        "city": "Limoges",
        "country": "France",
        "lat": "45.833619",
        "lng": "1.261105"
      },
      "length": 7
    },
    {
      "id": "E-1970-01",
      "year": 1970,
      "leg": "1",
      "leg_num": 1,
      "title": "Limoges - La Rochelle",
      "start": {
        "city": "Limoges",
        "country": "France",
        "lat": "45.833619",
        "lng": "1.261105"
      },
      "finish": {
        "city": "La Rochelle",
        "country": "France",
        "lat": "46.160329",
        "lng": "-1.151139"
      },
      "length": 224
    },
    {
      "id": "E-1970-02",
      "year": 1970,
      "leg": "2",
      "leg_num": 2,
      "title": "La Rochelle - Angers",
      "start": {
        "city": "La Rochelle",
        "country": "France",
        "lat": "46.160329",
        "lng": "-1.151139"
      },
      "finish": {
        "city": "Angers",
        "country": "France",
        "lat": "47.478419",
        "lng": "-0.563166"
      },
      "length": 200
    },
    {
      "id": "E-1970-3a",
      "year": 1970,
      "leg": "3a",
      "leg_num": 3,
      "title": "Angers - Angers",
      "start": {
        "city": "Angers",
        "country": "France",
        "lat": "47.478419",
        "lng": "-0.563166"
      },
      "finish": {
        "city": "Angers",
        "country": "France",
        "lat": "47.478419",
        "lng": "-0.563166"
      },
      "length": 10
    },
    {
      "id": "E-1970-3b",
      "year": 1970,
      "leg": "3b",
      "leg_num": 4,
      "title": "Angers - Rennes",
      "start": {
        "city": "Angers",
        "country": "France",
        "lat": "47.478419",
        "lng": "-0.563166"
      },
      "finish": {
        "city": "Rennes",
        "country": "France",
        "lat": "48.113475",
        "lng": "-1.675708"
      },
      "length": 140
    },
    {
      "id": "E-1970-04",
      "year": 1970,
      "leg": "4",
      "leg_num": 5,
      "title": "Rennes - Lisieux",
      "start": {
        "city": "Rennes",
        "country": "France",
        "lat": "48.113475",
        "lng": "-1.675708"
      },
      "finish": {
        "city": "Lisieux",
        "country": "France",
        "lat": "49.145922",
        "lng": "0.227849"
      },
      "length": 229
    },
    {
      "id": "E-1970-5a",
      "year": 1970,
      "leg": "5a",
      "leg_num": 6,
      "title": "Lisieux - Rouen",
      "start": {
        "city": "Lisieux",
        "country": "France",
        "lat": "49.145922",
        "lng": "0.227849"
      },
      "finish": {
        "city": "Rouen",
        "country": "France",
        "lat": "49.443232",
        "lng": "1.099971"
      },
      "length": 94
    },
    {
      "id": "E-1970-5b",
      "year": 1970,
      "leg": "5b",
      "leg_num": 7,
      "title": "Rouen - Amiens",
      "start": {
        "city": "Rouen",
        "country": "France",
        "lat": "49.443232",
        "lng": "1.099971"
      },
      "finish": {
        "city": "Amiens",
        "country": "France",
        "lat": "49.894067",
        "lng": "2.295753"
      },
      "length": 113
    },
    {
      "id": "E-1970-06",
      "year": 1970,
      "leg": "6",
      "leg_num": 8,
      "title": "Amiens - Valenciennes",
      "start": {
        "city": "Amiens",
        "country": "France",
        "lat": "49.894067",
        "lng": "2.295753"
      },
      "finish": {
        "city": "Valenciennes",
        "country": "France",
        "lat": "50.357113",
        "lng": "3.518332"
      },
      "length": 135
    },
    {
      "id": "E-1970-7a",
      "year": 1970,
      "leg": "7a",
      "leg_num": 9,
      "title": "Valenciennes - Forest (Bel.)",
      "start": {
        "city": "Valenciennes",
        "country": "France",
        "lat": "50.357113",
        "lng": "3.518332"
      },
      "finish": {
        "city": "Forest",
        "country": "Belgique",
        "lat": "50.8",
        "lng": "4.316667"
      },
      "length": 119
    },
    {
      "id": "E-1970-7b",
      "year": 1970,
      "leg": "7b",
      "leg_num": 10,
      "title": "Forest - Forest",
      "start": {
        "city": "Forest",
        "country": "Belgique",
        "lat": "50.8",
        "lng": "4.316667"
      },
      "finish": {
        "city": "Forest",
        "country": "Belgique",
        "lat": "50.8",
        "lng": "4.316667"
      },
      "length": 7
    },
    {
      "id": "E-1970-08",
      "year": 1970,
      "leg": "8",
      "leg_num": 11,
      "title": "Ciney (Bel.) - Felsberg (RFA)",
      "start": {
        "city": "Ciney",
        "country": "Belgique",
        "lat": "50.295655",
        "lng": "5.100826"
      },
      "finish": {
        "city": "Felsberg",
        "country": "RFA",
        "lat": "\n49.29184",
        "lng": "6.69721"
      },
      "length": 232
    },
    {
      "id": "E-1970-09",
      "year": 1970,
      "leg": "9",
      "leg_num": 12,
      "title": "Saarlouis (RFA) - Mulhouse",
      "start": {
        "city": "Saarlouis",
        "country": "RFA",
        "lat": "49.313461",
        "lng": "6.752286"
      },
      "finish": {
        "city": "Mulhouse",
        "country": "France",
        "lat": "47.750839",
        "lng": "7.335888"
      },
      "length": 269
    },
    {
      "id": "E-1970-10",
      "year": 1970,
      "leg": "10",
      "leg_num": 13,
      "title": "Belfort - Divonne-les-Bains",
      "start": {
        "city": "Belfort",
        "country": "France",
        "lat": "47.639674",
        "lng": "6.863849"
      },
      "finish": {
        "city": "Divonne-les-Bains",
        "country": "France",
        "lat": "46.358168",
        "lng": "6.13604"
      },
      "length": 241
    },
    {
      "id": "E-1970-11a",
      "year": 1970,
      "leg": "11a",
      "leg_num": 14,
      "title": "Divonne-les-Bains - Divonne-les-Bains",
      "start": {
        "city": "Divonne-les-Bains",
        "country": "France",
        "lat": "46.358168",
        "lng": "6.13604"
      },
      "finish": {
        "city": "Divonne-les-Bains",
        "country": "France",
        "lat": "46.358168",
        "lng": "6.13604"
      },
      "length": 8
    },
    {
      "id": "E-1970-11b",
      "year": 1970,
      "leg": "11b",
      "leg_num": 15,
      "title": "Divonne-les-Bains - Thonon-les-Bains",
      "start": {
        "city": "Divonne-les-Bains",
        "country": "France",
        "lat": "46.358168",
        "lng": "6.13604"
      },
      "finish": {
        "city": "Thonon-les-Bains",
        "country": "France",
        "lat": "46.373565",
        "lng": "6.477635"
      },
      "length": 139
    },
    {
      "id": "E-1970-12",
      "year": 1970,
      "leg": "12",
      "leg_num": 16,
      "title": "Thonon-les-Bains - Grenoble",
      "start": {
        "city": "Thonon-les-Bains",
        "country": "France",
        "lat": "46.373565",
        "lng": "6.477635"
      },
      "finish": {
        "city": "Grenoble",
        "country": "France",
        "lat": "45.188529",
        "lng": "5.724524"
      },
      "length": 194
    },
    {
      "id": "E-1970-13",
      "year": 1970,
      "leg": "13",
      "leg_num": 17,
      "title": "Grenoble - Gap",
      "start": {
        "city": "Grenoble",
        "country": "France",
        "lat": "45.188529",
        "lng": "5.724524"
      },
      "finish": {
        "city": "Gap",
        "country": "France",
        "lat": "44.559638",
        "lng": "6.079758"
      },
      "length": 195
    },
    {
      "id": "E-1970-14",
      "year": 1970,
      "leg": "14",
      "leg_num": 18,
      "title": "Gap - Mont Ventoux",
      "start": {
        "city": "Gap",
        "country": "France",
        "lat": "44.559638",
        "lng": "6.079758"
      },
      "finish": {
        "city": "Mont Ventoux",
        "country": "France",
        "lat": "44.173925",
        "lng": "5.283795"
      },
      "length": 170
    },
    {
      "id": "E-1970-15",
      "year": 1970,
      "leg": "15",
      "leg_num": 19,
      "title": "Carpentras - Montpellier",
      "start": {
        "city": "Carpentras",
        "country": "France",
        "lat": "44.055564",
        "lng": "5.048722"
      },
      "finish": {
        "city": "Montpellier",
        "country": "France",
        "lat": "43.610769",
        "lng": "3.876716"
      },
      "length": 144
    },
    {
      "id": "E-1970-16",
      "year": 1970,
      "leg": "16",
      "leg_num": 20,
      "title": "Montpellier - Toulouse",
      "start": {
        "city": "Montpellier",
        "country": "France",
        "lat": "43.610769",
        "lng": "3.876716"
      },
      "finish": {
        "city": "Toulouse",
        "country": "France",
        "lat": "43.604652",
        "lng": "1.444209"
      },
      "length": 259
    },
    {
      "id": "E-1970-17",
      "year": 1970,
      "leg": "17",
      "leg_num": 21,
      "title": "Toulouse - Saint-Gaudens",
      "start": {
        "city": "Toulouse",
        "country": "France",
        "lat": "43.604652",
        "lng": "1.444209"
      },
      "finish": {
        "city": "Saint-Gaudens",
        "country": "France",
        "lat": "43.106895",
        "lng": "0.723763"
      },
      "length": 190
    },
    {
      "id": "E-1970-18",
      "year": 1970,
      "leg": "18",
      "leg_num": 22,
      "title": "Saint-Gaudens - La Mongie",
      "start": {
        "city": "Saint-Gaudens",
        "country": "France",
        "lat": "43.106895",
        "lng": "0.723763"
      },
      "finish": {
        "city": "La Mongie",
        "country": "France",
        "lat": "42.91",
        "lng": "0.179167"
      },
      "length": 135
    },
    {
      "id": "E-1970-19",
      "year": 1970,
      "leg": "19",
      "leg_num": 23,
      "title": "Bagnères-de-Bigorre - Mourenx",
      "start": {
        "city": "Bagnères-de-Bigorre",
        "country": "France",
        "lat": "43.065093",
        "lng": "0.149105"
      },
      "finish": {
        "city": "Mourenx",
        "country": "France",
        "lat": "43.368262",
        "lng": "-0.620552"
      },
      "length": 185
    },
    {
      "id": "E-1970-20a",
      "year": 1970,
      "leg": "20a",
      "leg_num": 24,
      "title": "Mourenx - Bordeaux",
      "start": {
        "city": "Mourenx",
        "country": "France",
        "lat": "43.368262",
        "lng": "-0.620552"
      },
      "finish": {
        "city": "Bordeaux",
        "country": "France",
        "lat": "44.837789",
        "lng": "-0.57918"
      },
      "length": 231
    },
    {
      "id": "E-1970-20b",
      "year": 1970,
      "leg": "20b",
      "leg_num": 25,
      "title": "Bordeaux - Bordeaux",
      "start": {
        "city": "Bordeaux",
        "country": "France",
        "lat": "44.837789",
        "lng": "-0.57918"
      },
      "finish": {
        "city": "Bordeaux",
        "country": "France",
        "lat": "44.837789",
        "lng": "-0.57918"
      },
      "length": 8
    },
    {
      "id": "E-1970-21",
      "year": 1970,
      "leg": "21",
      "leg_num": 26,
      "title": "Ruffec - Tours",
      "start": {
        "city": "Ruffec",
        "country": "France",
        "lat": "46.028559",
        "lng": "0.199339"
      },
      "finish": {
        "city": "Tours",
        "country": "France",
        "lat": "47.394144",
        "lng": "0.68484"
      },
      "length": 191
    },
    {
      "id": "E-1970-22",
      "year": 1970,
      "leg": "22",
      "leg_num": 27,
      "title": "Tours - Versailles",
      "start": {
        "city": "Tours",
        "country": "France",
        "lat": "47.394144",
        "lng": "0.68484"
      },
      "finish": {
        "city": "Versailles",
        "country": "France",
        "lat": "48.801408",
        "lng": "2.130122"
      },
      "length": 238
    },
    {
      "id": "E-1970-23",
      "year": 1970,
      "leg": "23",
      "leg_num": 28,
      "title": "Versailles - Paris",
      "start": {
        "city": "Versailles",
        "country": "France",
        "lat": "48.801408",
        "lng": "2.130122"
      },
      "finish": {
        "city": "Paris",
        "country": "France",
        "lat": "48.856614",
        "lng": "2.352222"
      },
      "length": 54
    }
  ]
}