{
  "year": 1971,
  "edition": 58,
  "total_length": 3608,
  "nb_legs": 20,
  "has_prologue": false,
  "nb_concurrents": 130,
  "nb_finishers": 94,
  "pct_finishers": 72,
  "winner_first_name": "Eddy",
  "winner_last_name": "Merckx",
  "winner_id": "eddy-merckx",
  "winner_total_time": "96h 45' 14\"",
  "winner_age": "26",
  "winner_country": "Belgique",
  "winner_avg_speed": "38,084",
  "ahead_of_2nd": "0h 09' 51\" ",
  "second_name": "J. Zoetemelk",
  "second_country": "Pays-Bas",
  "second_id": "joop-zoetemelk",
  "ahead_of_3rd": "0h 11' 06\"",
  "third_name": "L. Van Impe",
  "third_country": "Belgique",
  "third_id": "lucien-van-impe",
  "legs": [
    {
      "id": "E-1971-Prologue",
      "year": 1971,
      "leg": "Prologue",
      "leg_num": 0,
      "title": "Mulhouse",
      "start": {
        "city": "France",
        "country": "47.750839,7.335888",
        "lat": "Mulhouse",
        "lng": null
      },
      "finish": {
        "city": null,
        "country": "47.750839,7.335888",
        "lat": "11",
        "lng": null
      },
      "length": 0
    },
    {
      "id": "E-1971-1a",
      "year": 1971,
      "leg": "1a",
      "leg_num": 0,
      "title": "Mulhouse",
      "start": {
        "city": "France",
        "country": "47.750839,7.335888",
        "lat": "Bâle",
        "lng": null
      },
      "finish": {
        "city": "Suisse",
        "country": "47.557421,7.592573",
        "lat": "59",
        "lng": "5"
      },
      "length": 0
    },
    {
      "id": "E-1971-1b",
      "year": 1971,
      "leg": "1b",
      "leg_num": 0,
      "title": "Bâle",
      "start": {
        "city": "Suisse",
        "country": "47.557421,7.592573",
        "lat": "Fribourg-en-Brisgau",
        "lng": null
      },
      "finish": {
        "city": "RFA",
        "country": "46.801666,7.145568",
        "lat": "90",
        "lng": null
      },
      "length": 0
    },
    {
      "id": "E-1971-1c",
      "year": 1971,
      "leg": "1c",
      "leg_num": 0,
      "title": "Fribourg en Brisgau",
      "start": {
        "city": "Allemagne",
        "country": "46.801666,7.145568",
        "lat": "Mulhouse",
        "lng": null
      },
      "finish": {
        "city": "France",
        "country": "47.750839,7.335888",
        "lat": "74",
        "lng": null
      },
      "length": 0
    },
    {
      "id": "E-1971-02",
      "year": 1971,
      "leg": "2",
      "leg_num": 0,
      "title": "Mulhouse",
      "start": {
        "city": "France",
        "country": "47.750839,7.335888",
        "lat": "Strasbourg",
        "lng": null
      },
      "finish": {
        "city": "France",
        "country": "48.583148,7.747882",
        "lat": "144",
        "lng": null
      },
      "length": 0
    },
    {
      "id": "E-1971-03",
      "year": 1971,
      "leg": "3",
      "leg_num": 0,
      "title": "Strasbourg",
      "start": {
        "city": "France",
        "country": "48.583148,7.747882",
        "lat": "Nancy",
        "lng": null
      },
      "finish": {
        "city": "France",
        "country": "48.692054,6.184417",
        "lat": "165",
        "lng": "5"
      },
      "length": 0
    },
    {
      "id": "E-1971-04",
      "year": 1971,
      "leg": "4",
      "leg_num": 0,
      "title": "Champigneulles",
      "start": {
        "city": "France",
        "country": "48.73340,6.16418\n",
        "lat": "Marche-en-Famenne",
        "lng": null
      },
      "finish": {
        "city": "Belgique",
        "country": "50.22829,5.344161",
        "lat": "242",
        "lng": null
      },
      "length": 0
    },
    {
      "id": "E-1971-05",
      "year": 1971,
      "leg": "5",
      "leg_num": 0,
      "title": "Dinant",
      "start": {
        "city": "Belgique",
        "country": "50.260494,4.912746",
        "lat": "Roubaix",
        "lng": null
      },
      "finish": {
        "city": "France",
        "country": "50.692705,3.177847",
        "lat": "208",
        "lng": "5"
      },
      "length": 0
    },
    {
      "id": "E-1971-6a",
      "year": 1971,
      "leg": "6a",
      "leg_num": 0,
      "title": "Roubaix",
      "start": {
        "city": "France",
        "country": "50.692705,3.177847",
        "lat": "Amiens",
        "lng": null
      },
      "finish": {
        "city": "France",
        "country": "49.894067,2.295753",
        "lat": "127",
        "lng": "5"
      },
      "length": 0
    },
    {
      "id": "E-1971-6b",
      "year": 1971,
      "leg": "6b",
      "leg_num": 0,
      "title": "Amiens",
      "start": {
        "city": "France",
        "country": "49.894067,2.295753",
        "lat": "Le Touquet",
        "lng": null
      },
      "finish": {
        "city": "France",
        "country": "50.521276,1.590675",
        "lat": "133",
        "lng": "5"
      },
      "length": 0
    },
    {
      "id": "E-1971-07",
      "year": 1971,
      "leg": "7",
      "leg_num": 0,
      "title": "Rungis",
      "start": {
        "city": "France",
        "country": "48.749358,2.349936",
        "lat": "Nevers",
        "lng": null
      },
      "finish": {
        "city": "France",
        "country": "46.990896,3.162845",
        "lat": "257",
        "lng": "5"
      },
      "length": 0
    },
    {
      "id": "E-1971-08",
      "year": 1971,
      "leg": "8",
      "leg_num": 0,
      "title": "Nevers",
      "start": {
        "city": "France",
        "country": "46.990896,3.162845",
        "lat": "Puy de Dôme",
        "lng": null
      },
      "finish": {
        "city": "France",
        "country": "45.77207,2.96974",
        "lat": "221",
        "lng": null
      },
      "length": 0
    },
    {
      "id": "E-1971-09",
      "year": 1971,
      "leg": "9",
      "leg_num": 0,
      "title": "Clermont-Ferrand",
      "start": {
        "city": "France",
        "country": "45.777222,3.087025",
        "lat": "Saint-Étienne",
        "lng": null
      },
      "finish": {
        "city": "France",
        "country": "45.439695,4.387178",
        "lat": "153",
        "lng": null
      },
      "length": 0
    },
    {
      "id": "E-1971-10",
      "year": 1971,
      "leg": "10",
      "leg_num": 0,
      "title": "Saint-Étienne",
      "start": {
        "city": "France",
        "country": "45.439695,4.387178",
        "lat": "Grenoble",
        "lng": null
      },
      "finish": {
        "city": "France",
        "country": "45.188529,5.724524",
        "lat": "188",
        "lng": "5"
      },
      "length": 0
    },
    {
      "id": "E-1971-11",
      "year": 1971,
      "leg": "11",
      "leg_num": 0,
      "title": "Grenoble",
      "start": {
        "city": "France",
        "country": "45.188529,5.724524",
        "lat": "Orcières-Merlette",
        "lng": null
      },
      "finish": {
        "city": "France",
        "country": "44.695221,6.320161",
        "lat": "134",
        "lng": null
      },
      "length": 0
    },
    {
      "id": "E-1971-12",
      "year": 1971,
      "leg": "12",
      "leg_num": 0,
      "title": "Orcières-Merlette",
      "start": {
        "city": "France",
        "country": "44.695221,6.320161",
        "lat": "Marseille",
        "lng": null
      },
      "finish": {
        "city": "France",
        "country": "43.296482,5.36978",
        "lat": "251",
        "lng": null
      },
      "length": 0
    },
    {
      "id": "E-1971-13",
      "year": 1971,
      "leg": "13",
      "leg_num": 0,
      "title": "Albi",
      "start": {
        "city": "France",
        "country": "43.926896,2.146343",
        "lat": "Albi",
        "lng": null
      },
      "finish": {
        "city": "France",
        "country": "43.926896,2.146343",
        "lat": "16",
        "lng": "5"
      },
      "length": 0
    },
    {
      "id": "E-1971-14",
      "year": 1971,
      "leg": "14",
      "leg_num": 0,
      "title": "Revel",
      "start": {
        "city": "France",
        "country": "43.458611,2.004573",
        "lat": "Luchon",
        "lng": null
      },
      "finish": {
        "city": "France",
        "country": "42.788963,0.592943",
        "lat": "214",
        "lng": "5"
      },
      "length": 0
    },
    {
      "id": "E-1971-15",
      "year": 1971,
      "leg": "15",
      "leg_num": 0,
      "title": "Luchon",
      "start": {
        "city": "France",
        "country": "42.788963,0.592943",
        "lat": "Superbagnères",
        "lng": null
      },
      "finish": {
        "city": "France",
        "country": "42.768576,0.576927",
        "lat": "19",
        "lng": "5"
      },
      "length": 0
    },
    {
      "id": "E-1971-16a",
      "year": 1971,
      "leg": "16a",
      "leg_num": 0,
      "title": "Luchon",
      "start": {
        "city": "France",
        "country": "42.78896,0.59294",
        "lat": "Gourette",
        "lng": " Eaux-Bonnes"
      },
      "finish": {
        "city": "France",
        "country": "42.958836,-0.332111",
        "lat": "145",
        "lng": null
      },
      "length": 0
    },
    {
      "id": "E-1971-16b",
      "year": 1971,
      "leg": "16b",
      "leg_num": 0,
      "title": "Gourette, Eaux-Bonnes",
      "start": {
        "city": "France",
        "country": "42.958836,-0.332111",
        "lat": "Pau",
        "lng": null
      },
      "finish": {
        "city": "France",
        "country": "43.2951,-0.370797",
        "lat": "57",
        "lng": "5"
      },
      "length": 0
    },
    {
      "id": "E-1971-17",
      "year": 1971,
      "leg": "17",
      "leg_num": 0,
      "title": "Mont-de-Marsan",
      "start": {
        "city": "France",
        "country": "43.893485,-0.499782",
        "lat": "Bordeaux",
        "lng": null
      },
      "finish": {
        "city": "France",
        "country": "44.837789,-0.57918",
        "lat": "188",
        "lng": null
      },
      "length": 0
    },
    {
      "id": "E-1971-18",
      "year": 1971,
      "leg": "18",
      "leg_num": 0,
      "title": "Bordeaux",
      "start": {
        "city": "France",
        "country": "44.837789,-0.57918",
        "lat": "Poitiers",
        "lng": null
      },
      "finish": {
        "city": "France",
        "country": "46.580224,0.340375",
        "lat": "244",
        "lng": null
      },
      "length": 0
    },
    {
      "id": "E-1971-19",
      "year": 1971,
      "leg": "19",
      "leg_num": 0,
      "title": "Blois",
      "start": {
        "city": "France",
        "country": "47.587952,1.336272",
        "lat": "Versailles",
        "lng": null
      },
      "finish": {
        "city": "France",
        "country": "48.801408,2.130122",
        "lat": "185",
        "lng": null
      },
      "length": 0
    },
    {
      "id": "E-1971-20",
      "year": 1971,
      "leg": "20",
      "leg_num": 0,
      "title": "Versailles",
      "start": {
        "city": "France",
        "country": "48.801408,2.130122",
        "lat": "Paris",
        "lng": null
      },
      "finish": {
        "city": "France",
        "country": "48.856614,2.352222",
        "lat": "54",
        "lng": null
      },
      "length": 0
    }
  ]
}