{
  "year": 1975,
  "edition": 62,
  "total_length": 4000,
  "nb_legs": 22,
  "has_prologue": false,
  "nb_concurrents": 140,
  "nb_finishers": 86,
  "pct_finishers": 61,
  "winner_first_name": "Bernard",
  "winner_last_name": "Thévenet",
  "winner_id": "bernard-thevenet",
  "winner_total_time": "114h 35' 31\"",
  "winner_age": "27",
  "winner_country": "France",
  "winner_avg_speed": "34,906",
  "ahead_of_2nd": "0h 02' 47\" ",
  "second_name": "E. Merckx",
  "second_country": "Belgique",
  "second_id": "eddy-merckx",
  "ahead_of_3rd": "0h 05' 01\"",
  "third_name": "L. Van Impe",
  "third_country": "Belgique",
  "third_id": "lucien-van-impe",
  "legs": [
    {
      "id": "E-1975-Prologue",
      "year": 1975,
      "leg": "Prologue",
      "leg_num": 0,
      "title": "Charleroi",
      "start": {
        "city": "Belgique",
        "country": "50.41081,4.444643",
        "lat": "Charleroi",
        "lng": null
      },
      "finish": {
        "city": "Belgique",
        "country": "50.41081,4.444643",
        "lat": "6",
        "lng": "25"
      },
      "length": 0
    },
    {
      "id": "E-1975-1a",
      "year": 1975,
      "leg": "1a",
      "leg_num": 0,
      "title": "Charleroi",
      "start": {
        "city": "Belgique",
        "country": "50.41081,4.444643",
        "lat": "Molenbeek",
        "lng": null
      },
      "finish": {
        "city": "Belgique",
        "country": "50.856976,4.319369",
        "lat": "94",
        "lng": null
      },
      "length": 0
    },
    {
      "id": "E-1975-1b",
      "year": 1975,
      "leg": "1b",
      "leg_num": 0,
      "title": "Molenbeek",
      "start": {
        "city": "Belgique",
        "country": "50.856976,4.319369",
        "lat": "Roubaix",
        "lng": null
      },
      "finish": {
        "city": "France",
        "country": "50.692705,3.177847",
        "lat": "108",
        "lng": "5"
      },
      "length": 0
    },
    {
      "id": "E-1975-02",
      "year": 1975,
      "leg": "2",
      "leg_num": 0,
      "title": "Roubaix",
      "start": {
        "city": "France",
        "country": "50.692705,3.177847",
        "lat": "Amiens",
        "lng": null
      },
      "finish": {
        "city": "France",
        "country": "49.894067,2.295753",
        "lat": "121",
        "lng": "5"
      },
      "length": 0
    },
    {
      "id": "E-1975-03",
      "year": 1975,
      "leg": "3",
      "leg_num": 0,
      "title": "Amiens",
      "start": {
        "city": "France",
        "country": "49.894067,2.295753",
        "lat": "Versailles",
        "lng": null
      },
      "finish": {
        "city": "France",
        "country": "48.801408,2.130122",
        "lat": "169",
        "lng": "5"
      },
      "length": 0
    },
    {
      "id": "E-1975-04",
      "year": 1975,
      "leg": "4",
      "leg_num": 0,
      "title": "Versailles",
      "start": {
        "city": "France",
        "country": "48.801408,2.130122",
        "lat": "Le Mans",
        "lng": null
      },
      "finish": {
        "city": "France",
        "country": "48.00611,0.199556",
        "lat": "223",
        "lng": null
      },
      "length": 0
    },
    {
      "id": "E-1975-05",
      "year": 1975,
      "leg": "5",
      "leg_num": 0,
      "title": "Sablé-sur-Sarthe",
      "start": {
        "city": "France",
        "country": "47.840112,-0.331634",
        "lat": "Merlin-Plage",
        "lng": " Saint-Hilaire-de-Riez"
      },
      "finish": {
        "city": "France",
        "country": "46.720204,-1.945917",
        "lat": "222",
        "lng": "5"
      },
      "length": 0
    },
    {
      "id": "E-1975-06",
      "year": 1975,
      "leg": "6",
      "leg_num": 0,
      "title": "Saint-Hilaire-de-Riez",
      "start": {
        "city": "France",
        "country": "46.720204,-1.945917",
        "lat": "Saint-Hilaire-de-Riez",
        "lng": null
      },
      "finish": {
        "city": "France",
        "country": "46.720204,-1.945917",
        "lat": "16",
        "lng": null
      },
      "length": 0
    },
    {
      "id": "E-1975-07",
      "year": 1975,
      "leg": "7",
      "leg_num": 0,
      "title": "Saint-Gilles-Croix-de-Vie",
      "start": {
        "city": "France",
        "country": "46.697777,-1.944529",
        "lat": "Angoulême",
        "lng": null
      },
      "finish": {
        "city": "France",
        "country": "45.648377,0.156237",
        "lat": "235",
        "lng": "5"
      },
      "length": 0
    },
    {
      "id": "E-1975-08",
      "year": 1975,
      "leg": "8",
      "leg_num": 0,
      "title": "Angoulême",
      "start": {
        "city": "France",
        "country": "45.648377,0.156237",
        "lat": "Bordeaux",
        "lng": null
      },
      "finish": {
        "city": "France",
        "country": "44.837789,-0.57918",
        "lat": "134",
        "lng": null
      },
      "length": 0
    },
    {
      "id": "E-1975-9a",
      "year": 1975,
      "leg": "9a",
      "leg_num": 0,
      "title": "Langon",
      "start": {
        "city": "France",
        "country": "44.555419,-0.245126",
        "lat": "Fleurance",
        "lng": null
      },
      "finish": {
        "city": "France",
        "country": "43.849456,0.663244",
        "lat": "131",
        "lng": null
      },
      "length": 0
    },
    {
      "id": "E-1975-9b",
      "year": 1975,
      "leg": "9b",
      "leg_num": 0,
      "title": "Fleurance",
      "start": {
        "city": "France",
        "country": "43.849456,0.663244",
        "lat": "Auch",
        "lng": null
      },
      "finish": {
        "city": "France",
        "country": "43.64638,0.586709",
        "lat": "37",
        "lng": "4"
      },
      "length": 0
    },
    {
      "id": "E-1975-10",
      "year": 1975,
      "leg": "10",
      "leg_num": 0,
      "title": "Auch",
      "start": {
        "city": "France",
        "country": "43.64638,0.586709",
        "lat": "Pau",
        "lng": null
      },
      "finish": {
        "city": "France",
        "country": "43.2951,-0.370797",
        "lat": "206",
        "lng": null
      },
      "length": 0
    },
    {
      "id": "E-1975-11",
      "year": 1975,
      "leg": "11",
      "leg_num": 0,
      "title": "Pau",
      "start": {
        "city": "France",
        "country": "43.2951,-0.370797",
        "lat": "Saint-Lary-Soulan",
        "lng": null
      },
      "finish": {
        "city": "France",
        "country": "42.815835,0.320251",
        "lat": "160",
        "lng": null
      },
      "length": 0
    },
    {
      "id": "E-1975-12",
      "year": 1975,
      "leg": "12",
      "leg_num": 0,
      "title": "Tarbes",
      "start": {
        "city": "France",
        "country": "43.232951,0.078082",
        "lat": "Albi",
        "lng": null
      },
      "finish": {
        "city": "France",
        "country": "43.926896,2.146343",
        "lat": "242",
        "lng": null
      },
      "length": 0
    },
    {
      "id": "E-1975-13",
      "year": 1975,
      "leg": "13",
      "leg_num": 0,
      "title": "Albi",
      "start": {
        "city": "France",
        "country": "43.926896,2.146343",
        "lat": "Super Lioran",
        "lng": null
      },
      "finish": {
        "city": "France",
        "country": "45.083212,2.75349",
        "lat": "260",
        "lng": null
      },
      "length": 0
    },
    {
      "id": "E-1975-14",
      "year": 1975,
      "leg": "14",
      "leg_num": 0,
      "title": "Aurillac",
      "start": {
        "city": "France",
        "country": "44.930953,2.444997",
        "lat": "Puy de Dôme",
        "lng": null
      },
      "finish": {
        "city": "France",
        "country": "45.77207,2.96974",
        "lat": "173",
        "lng": "5"
      },
      "length": 0
    },
    {
      "id": "E-1975-15",
      "year": 1975,
      "leg": "15",
      "leg_num": 0,
      "title": "Nice",
      "start": {
        "city": "France",
        "country": "43.696036,7.265592",
        "lat": "Pra Loup",
        "lng": null
      },
      "finish": {
        "city": "France",
        "country": "44.369445,6.602232",
        "lat": "217",
        "lng": "5"
      },
      "length": 0
    },
    {
      "id": "E-1975-16",
      "year": 1975,
      "leg": "16",
      "leg_num": 0,
      "title": "Barcelonnette",
      "start": {
        "city": "France",
        "country": "44.3863,6.650463",
        "lat": "Serre Chevalier",
        "lng": null
      },
      "finish": {
        "city": "France",
        "country": "44.910829,6.549748",
        "lat": "107",
        "lng": null
      },
      "length": 0
    },
    {
      "id": "E-1975-17",
      "year": 1975,
      "leg": "17",
      "leg_num": 0,
      "title": "Valloire",
      "start": {
        "city": "France",
        "country": "45.165292,6.428733",
        "lat": "Morzine-Avoriaz",
        "lng": null
      },
      "finish": {
        "city": "France",
        "country": "46.189683,6.776343",
        "lat": "225",
        "lng": null
      },
      "length": 0
    },
    {
      "id": "E-1975-18",
      "year": 1975,
      "leg": "18",
      "leg_num": 0,
      "title": "Morzine",
      "start": {
        "city": "France",
        "country": "46.179192,6.708877",
        "lat": "Châtel",
        "lng": null
      },
      "finish": {
        "city": "France",
        "country": "46.267395,6.841152",
        "lat": "40",
        "lng": null
      },
      "length": 0
    },
    {
      "id": "E-1975-19",
      "year": 1975,
      "leg": "19",
      "leg_num": 0,
      "title": "Thonon-les-Bains",
      "start": {
        "city": "France",
        "country": "46.373565,6.477635",
        "lat": "Chalon sur Saône",
        "lng": null
      },
      "finish": {
        "city": "France",
        "country": "46.780764,4.853947",
        "lat": "229",
        "lng": null
      },
      "length": 0
    },
    {
      "id": "E-1975-20",
      "year": 1975,
      "leg": "20",
      "leg_num": 0,
      "title": "Pouilly-en-Auxois",
      "start": {
        "city": "France",
        "country": "47.262495,4.556286",
        "lat": "Melun",
        "lng": null
      },
      "finish": {
        "city": "France",
        "country": "48.542105,2.6554",
        "lat": "256",
        "lng": null
      },
      "length": 0
    },
    {
      "id": "E-1975-21",
      "year": 1975,
      "leg": "21",
      "leg_num": 0,
      "title": "Melun",
      "start": {
        "city": "France",
        "country": "48.542105,2.6554",
        "lat": "Senlis",
        "lng": null
      },
      "finish": {
        "city": "France",
        "country": "49.205164,2.583212",
        "lat": "220",
        "lng": "5"
      },
      "length": 0
    },
    {
      "id": "E-1975-22",
      "year": 1975,
      "leg": "22",
      "leg_num": 0,
      "title": "Paris",
      "start": {
        "city": "France",
        "country": "48.856614,2.352222",
        "lat": "Paris",
        "lng": null
      },
      "finish": {
        "city": "France",
        "country": "48.856614,2.352222",
        "lat": "163",
        "lng": "35"
      },
      "length": 0
    }
  ]
}