{
  "year": 1975,
  "edition": 62,
  "total_length": 4000,
  "nb_legs": 22,
  "has_prologue": false,
  "nb_concurrents": 140,
  "nb_finishers": 86,
  "pct_finishers": 61,
  "winner_first_name": "Bernard",
  "winner_last_name": "Thévenet",
  "winner_id": "bernard-thevenet",
  "winner_total_time": "114h 35' 31\"",
  "winner_age": "27",
  "winner_country": "France",
  "winner_avg_speed": "34,906",
  "ahead_of_2nd": "0h 02' 47\" ",
  "second_name": "E. Merckx",
  "second_country": "Belgique",
  "second_id": "eddy-merckx",
  "ahead_of_3rd": "0h 05' 01\"",
  "third_name": "L. Van Impe",
  "third_country": "Belgique",
  "third_id": "lucien-van-impe",
  "legs": [
    {
      "id": "E-1975-Prologue",
      "year": 1975,
      "leg": "Prologue",
      "leg_num": 0,
      "title": "Charleroi",
      "start": {
        "city": "Charleroi",
        "country": "Belgique",
        "lat": "50.41081",
        "lng": "4.444643"
      },
      "finish": {
        "city": "Charleroi",
        "country": "Belgique",
        "lat": "50.41081",
        "lng": "4.444643"
      },
      "length": 6
    },
    {
      "id": "E-1975-1a",
      "year": 1975,
      "leg": "1a",
      "leg_num": 1,
      "title": "Charleroi - Molenbeek",
      "start": {
        "city": "Charleroi",
        "country": "Belgique",
        "lat": "50.41081",
        "lng": "4.444643"
      },
      "finish": {
        "city": "Molenbeek",
        "country": "Belgique",
        "lat": "50.856976",
        "lng": "4.319369"
      },
      "length": 94
    },
    {
      "id": "E-1975-1b",
      "year": 1975,
      "leg": "1b",
      "leg_num": 2,
      "title": "Molenbeek - Roubaix",
      "start": {
        "city": "Molenbeek",
        "country": "Belgique",
        "lat": "50.856976",
        "lng": "4.319369"
      },
      "finish": {
        "city": "Roubaix",
        "country": "France",
        "lat": "50.692705",
        "lng": "3.177847"
      },
      "length": 108
    },
    {
      "id": "E-1975-02",
      "year": 1975,
      "leg": "2",
      "leg_num": 3,
      "title": "Roubaix - Amiens",
      "start": {
        "city": "Roubaix",
        "country": "France",
        "lat": "50.692705",
        "lng": "3.177847"
      },
      "finish": {
        "city": "Amiens",
        "country": "France",
        "lat": "49.894067",
        "lng": "2.295753"
      },
      "length": 121
    },
    {
      "id": "E-1975-03",
      "year": 1975,
      "leg": "3",
      "leg_num": 4,
      "title": "Amiens - Versailles",
      "start": {
        "city": "Amiens",
        "country": "France",
        "lat": "49.894067",
        "lng": "2.295753"
      },
      "finish": {
        "city": "Versailles",
        "country": "France",
        "lat": "48.801408",
        "lng": "2.130122"
      },
      "length": 169
    },
    {
      "id": "E-1975-04",
      "year": 1975,
      "leg": "4",
      "leg_num": 5,
      "title": "Versailles - Le Mans",
      "start": {
        "city": "Versailles",
        "country": "France",
        "lat": "48.801408",
        "lng": "2.130122"
      },
      "finish": {
        "city": "Le Mans",
        "country": "France",
        "lat": "48.00611",
        "lng": "0.199556"
      },
      "length": 223
    },
    {
      "id": "E-1975-05",
      "year": 1975,
      "leg": "5",
      "leg_num": 6,
      "title": "Sablé-sur-Sarthe - Merlin-Plage",
      "start": {
        "city": "Sablé-sur-Sarthe",
        "country": "France",
        "lat": "47.840112",
        "lng": "-0.331634"
      },
      "finish": {
        "city": "Merlin-Plage, Saint-Hilaire-de-Riez",
        "country": "France",
        "lat": "46.720204",
        "lng": "-1.945917"
      },
      "length": 222
    },
    {
      "id": "E-1975-06",
      "year": 1975,
      "leg": "6",
      "leg_num": 7,
      "title": "Circuit Merlin-Plage",
      "start": {
        "city": "Saint-Hilaire-de-Riez",
        "country": "France",
        "lat": "46.720204",
        "lng": "-1.945917"
      },
      "finish": {
        "city": "Saint-Hilaire-de-Riez",
        "country": "France",
        "lat": "46.720204",
        "lng": "-1.945917"
      },
      "length": 16
    },
    {
      "id": "E-1975-07",
      "year": 1975,
      "leg": "7",
      "leg_num": 8,
      "title": "Saint-Gilles-Croix-de-Vie - Angoulême",
      "start": {
        "city": "Saint-Gilles-Croix-de-Vie",
        "country": "France",
        "lat": "46.697777",
        "lng": "-1.944529"
      },
      "finish": {
        "city": "Angoulême",
        "country": "France",
        "lat": "45.648377",
        "lng": "0.156237"
      },
      "length": 235
    },
    {
      "id": "E-1975-08",
      "year": 1975,
      "leg": "8",
      "leg_num": 9,
      "title": "Angoulême - Bordeaux",
      "start": {
        "city": "Angoulême",
        "country": "France",
        "lat": "45.648377",
        "lng": "0.156237"
      },
      "finish": {
        "city": "Bordeaux",
        "country": "France",
        "lat": "44.837789",
        "lng": "-0.57918"
      },
      "length": 134
    },
    {
      "id": "E-1975-9a",
      "year": 1975,
      "leg": "9a",
      "leg_num": 10,
      "title": "Langon - Fleurance",
      "start": {
        "city": "Langon",
        "country": "France",
        "lat": "44.555419",
        "lng": "-0.245126"
      },
      "finish": {
        "city": "Fleurance",
        "country": "France",
        "lat": "43.849456",
        "lng": "0.663244"
      },
      "length": 131
    },
    {
      "id": "E-1975-9b",
      "year": 1975,
      "leg": "9b",
      "leg_num": 11,
      "title": "Fleurance - Auch",
      "start": {
        "city": "Fleurance",
        "country": "France",
        "lat": "43.849456",
        "lng": "0.663244"
      },
      "finish": {
        "city": "Auch",
        "country": "France",
        "lat": "43.64638",
        "lng": "0.586709"
      },
      "length": 37
    },
    {
      "id": "E-1975-10",
      "year": 1975,
      "leg": "10",
      "leg_num": 12,
      "title": "Auch - Pau",
      "start": {
        "city": "Auch",
        "country": "France",
        "lat": "43.64638",
        "lng": "0.586709"
      },
      "finish": {
        "city": "Pau",
        "country": "France",
        "lat": "43.2951",
        "lng": "-0.370797"
      },
      "length": 206
    },
    {
      "id": "E-1975-11",
      "year": 1975,
      "leg": "11",
      "leg_num": 13,
      "title": "Pau - Saint-Lary-Soulan",
      "start": {
        "city": "Pau",
        "country": "France",
        "lat": "43.2951",
        "lng": "-0.370797"
      },
      "finish": {
        "city": "Saint-Lary-Soulan",
        "country": "France",
        "lat": "42.815835",
        "lng": "0.320251"
      },
      "length": 160
    },
    {
      "id": "E-1975-12",
      "year": 1975,
      "leg": "12",
      "leg_num": 14,
      "title": "Tarbes - Albi",
      "start": {
        "city": "Tarbes",
        "country": "France",
        "lat": "43.232951",
        "lng": "0.078082"
      },
      "finish": {
        "city": "Albi",
        "country": "France",
        "lat": "43.926896",
        "lng": "2.146343"
      },
      "length": 242
    },
    {
      "id": "E-1975-13",
      "year": 1975,
      "leg": "13",
      "leg_num": 15,
      "title": "Albi - Super Lioran",
      "start": {
        "city": "Albi",
        "country": "France",
        "lat": "43.926896",
        "lng": "2.146343"
      },
      "finish": {
        "city": "Super Lioran",
        "country": "France",
        "lat": "45.083212",
        "lng": "2.75349"
      },
      "length": 260
    },
    {
      "id": "E-1975-14",
      "year": 1975,
      "leg": "14",
      "leg_num": 16,
      "title": "Aurillac - Puy de Dôme",
      "start": {
        "city": "Aurillac",
        "country": "France",
        "lat": "44.930953",
        "lng": "2.444997"
      },
      "finish": {
        "city": "Puy de Dôme",
        "country": "France",
        "lat": "45.77207",
        "lng": "2.96974"
      },
      "length": 173
    },
    {
      "id": "E-1975-15",
      "year": 1975,
      "leg": "15",
      "leg_num": 17,
      "title": "Nice - Pra Loup",
      "start": {
        "city": "Nice",
        "country": "France",
        "lat": "43.696036",
        "lng": "7.265592"
      },
      "finish": {
        "city": "Pra Loup",
        "country": "France",
        "lat": "44.369445",
        "lng": "6.602232"
      },
      "length": 217
    },
    {
      "id": "E-1975-16",
      "year": 1975,
      "leg": "16",
      "leg_num": 18,
      "title": "Barcelonnette - Serre Chevalier",
      "start": {
        "city": "Barcelonnette",
        "country": "France",
        "lat": "44.3863",
        "lng": "6.650463"
      },
      "finish": {
        "city": "Serre Chevalier",
        "country": "France",
        "lat": "44.910829",
        "lng": "6.549748"
      },
      "length": 107
    },
    {
      "id": "E-1975-17",
      "year": 1975,
      "leg": "17",
      "leg_num": 19,
      "title": "Valloire - Morzine-Avoriaz",
      "start": {
        "city": "Valloire",
        "country": "France",
        "lat": "45.165292",
        "lng": "6.428733"
      },
      "finish": {
        "city": "Morzine-Avoriaz",
        "country": "France",
        "lat": "46.189683",
        "lng": "6.776343"
      },
      "length": 225
    },
    {
      "id": "E-1975-18",
      "year": 1975,
      "leg": "18",
      "leg_num": 20,
      "title": "Morzine - Châtel",
      "start": {
        "city": "Morzine",
        "country": "France",
        "lat": "46.179192",
        "lng": "6.708877"
      },
      "finish": {
        "city": "Châtel",
        "country": "France",
        "lat": "46.267395",
        "lng": "6.841152"
      },
      "length": 40
    },
    {
      "id": "E-1975-19",
      "year": 1975,
      "leg": "19",
      "leg_num": 21,
      "title": "Thonon-les-Bains - Chalon sur Saône",
      "start": {
        "city": "Thonon-les-Bains",
        "country": "France",
        "lat": "46.373565",
        "lng": "6.477635"
      },
      "finish": {
        "city": "Chalon sur Saône",
        "country": "France",
        "lat": "46.780764",
        "lng": "4.853947"
      },
      "length": 229
    },
    {
      "id": "E-1975-20",
      "year": 1975,
      "leg": "20",
      "leg_num": 22,
      "title": "Pouilly-en-Auxois - Melun",
      "start": {
        "city": "Pouilly-en-Auxois",
        "country": "France",
        "lat": "47.262495",
        "lng": "4.556286"
      },
      "finish": {
        "city": "Melun",
        "country": "France",
        "lat": "48.542105",
        "lng": "2.6554"
      },
      "length": 256
    },
    {
      "id": "E-1975-21",
      "year": 1975,
      "leg": "21",
      "leg_num": 23,
      "title": "Melun - Senlis",
      "start": {
        "city": "Melun",
        "country": "France",
        "lat": "48.542105",
        "lng": "2.6554"
      },
      "finish": {
        "city": "Senlis",
        "country": "France",
        "lat": "49.205164",
        "lng": "2.583212"
      },
      "length": 220
    },
    {
      "id": "E-1975-22",
      "year": 1975,
      "leg": "22",
      "leg_num": 24,
      "title": "Paris (Circuit Champs-Élysées)",
      "start": {
        "city": "Paris",
        "country": "France",
        "lat": "48.856614",
        "lng": "2.352222"
      },
      "finish": {
        "city": "Paris",
        "country": "France",
        "lat": "48.856614",
        "lng": "2.352222"
      },
      "length": 163
    }
  ]
}