{
  "year": 1975,
  "edition": 62,
  "total_length": 4000,
  "nb_legs": 22,
  "has_prologue": true,
  "nb_concurrents": 140,
  "nb_finishers": 86,
  "pct_finishers": 61,
  "winner_name": "Bernard Thévenet",
  "winner_time": "114h 35’ 31”",
  "ahead_of_2nd": "0h 02' 47\" ",
  "second_name": "E. Merckx",
  "second_country": "Belgique",
  "ahead_of_3rd": "0h 05' 01\"",
  "third_name": "L. Van Impe",
  "third_country": "L. Van Impe",
  "legs": [
    {
      "id": "E-1975-Prologue",
      "year": 1975,
      "leg": 0,
      "title": "Charleroi",
      "start": {
        "city": "Charleroi",
        "country": "Belgique",
        "lng": "4.444643",
        "lat": "50.41081"
      },
      "finish": {
        "city": "Charleroi",
        "country": "Belgique",
        "lng": "4.444643",
        "lat": "50.41081"
      },
      "length": 163,
      "type": null,
      "winner": {
        "name": "Drapeau de Belgique Walter Godefroot (BEL)",
        "nationality": null
      },
      "leader": {
        "name": "Drapeau de France Bernard Thévenet (FRA)",
        "nationality": null
      }
    },
    {
      "id": "E-1975-1a",
      "year": 1975,
      "leg": 1,
      "title": "Charleroi - Molenbeek",
      "start": {
        "city": "Charleroi",
        "country": "Belgique",
        "lng": "4.444643",
        "lat": "50.41081"
      },
      "finish": {
        "city": "Super Lioran",
        "country": "France",
        "lng": "2.75349",
        "lat": "45.083212"
      },
      "length": 121,
      "type": null,
      "winner": {
        "name": "Drapeau de Belgique Ronald De Witte (BEL)",
        "nationality": null
      },
      "leader": {
        "name": "Drapeau d'Italie Francesco Moser (ITA)",
        "nationality": null
      }
    },
    {
      "id": "E-1975-1b",
      "year": 1975,
      "leg": 1,
      "title": "Molenbeek - Roubaix",
      "start": {
        "city": "Molenbeek",
        "country": "Belgique",
        "lng": "4.319369",
        "lat": "50.856976"
      },
      "finish": {
        "city": "Puy de Dôme",
        "country": "France",
        "lng": "3.015582",
        "lat": "45.712414"
      },
      "length": 169,
      "type": null,
      "winner": {
        "name": "Drapeau de Belgique Karel Rottiers (BEL)",
        "nationality": null
      },
      "leader": {
        "name": "Drapeau d'Italie Francesco Moser (ITA)",
        "nationality": null
      }
    },
    {
      "id": "E-1975-02",
      "year": 1975,
      "leg": 2,
      "title": "Roubaix - Amiens",
      "start": {
        "city": "Roubaix",
        "country": "France",
        "lng": "3.177847",
        "lat": "50.692705"
      },
      "finish": {
        "city": "Pra Loup",
        "country": "France",
        "lng": "6.602232",
        "lat": "44.369445"
      },
      "length": 223,
      "type": null,
      "winner": {
        "name": "Drapeau de France Jacques Esclassan (FRA)",
        "nationality": null
      },
      "leader": {
        "name": "Drapeau d'Italie Francesco Moser (ITA)",
        "nationality": null
      }
    },
    {
      "id": "E-1975-03",
      "year": 1975,
      "leg": 3,
      "title": "Amiens - Versailles",
      "start": {
        "city": "Amiens",
        "country": "France",
        "lng": "2.295753",
        "lat": "49.894067"
      },
      "finish": {
        "city": "Chalon sur Saône",
        "country": "France",
        "lng": "4.853947",
        "lat": "46.780764"
      },
      "length": 134,
      "type": null,
      "winner": {
        "name": "Drapeau de Grande-Bretagne Barry Hoban (GBR)",
        "nationality": null
      },
      "leader": {
        "name": "Drapeau de Belgique Eddy Merckx (BEL)",
        "nationality": null
      }
    },
    {
      "id": "E-1975-04",
      "year": 1975,
      "leg": 4,
      "title": "Versailles - Le Mans",
      "start": {
        "city": "Versailles",
        "country": "France",
        "lng": "2.130122",
        "lat": "48.801408"
      },
      "finish": {
        "city": "Melun",
        "country": "France",
        "lng": "2.6554",
        "lat": "48.542105"
      },
      "length": 160,
      "type": null,
      "winner": {
        "name": "Drapeau des Pays-Bas Joop Zoetemelk (NED)",
        "nationality": null
      },
      "leader": {
        "name": "Drapeau de Belgique Eddy Merckx (BEL)",
        "nationality": null
      }
    },
    {
      "id": "E-1975-05",
      "year": 1975,
      "leg": 5,
      "title": "Sablé-sur-Sarthe - Merlin-Plage",
      "start": {
        "city": "Sablé-sur-Sarthe",
        "country": "France",
        "lng": "-0.331634",
        "lat": "47.840112"
      },
      "finish": {
        "city": "Senlis",
        "country": "France",
        "lng": "2.583212",
        "lat": "49.205164"
      },
      "length": 242,
      "type": null,
      "winner": {
        "name": "Drapeau des Pays-Bas Gerrie Knetemann (NED)",
        "nationality": null
      },
      "leader": {
        "name": "Drapeau de Belgique Eddy Merckx (BEL)",
        "nationality": null
      }
    },
    {
      "id": "E-1975-06",
      "year": 1975,
      "leg": 6,
      "title": "Circuit Merlin-Plage",
      "start": {
        "city": "Saint-Hilaire-de-Riez",
        "country": "France",
        "lng": "-1.945917",
        "lat": "46.720204"
      },
      "finish": {
        "city": "Paris",
        "country": "France",
        "lng": "2.352222",
        "lat": "48.856614"
      },
      "length": 260,
      "type": null,
      "winner": {
        "name": "Drapeau de Belgique Michel Pollentier (BEL)",
        "nationality": null
      },
      "leader": {
        "name": "Drapeau de Belgique Eddy Merckx (BEL)",
        "nationality": null
      }
    },
    {
      "id": "E-1975-07",
      "year": 1975,
      "leg": 7,
      "title": "Saint-Gilles-Croix-de-Vie - Angoulême",
      "start": {
        "city": "Saint-Gilles-Croix-de-Vie",
        "country": "France",
        "lng": "-1.944529",
        "lat": "46.697777"
      },
      "finish": {
        "city": "Molenbeek",
        "country": "Belgique",
        "lng": "4.319369",
        "lat": "50.856976"
      },
      "length": 131,
      "type": null,
      "winner": {
        "name": "Drapeau des Pays-Bas Theo Smit (NED)",
        "nationality": null
      },
      "leader": {
        "name": "Drapeau de Belgique Eddy Merckx (BEL)",
        "nationality": null
      }
    },
    {
      "id": "E-1975-08",
      "year": 1975,
      "leg": 8,
      "title": "Angoulême - Bordeaux",
      "start": {
        "city": "Angoulême",
        "country": "France",
        "lng": "0.156237",
        "lat": "45.648377"
      },
      "finish": {
        "city": "Roubaix",
        "country": "France",
        "lng": "3.177847",
        "lat": "50.692705"
      },
      "length": 37,
      "type": "(CLM)",
      "winner": {
        "name": "Drapeau de Belgique Eddy Merckx (BEL)",
        "nationality": null
      },
      "leader": {
        "name": "Drapeau de Belgique Eddy Merckx (BEL)",
        "nationality": null
      }
    },
    {
      "id": "E-1975-9b",
      "year": 1975,
      "leg": 9,
      "title": "Fleurance - Auch",
      "start": {
        "city": "Fleurance",
        "country": "France",
        "lng": "0.663244",
        "lat": "43.849456"
      },
      "finish": {
        "city": "Auch",
        "country": "France",
        "lng": "0.586709",
        "lat": "43.64638"
      },
      "length": 220,
      "type": null,
      "winner": {
        "name": "Drapeau de Belgique Rik Van Linden (BEL)",
        "nationality": null
      },
      "leader": {
        "name": "Drapeau de France Bernard Thévenet (FRA)",
        "nationality": null
      }
    },
    {
      "id": "E-1975-9a",
      "year": 1975,
      "leg": 9,
      "title": "Langon - Fleurance",
      "start": {
        "city": "Langon",
        "country": "France",
        "lng": "-0.245126",
        "lat": "44.555419"
      },
      "finish": {
        "city": "Fleurance",
        "country": "France",
        "lng": "0.663244",
        "lat": "43.849456"
      },
      "length": 256,
      "type": null,
      "winner": {
        "name": "Drapeau d'Italie Giacinto Santambrogio (ITA)",
        "nationality": null
      },
      "leader": {
        "name": "Drapeau de France Bernard Thévenet (FRA)",
        "nationality": null
      }
    },
    {
      "id": "E-1975-10",
      "year": 1975,
      "leg": 10,
      "title": "Auch - Pau",
      "start": {
        "city": "Auch",
        "country": "France",
        "lng": "0.586709",
        "lat": "43.64638"
      },
      "finish": {
        "city": "Amiens",
        "country": "France",
        "lng": "2.295753",
        "lat": "49.894067"
      },
      "length": 206,
      "type": null,
      "winner": {
        "name": "Drapeau d'Italie Felice Gimondi (ITA)",
        "nationality": null
      },
      "leader": {
        "name": "Drapeau de Belgique Eddy Merckx (BEL)",
        "nationality": null
      }
    },
    {
      "id": "E-1975-11",
      "year": 1975,
      "leg": 11,
      "title": "Pau - Saint-Lary-Soulan",
      "start": {
        "city": "Pau",
        "country": "France",
        "lng": "-0.370797",
        "lat": "43.2951"
      },
      "finish": {
        "city": "Versailles",
        "country": "France",
        "lng": "2.130122",
        "lat": "48.801408"
      },
      "length": 173,
      "type": null,
      "winner": {
        "name": "Drapeau de Belgique Lucien Van Impe (BEL)",
        "nationality": null
      },
      "leader": {
        "name": "Drapeau de Belgique Eddy Merckx (BEL)",
        "nationality": null
      }
    },
    {
      "id": "E-1975-12",
      "year": 1975,
      "leg": 12,
      "title": "Tarbes - Albi",
      "start": {
        "city": "Tarbes",
        "country": "France",
        "lng": "0.078082",
        "lat": "43.232951"
      },
      "finish": {
        "city": "Le Mans",
        "country": "France",
        "lng": "0.199556",
        "lat": "48.00611"
      },
      "length": 217,
      "type": null,
      "winner": {
        "name": "Drapeau de France Bernard Thévenet (FRA)",
        "nationality": null
      },
      "leader": {
        "name": "Drapeau de Belgique Eddy Merckx (BEL)",
        "nationality": null
      }
    },
    {
      "id": "E-1975-13",
      "year": 1975,
      "leg": 13,
      "title": "Albi - Super Lioran",
      "start": {
        "city": "Albi",
        "country": "France",
        "lng": "2.146343",
        "lat": "43.926896"
      },
      "finish": {
        "city": "Merlin-Plage, Saint-Hilaire-de-Riez",
        "country": "France",
        "lng": "-1.945917",
        "lat": "46.720204"
      },
      "length": 107,
      "type": null,
      "winner": {
        "name": "Drapeau de France Bernard Thévenet (FRA)",
        "nationality": null
      },
      "leader": {
        "name": "Drapeau de France Bernard Thévenet (FRA)",
        "nationality": null
      }
    },
    {
      "id": "E-1975-14",
      "year": 1975,
      "leg": 14,
      "title": "Aurillac - Puy de Dôme",
      "start": {
        "city": "Aurillac",
        "country": "France",
        "lng": "2.444997",
        "lat": "44.930953"
      },
      "finish": {
        "city": "Saint-Hilaire-de-Riez",
        "country": "France",
        "lng": "-1.945917",
        "lat": "46.720204"
      },
      "length": 225,
      "type": null,
      "winner": {
        "name": "Drapeau d'Espagne Vicente López Carril (ESP)",
        "nationality": null
      },
      "leader": {
        "name": "Drapeau de France Bernard Thévenet (FRA)",
        "nationality": null
      }
    },
    {
      "id": "E-1975-15",
      "year": 1975,
      "leg": 15,
      "title": "Nice - Pra Loup",
      "start": {
        "city": "Nice",
        "country": "France",
        "lng": "7.265592",
        "lat": "43.696036"
      },
      "finish": {
        "city": "Angoulême",
        "country": "France",
        "lng": "0.156237",
        "lat": "45.648377"
      },
      "length": 40,
      "type": "(CLM)",
      "winner": {
        "name": "Drapeau de Belgique Lucien Van Impe (BEL)",
        "nationality": null
      },
      "leader": {
        "name": "Drapeau de France Bernard Thévenet (FRA)",
        "nationality": null
      }
    },
    {
      "id": "E-1975-16",
      "year": 1975,
      "leg": 16,
      "title": "Barcelonnette - Serre Chevalier",
      "start": {
        "city": "Barcelonnette",
        "country": "France",
        "lng": "6.650463",
        "lat": "44.3863"
      },
      "finish": {
        "city": "Bordeaux",
        "country": "France",
        "lng": "-0.57918",
        "lat": "44.837789"
      },
      "length": 229,
      "type": null,
      "winner": {
        "name": "Drapeau de Belgique Rik Van Linden (BEL)",
        "nationality": null
      },
      "leader": {
        "name": "Drapeau de France Bernard Thévenet (FRA)",
        "nationality": null
      }
    },
    {
      "id": "E-1975-17",
      "year": 1975,
      "leg": 17,
      "title": "Valloire - Morzine-Avoriaz",
      "start": {
        "city": "Valloire",
        "country": "France",
        "lng": "6.428733",
        "lat": "45.165292"
      },
      "finish": {
        "city": "Pau",
        "country": "France",
        "lng": "-0.370797",
        "lat": "43.2951"
      },
      "length": 6,
      "type": "(CLM)",
      "winner": {
        "name": "Drapeau d'Italie Francesco Moser (ITA)",
        "nationality": null
      },
      "leader": {
        "name": "Drapeau d'Italie Francesco Moser (ITA)",
        "nationality": null
      }
    },
    {
      "id": "E-1975-18",
      "year": 1975,
      "leg": 18,
      "title": "Morzine - Châtel",
      "start": {
        "city": "Morzine",
        "country": "France",
        "lng": "6.708877",
        "lat": "46.179192"
      },
      "finish": {
        "city": "Saint-Lary-Soulan",
        "country": "France",
        "lng": "0.320251",
        "lat": "42.815835"
      },
      "length": 94,
      "type": null,
      "winner": {
        "name": "Drapeau des Pays-Bas Cees Priem (NED)",
        "nationality": null
      },
      "leader": {
        "name": "Drapeau d'Italie Francesco Moser (ITA)",
        "nationality": null
      }
    },
    {
      "id": "E-1975-19",
      "year": 1975,
      "leg": 19,
      "title": "Thonon-les-Bains - Chalon sur Saône",
      "start": {
        "city": "Thonon-les-Bains",
        "country": "France",
        "lng": "6.477635",
        "lat": "46.373565"
      },
      "finish": {
        "city": "Albi",
        "country": "France",
        "lng": "2.146343",
        "lat": "43.926896"
      },
      "length": 108,
      "type": null,
      "winner": {
        "name": "Drapeau de Belgique Rik Van Linden (BEL)",
        "nationality": null
      },
      "leader": {
        "name": "Drapeau d'Italie Francesco Moser (ITA)",
        "nationality": null
      }
    },
    {
      "id": "E-1975-20",
      "year": 1975,
      "leg": 20,
      "title": "Pouilly-en-Auxois - Melun",
      "start": {
        "city": "Pouilly-en-Auxois",
        "country": "France",
        "lng": "4.556286",
        "lat": "47.262495"
      },
      "finish": {
        "city": "Serre Chevalier",
        "country": "France",
        "lng": "6.549748",
        "lat": "44.910829"
      },
      "length": 222,
      "type": null,
      "winner": {
        "name": "Drapeau des Pays-Bas Theo Smit (NED)",
        "nationality": null
      },
      "leader": {
        "name": "Drapeau d'Italie Francesco Moser (ITA)",
        "nationality": null
      }
    },
    {
      "id": "E-1975-21",
      "year": 1975,
      "leg": 21,
      "title": "Melun - Senlis",
      "start": {
        "city": "Melun",
        "country": "France",
        "lng": "2.6554",
        "lat": "48.542105"
      },
      "finish": {
        "city": "Morzine-Avoriaz",
        "country": "France",
        "lng": "6.776343",
        "lat": "46.189683"
      },
      "length": 16,
      "type": "(CLM)",
      "winner": {
        "name": "Drapeau de Belgique Eddy Merckx (BEL)",
        "nationality": null
      },
      "leader": {
        "name": "Drapeau de Belgique Eddy Merckx (BEL)",
        "nationality": null
      }
    },
    {
      "id": "E-1975-22",
      "year": 1975,
      "leg": 22,
      "title": "Paris (Circuit Champs-Élysées)",
      "start": {
        "city": "Paris",
        "country": "France",
        "lng": "2.352222",
        "lat": "48.856614"
      },
      "finish": {
        "city": "Châtel",
        "country": "France",
        "lng": "6.841152",
        "lat": "46.267395"
      },
      "length": 235,
      "type": null,
      "winner": {
        "name": "Drapeau d'Italie Francesco Moser (ITA)",
        "nationality": null
      },
      "leader": {
        "name": "Drapeau de Belgique Eddy Merckx (BEL)",
        "nationality": null
      }
    }
  ]
}