{
  "year": 1976,
  "edition": 63,
  "total_length": 4017,
  "nb_legs": 22,
  "has_prologue": false,
  "nb_concurrents": 130,
  "nb_finishers": 87,
  "pct_finishers": 67,
  "winner_first_name": "Lucien",
  "winner_last_name": "Van Impe",
  "winner_id": "lucien-van-impe",
  "winner_total_time": "116h 22' 23\"",
  "winner_age": "29",
  "winner_country": "Belgique",
  "winner_avg_speed": "34,518",
  "ahead_of_2nd": "0h 04' 14\" ",
  "second_name": "J. Zoetemelk",
  "second_country": "Pays-Bas",
  "second_id": "joop-zoetemelk",
  "ahead_of_3rd": "0h 12' 08\"",
  "third_name": "R. Poulidor",
  "third_country": "France",
  "third_id": null,
  "legs": [
    {
      "id": "E-1976-Prologue",
      "year": 1976,
      "leg": "Prologue",
      "leg_num": 0,
      "title": "Saint-Jean-de-Monts",
      "start": {
        "city": "France",
        "country": "46.790144,-2.081802",
        "lat": "Saint-Jean-de-Monts",
        "lng": null
      },
      "finish": {
        "city": "France",
        "country": "46.790144,-2.081802",
        "lat": "8",
        "lng": null
      },
      "length": 0
    },
    {
      "id": "E-1976-01",
      "year": 1976,
      "leg": "1",
      "leg_num": 0,
      "title": "Saint-Jean-de-Monts",
      "start": {
        "city": "France",
        "country": "46.790144,-2.081802",
        "lat": "Angers",
        "lng": null
      },
      "finish": {
        "city": "France",
        "country": "47.478419,-0.563166",
        "lat": "173",
        "lng": null
      },
      "length": 0
    },
    {
      "id": "E-1976-02",
      "year": 1976,
      "leg": "2",
      "leg_num": 0,
      "title": "Angers",
      "start": {
        "city": "France",
        "country": "47.478419,-0.563166",
        "lat": "Caen",
        "lng": null
      },
      "finish": {
        "city": "France",
        "country": "49.182863,-0.370679",
        "lat": "236",
        "lng": "5"
      },
      "length": 0
    },
    {
      "id": "E-1976-03",
      "year": 1976,
      "leg": "3",
      "leg_num": 0,
      "title": "Le Touquet-Paris-Plage",
      "start": {
        "city": "France",
        "country": "50.521276,1.590675",
        "lat": "Le Touquet-Paris-Plage",
        "lng": null
      },
      "finish": {
        "city": "France",
        "country": "50.521276,1.590675",
        "lat": "37",
        "lng": null
      },
      "length": 0
    },
    {
      "id": "E-1976-04",
      "year": 1976,
      "leg": "4",
      "leg_num": 0,
      "title": "Le Touquet",
      "start": {
        "city": "France",
        "country": "50.521276,1.590675",
        "lat": "Bornem",
        "lng": null
      },
      "finish": {
        "city": "Belgique",
        "country": "51.099606,4.240459",
        "lat": "258",
        "lng": null
      },
      "length": 0
    },
    {
      "id": "E-1976-5a",
      "year": 1976,
      "leg": "5a",
      "leg_num": 0,
      "title": "Louvain",
      "start": {
        "city": "Belgique",
        "country": "50.877571,4.704328",
        "lat": "Louvain",
        "lng": null
      },
      "finish": {
        "city": "Belgique",
        "country": "50.877571,4.704328",
        "lat": "4",
        "lng": "3"
      },
      "length": 0
    },
    {
      "id": "E-1976-5b",
      "year": 1976,
      "leg": "5b",
      "leg_num": 0,
      "title": "Louvain",
      "start": {
        "city": "Belgique",
        "country": "50.877571,4.704328",
        "lat": "Verviers",
        "lng": null
      },
      "finish": {
        "city": "Belgique",
        "country": "50.591056,5.865595",
        "lat": "144",
        "lng": null
      },
      "length": 0
    },
    {
      "id": "E-1976-06",
      "year": 1976,
      "leg": "6",
      "leg_num": 0,
      "title": "Bastogne",
      "start": {
        "city": "Belgique",
        "country": "50.000506,5.71528",
        "lat": "Nancy",
        "lng": null
      },
      "finish": {
        "city": "France",
        "country": "48.692054,6.184417",
        "lat": "209",
        "lng": null
      },
      "length": 0
    },
    {
      "id": "E-1976-07",
      "year": 1976,
      "leg": "7",
      "leg_num": 0,
      "title": "Nancy",
      "start": {
        "city": "France",
        "country": "48.692054,6.184417",
        "lat": "Mulhouse",
        "lng": null
      },
      "finish": {
        "city": "France",
        "country": "47.750839,7.335888",
        "lat": "205",
        "lng": "5"
      },
      "length": 0
    },
    {
      "id": "E-1976-08",
      "year": 1976,
      "leg": "8",
      "leg_num": 0,
      "title": "Valentigney",
      "start": {
        "city": "France",
        "country": "47.46142,6.837516",
        "lat": "Divonne-les-Bains",
        "lng": null
      },
      "finish": {
        "city": "France",
        "country": "46.358168,6.13604",
        "lat": "220",
        "lng": "5"
      },
      "length": 0
    },
    {
      "id": "E-1976-09",
      "year": 1976,
      "leg": "9",
      "leg_num": 0,
      "title": "Divonne-les-Bains",
      "start": {
        "city": "France",
        "country": "46.358168,6.13604",
        "lat": "L'Alpe d'Huez",
        "lng": null
      },
      "finish": {
        "city": "France",
        "country": "45.092624,6.068348",
        "lat": "258",
        "lng": null
      },
      "length": 0
    },
    {
      "id": "E-1976-10",
      "year": 1976,
      "leg": "10",
      "leg_num": 0,
      "title": "Le Bourg-d'Oisans",
      "start": {
        "city": "France",
        "country": "45.051951,6.030064",
        "lat": "Montgenèvre",
        "lng": null
      },
      "finish": {
        "city": "France",
        "country": "44.930787,6.722136",
        "lat": "166",
        "lng": null
      },
      "length": 0
    },
    {
      "id": "E-1976-11",
      "year": 1976,
      "leg": "11",
      "leg_num": 0,
      "title": "Montgenèvre",
      "start": {
        "city": "France",
        "country": "44.930787,6.722136",
        "lat": "Manosque",
        "lng": null
      },
      "finish": {
        "city": "France",
        "country": "43.835744,5.790916",
        "lat": "224",
        "lng": null
      },
      "length": 0
    },
    {
      "id": "E-1976-12",
      "year": 1976,
      "leg": "12",
      "leg_num": 0,
      "title": "Port-Barcarès",
      "start": {
        "city": "France",
        "country": "42.78773,3.036565",
        "lat": "Pyrénées 2000",
        "lng": null
      },
      "finish": {
        "city": "France",
        "country": "42.520843,2.061496",
        "lat": "205",
        "lng": "5"
      },
      "length": 0
    },
    {
      "id": "E-1976-13",
      "year": 1976,
      "leg": "13",
      "leg_num": 0,
      "title": "Font-Romeu",
      "start": {
        "city": "France",
        "country": "42.4983,2.0347",
        "lat": "Saint-Gaudens",
        "lng": null
      },
      "finish": {
        "city": "France",
        "country": "43.106895,0.723763",
        "lat": "188",
        "lng": null
      },
      "length": 0
    },
    {
      "id": "E-1976-14",
      "year": 1976,
      "leg": "14",
      "leg_num": 0,
      "title": "Saint-Gaudens",
      "start": {
        "city": "France",
        "country": "43.106895,0.723763",
        "lat": "Saint-Lary-Soulan",
        "lng": null
      },
      "finish": {
        "city": "France",
        "country": "42.815835,0.320251",
        "lat": "139",
        "lng": null
      },
      "length": 0
    },
    {
      "id": "E-1976-15",
      "year": 1976,
      "leg": "15",
      "leg_num": 0,
      "title": "Saint-Lary-Soulan",
      "start": {
        "city": "France",
        "country": "42.815835,0.320251",
        "lat": "Pau",
        "lng": null
      },
      "finish": {
        "city": "France",
        "country": "43.2951,-0.370797",
        "lat": "195",
        "lng": null
      },
      "length": 0
    },
    {
      "id": "E-1976-16",
      "year": 1976,
      "leg": "16",
      "leg_num": 0,
      "title": "Pau",
      "start": {
        "city": "France",
        "country": "43.2951,-0.370797",
        "lat": "Fleurance",
        "lng": null
      },
      "finish": {
        "city": "France",
        "country": "43.849456,0.663244",
        "lat": "152",
        "lng": null
      },
      "length": 0
    },
    {
      "id": "E-1976-17",
      "year": 1976,
      "leg": "17",
      "leg_num": 0,
      "title": "Fleurance",
      "start": {
        "city": "France",
        "country": "43.849456,0.663244",
        "lat": "Auch",
        "lng": null
      },
      "finish": {
        "city": "France",
        "country": "43.64638,0.586709",
        "lat": "39",
        "lng": null
      },
      "length": 0
    },
    {
      "id": "E-1976-18a",
      "year": 1976,
      "leg": "18a",
      "leg_num": 0,
      "title": "Auch",
      "start": {
        "city": "France",
        "country": "43.64638,0.586709",
        "lat": "Langon",
        "lng": null
      },
      "finish": {
        "city": "France",
        "country": "44.555419,-0.245126",
        "lat": "86",
        "lng": null
      },
      "length": 0
    },
    {
      "id": "E-1976-18b",
      "year": 1976,
      "leg": "18b",
      "leg_num": 0,
      "title": "Langon",
      "start": {
        "city": "France",
        "country": "44.555419,-0.245126",
        "lat": "Lacanau",
        "lng": null
      },
      "finish": {
        "city": "France",
        "country": "44.978459,-1.075745",
        "lat": "123",
        "lng": null
      },
      "length": 0
    },
    {
      "id": "E-1976-18c",
      "year": 1976,
      "leg": "18c",
      "leg_num": 0,
      "title": "Lacanau",
      "start": {
        "city": "France",
        "country": "44.978459,-1.075745",
        "lat": "Bordeaux",
        "lng": null
      },
      "finish": {
        "city": "France",
        "country": "44.837789,-0.57918",
        "lat": "70.5",
        "lng": null
      },
      "length": 0
    },
    {
      "id": "E-1976-19",
      "year": 1976,
      "leg": "19",
      "leg_num": 0,
      "title": "Sainte-Foy-la-Grande",
      "start": {
        "city": "France",
        "country": "44.841805,0.215006",
        "lat": "Tulle",
        "lng": null
      },
      "finish": {
        "city": "France",
        "country": "45.26565,1.771697",
        "lat": "219",
        "lng": "5"
      },
      "length": 0
    },
    {
      "id": "E-1976-20",
      "year": 1976,
      "leg": "20",
      "leg_num": 0,
      "title": "Tulle",
      "start": {
        "city": "France",
        "country": "45.26565,1.771697",
        "lat": "Puy de Dôme",
        "lng": null
      },
      "finish": {
        "city": "France",
        "country": "45.77207,2.96974",
        "lat": "220",
        "lng": null
      },
      "length": 0
    },
    {
      "id": "E-1976-21",
      "year": 1976,
      "leg": "21",
      "leg_num": 0,
      "title": "Montargis",
      "start": {
        "city": "France",
        "country": "47.99729,2.736291",
        "lat": "Versailles",
        "lng": null
      },
      "finish": {
        "city": "France",
        "country": "48.801408,2.130122",
        "lat": "145",
        "lng": "5"
      },
      "length": 0
    },
    {
      "id": "E-1976-22a",
      "year": 1976,
      "leg": "22a",
      "leg_num": 0,
      "title": "Paris",
      "start": {
        "city": "France",
        "country": "48.856614,2.352222",
        "lat": "Paris",
        "lng": null
      },
      "finish": {
        "city": "France",
        "country": "48.856614,2.352222",
        "lat": "6",
        "lng": null
      },
      "length": 0
    },
    {
      "id": "E-1976-22b",
      "year": 1976,
      "leg": "22b",
      "leg_num": 0,
      "title": "Paris",
      "start": {
        "city": "France",
        "country": "48.856614,2.352222",
        "lat": "Paris",
        "lng": null
      },
      "finish": {
        "city": "France",
        "country": "48.856614,2.352222",
        "lat": "91",
        "lng": null
      },
      "length": 0
    }
  ]
}