{
  "year": 1977,
  "edition": 64,
  "total_length": 4096,
  "nb_legs": 22,
  "has_prologue": false,
  "nb_concurrents": 100,
  "nb_finishers": 53,
  "pct_finishers": 53,
  "winner_first_name": "Bernard",
  "winner_last_name": "Thévenet",
  "winner_id": "bernard-thevenet",
  "winner_total_time": "115h 38' 30\"",
  "winner_age": "29",
  "winner_country": "France",
  "winner_avg_speed": "35,419",
  "ahead_of_2nd": "0h 00' 48\" ",
  "second_name": "H. Kuiper",
  "second_country": "Pays-Bas",
  "second_id": null,
  "ahead_of_3rd": "0h 03' 32\"",
  "third_name": "L. Van Impe",
  "third_country": "Belgique",
  "third_id": "lucien-van-impe",
  "legs": [
    {
      "id": "E-1977-Prologue",
      "year": 1977,
      "leg": "Prologue",
      "leg_num": 0,
      "title": "Fleurance",
      "start": {
        "city": "France",
        "country": "43.849456,0.663244",
        "lat": "Fleurance",
        "lng": null
      },
      "finish": {
        "city": "France",
        "country": "43.849456,0.663244",
        "lat": "5",
        "lng": null
      },
      "length": 0
    },
    {
      "id": "E-1977-01",
      "year": 1977,
      "leg": "1",
      "leg_num": 0,
      "title": "Fleurance",
      "start": {
        "city": "France",
        "country": "43.849456,0.663244",
        "lat": "Auch",
        "lng": null
      },
      "finish": {
        "city": "France",
        "country": "43.64638,0.586709",
        "lat": "237",
        "lng": null
      },
      "length": 0
    },
    {
      "id": "E-1977-02",
      "year": 1977,
      "leg": "2",
      "leg_num": 0,
      "title": "Auch",
      "start": {
        "city": "France",
        "country": "43.64638,0.586709",
        "lat": "Pau",
        "lng": null
      },
      "finish": {
        "city": "France",
        "country": "43.2951,-0.370797",
        "lat": "253",
        "lng": null
      },
      "length": 0
    },
    {
      "id": "E-1977-03",
      "year": 1977,
      "leg": "3",
      "leg_num": 0,
      "title": "Oloron-Sainte-Marie",
      "start": {
        "city": "France",
        "country": "43.194413,-0.605292",
        "lat": "Vitoria-Gasteiz",
        "lng": null
      },
      "finish": {
        "city": "Espagne",
        "country": "42.849803,-2.673",
        "lat": "248",
        "lng": null
      },
      "length": 0
    },
    {
      "id": "E-1977-04",
      "year": 1977,
      "leg": "4",
      "leg_num": 0,
      "title": "Vitoria-Gasteiz",
      "start": {
        "city": "Espagne",
        "country": "42.849803,-2.673",
        "lat": "Seignosse-le-Penon",
        "lng": null
      },
      "finish": {
        "city": "France",
        "country": "43.707972,-1.424299",
        "lat": "256",
        "lng": null
      },
      "length": 0
    },
    {
      "id": "E-1977-5a",
      "year": 1977,
      "leg": "5a",
      "leg_num": 0,
      "title": "Morcenx",
      "start": {
        "city": "France",
        "country": "44.033654,-0.911249",
        "lat": "Bordeaux",
        "lng": null
      },
      "finish": {
        "city": "France",
        "country": "44.837789,-0.57918",
        "lat": "138",
        "lng": "5"
      },
      "length": 0
    },
    {
      "id": "E-1977-5b",
      "year": 1977,
      "leg": "5b",
      "leg_num": 0,
      "title": "Bordeaux",
      "start": {
        "city": "France",
        "country": "44.837789,-0.57918",
        "lat": "Bordeaux",
        "lng": null
      },
      "finish": {
        "city": "France",
        "country": "44.837789,-0.57918",
        "lat": "30",
        "lng": "2"
      },
      "length": 0
    },
    {
      "id": "E-1977-06",
      "year": 1977,
      "leg": "6",
      "leg_num": 0,
      "title": "Bordeaux",
      "start": {
        "city": "France",
        "country": "44.837789,-0.57918\n",
        "lat": "Limoges",
        "lng": null
      },
      "finish": {
        "city": "France",
        "country": "45.833619,1.261105",
        "lat": "225",
        "lng": "5"
      },
      "length": 0
    },
    {
      "id": "E-1977-7a",
      "year": 1977,
      "leg": "7a",
      "leg_num": 0,
      "title": "Jaunay-Clan",
      "start": {
        "city": "France",
        "country": "46.683763,0.375076",
        "lat": "Angers",
        "lng": null
      },
      "finish": {
        "city": "France",
        "country": "47.478419,-0.563166",
        "lat": "139",
        "lng": "5"
      },
      "length": 0
    },
    {
      "id": "E-1977-7b",
      "year": 1977,
      "leg": "7b",
      "leg_num": 0,
      "title": "Angers",
      "start": {
        "city": "France",
        "country": "47.478419,-0.563166",
        "lat": "Angers",
        "lng": null
      },
      "finish": {
        "city": "France",
        "country": "47.478419,-0.563166",
        "lat": "4",
        "lng": null
      },
      "length": 0
    },
    {
      "id": "E-1977-08",
      "year": 1977,
      "leg": "8",
      "leg_num": 0,
      "title": "Angers",
      "start": {
        "city": "France",
        "country": "47.478419,-0.563166",
        "lat": "Lorient",
        "lng": null
      },
      "finish": {
        "city": "France",
        "country": "47.748252,-3.370245",
        "lat": "246",
        "lng": "5"
      },
      "length": 0
    },
    {
      "id": "E-1977-09",
      "year": 1977,
      "leg": "9",
      "leg_num": 0,
      "title": "Lorient",
      "start": {
        "city": "France",
        "country": "47.748252,-3.370245",
        "lat": "Rennes",
        "lng": null
      },
      "finish": {
        "city": "France",
        "country": "48.113475,-1.675708",
        "lat": "187",
        "lng": null
      },
      "length": 0
    },
    {
      "id": "E-1977-10",
      "year": 1977,
      "leg": "10",
      "leg_num": 0,
      "title": "Bagnoles-de-l'Orne",
      "start": {
        "city": "France",
        "country": "48.558399,-0.415091",
        "lat": "Rouen",
        "lng": null
      },
      "finish": {
        "city": "France",
        "country": "49.443232,1.099971",
        "lat": "174",
        "lng": null
      },
      "length": 0
    },
    {
      "id": "E-1977-11",
      "year": 1977,
      "leg": "11",
      "leg_num": 0,
      "title": "Rouen",
      "start": {
        "city": "France",
        "country": "49.443232,1.099971",
        "lat": "Roubaix",
        "lng": null
      },
      "finish": {
        "city": "France",
        "country": "50.692705,3.177847",
        "lat": "242",
        "lng": "5"
      },
      "length": 0
    },
    {
      "id": "E-1977-12",
      "year": 1977,
      "leg": "12",
      "leg_num": 0,
      "title": "Roubaix",
      "start": {
        "city": "France",
        "country": "50.692705,3.177847",
        "lat": "Charleroi",
        "lng": null
      },
      "finish": {
        "city": "Belgique",
        "country": "50.41081,4.444643",
        "lat": "192",
        "lng": "5"
      },
      "length": 0
    },
    {
      "id": "E-1977-13a",
      "year": 1977,
      "leg": "13a",
      "leg_num": 0,
      "title": "Fribourg-en-Brisgau",
      "start": {
        "city": "RFA",
        "country": "47.999008,7.842104",
        "lat": "Fribourg-en-Brisgau",
        "lng": null
      },
      "finish": {
        "city": "RFA",
        "country": "47.999008,7.842104",
        "lat": "46",
        "lng": null
      },
      "length": 0
    },
    {
      "id": "E-1977-13b",
      "year": 1977,
      "leg": "13b",
      "leg_num": 0,
      "title": "Altkirch",
      "start": {
        "city": "France",
        "country": "47.620391,7.243036",
        "lat": "Besançon",
        "lng": null
      },
      "finish": {
        "city": "France",
        "country": "47.237829,6.024054",
        "lat": "159",
        "lng": "5"
      },
      "length": 0
    },
    {
      "id": "E-1977-14",
      "year": 1977,
      "leg": "14",
      "leg_num": 0,
      "title": "Besançon",
      "start": {
        "city": "France",
        "country": "47.237829,6.024054",
        "lat": "Thonon-les-Bains",
        "lng": null
      },
      "finish": {
        "city": "France",
        "country": "46.373565,6.477635",
        "lat": "230",
        "lng": null
      },
      "length": 0
    },
    {
      "id": "E-1977-15a",
      "year": 1977,
      "leg": "15a",
      "leg_num": 0,
      "title": "Thonon-les-Bains",
      "start": {
        "city": "France",
        "country": "46.373565,6.477635",
        "lat": "Morzine",
        "lng": null
      },
      "finish": {
        "city": "France",
        "country": "46.179192,6.708877",
        "lat": "105",
        "lng": null
      },
      "length": 0
    },
    {
      "id": "E-1977-15b",
      "year": 1977,
      "leg": "15b",
      "leg_num": 0,
      "title": "Morzine",
      "start": {
        "city": "France",
        "country": "46.179192,6.708877",
        "lat": "Avoriaz",
        "lng": null
      },
      "finish": {
        "city": "France",
        "country": "46.189683,6.776343",
        "lat": "14",
        "lng": null
      },
      "length": 0
    },
    {
      "id": "E-1977-16",
      "year": 1977,
      "leg": "16",
      "leg_num": 0,
      "title": "Morzine",
      "start": {
        "city": "France",
        "country": "46.179192,6.708877",
        "lat": "Chamonix",
        "lng": null
      },
      "finish": {
        "city": "France",
        "country": "45.923697,6.869433",
        "lat": "121",
        "lng": null
      },
      "length": 0
    },
    {
      "id": "E-1977-17",
      "year": 1977,
      "leg": "17",
      "leg_num": 0,
      "title": "Chamonix",
      "start": {
        "city": "France",
        "country": "45.923697,6.869433",
        "lat": "L'Alpe d'Huez",
        "lng": null
      },
      "finish": {
        "city": "France",
        "country": "45.092624,6.068348",
        "lat": "184",
        "lng": "5"
      },
      "length": 0
    },
    {
      "id": "E-1977-18",
      "year": 1977,
      "leg": "18",
      "leg_num": 0,
      "title": "Voiron",
      "start": {
        "city": "France",
        "country": "45.362713,5.591349",
        "lat": "Saint-Étienne",
        "lng": null
      },
      "finish": {
        "city": "France",
        "country": "45.439695,4.387178",
        "lat": "199",
        "lng": "5"
      },
      "length": 0
    },
    {
      "id": "E-1977-19",
      "year": 1977,
      "leg": "19",
      "leg_num": 0,
      "title": "Saint-Trivier-sur-Moignans",
      "start": {
        "city": "France",
        "country": "46.071955,4.897866",
        "lat": "Dijon",
        "lng": null
      },
      "finish": {
        "city": "France",
        "country": "47.322047,5.04148",
        "lat": "171",
        "lng": "5"
      },
      "length": 0
    },
    {
      "id": "E-1977-20",
      "year": 1977,
      "leg": "20",
      "leg_num": 0,
      "title": "Dijon",
      "start": {
        "city": "France",
        "country": "47.322047,5.04148",
        "lat": "Dijon",
        "lng": null
      },
      "finish": {
        "city": "France",
        "country": "47.322047,5.04148",
        "lat": "50",
        "lng": null
      },
      "length": 0
    },
    {
      "id": "E-1977-21",
      "year": 1977,
      "leg": "21",
      "leg_num": 0,
      "title": "Montereau",
      "start": {
        "city": "France",
        "country": "48.384734,2.956193",
        "lat": "Versailles",
        "lng": null
      },
      "finish": {
        "city": "France",
        "country": "48.801408,2.130122",
        "lat": "141",
        "lng": "5"
      },
      "length": 0
    },
    {
      "id": "E-1977-22a",
      "year": 1977,
      "leg": "22a",
      "leg_num": 0,
      "title": "Paris",
      "start": {
        "city": "France",
        "country": "48.856614,2.352222",
        "lat": "Paris",
        "lng": null
      },
      "finish": {
        "city": "France",
        "country": "48.856614,2.352222",
        "lat": "6",
        "lng": null
      },
      "length": 0
    },
    {
      "id": "E-1977-22b",
      "year": 1977,
      "leg": "22b",
      "leg_num": 0,
      "title": "Paris",
      "start": {
        "city": "France",
        "country": "48.856614,2.352222",
        "lat": "Paris",
        "lng": null
      },
      "finish": {
        "city": "France",
        "country": "48.856614,2.352222",
        "lat": "91",
        "lng": null
      },
      "length": 0
    }
  ]
}