{
  "year": 1978,
  "edition": 65,
  "total_length": 3908,
  "nb_legs": 22,
  "has_prologue": false,
  "nb_concurrents": 110,
  "nb_finishers": 78,
  "pct_finishers": 71,
  "winner_first_name": "Bernard",
  "winner_last_name": "Hinault",
  "winner_id": "bernard-hinault",
  "winner_total_time": "108h 18' 00\"",
  "winner_age": "23",
  "winner_country": "France",
  "winner_avg_speed": "36,084",
  "ahead_of_2nd": "0h 03' 56\" ",
  "second_name": "J. Zoetemelk",
  "second_country": "Pays-Bas",
  "second_id": "joop-zoetemelk",
  "ahead_of_3rd": "0h 06' 54\"",
  "third_name": "J. Agosthino",
  "third_country": "Portugal",
  "third_id": null,
  "legs": [
    {
      "id": "E-1978-Prologue",
      "year": 1978,
      "leg": "Prologue",
      "leg_num": 0,
      "title": "Leiden",
      "start": {
        "city": "Pays-Bas",
        "country": "52.158494,4.496199",
        "lat": "Leiden",
        "lng": null
      },
      "finish": {
        "city": "Pays-bas",
        "country": "52.158494,4.496199",
        "lat": "5",
        "lng": "2"
      },
      "length": 0
    },
    {
      "id": "E-1978-1a",
      "year": 1978,
      "leg": "1a",
      "leg_num": 0,
      "title": "Leiden",
      "start": {
        "city": "Pays-Bas",
        "country": "52.158494,4.496199",
        "lat": "Sint Willebrord",
        "lng": null
      },
      "finish": {
        "city": "Pays-bas",
        "country": "51.551778,4.58975",
        "lat": "135",
        "lng": null
      },
      "length": 0
    },
    {
      "id": "E-1978-1b",
      "year": 1978,
      "leg": "1b",
      "leg_num": 0,
      "title": "Sint Willebrord",
      "start": {
        "city": "Pays-Bas",
        "country": "51.551778,4.58975",
        "lat": "Bruxelles",
        "lng": null
      },
      "finish": {
        "city": "Belgique",
        "country": "50.85034,4.35171",
        "lat": "100",
        "lng": null
      },
      "length": 0
    },
    {
      "id": "E-1978-02",
      "year": 1978,
      "leg": "2",
      "leg_num": 0,
      "title": "Bruxelles",
      "start": {
        "city": "Belgique",
        "country": "50.85034,4.35171",
        "lat": "Saint-Amand-les-Eaux",
        "lng": null
      },
      "finish": {
        "city": "France",
        "country": "50.448979,3.428713",
        "lat": "299",
        "lng": null
      },
      "length": 0
    },
    {
      "id": "E-1978-03",
      "year": 1978,
      "leg": "3",
      "leg_num": 0,
      "title": "Saint-Amand-les-Eaux",
      "start": {
        "city": "France",
        "country": "50.448979,3.428713",
        "lat": "Saint-Germain-en-Laye",
        "lng": null
      },
      "finish": {
        "city": "France",
        "country": "48.898908,2.093761",
        "lat": "243",
        "lng": "5"
      },
      "length": 0
    },
    {
      "id": "E-1978-04",
      "year": 1978,
      "leg": "4",
      "leg_num": 0,
      "title": "Évreux",
      "start": {
        "city": "France",
        "country": "49.027013,1.151361",
        "lat": "Caen",
        "lng": null
      },
      "finish": {
        "city": "France",
        "country": "49.182863,-0.370679",
        "lat": "153",
        "lng": null
      },
      "length": 0
    },
    {
      "id": "E-1978-05",
      "year": 1978,
      "leg": "5",
      "leg_num": 0,
      "title": "Caen",
      "start": {
        "city": "France",
        "country": "49.182863,-0.370679",
        "lat": "Mazé-Montgeoffroy",
        "lng": null
      },
      "finish": {
        "city": "France",
        "country": "47.468481,-0.277046",
        "lat": "244",
        "lng": null
      },
      "length": 0
    },
    {
      "id": "E-1978-06",
      "year": 1978,
      "leg": "6",
      "leg_num": 0,
      "title": "Mazé-Montgeoffroy",
      "start": {
        "city": "France",
        "country": "47.468481,-0.277046",
        "lat": "Poitiers",
        "lng": null
      },
      "finish": {
        "city": "France",
        "country": "46.580224,0.340375",
        "lat": "162",
        "lng": null
      },
      "length": 0
    },
    {
      "id": "E-1978-07",
      "year": 1978,
      "leg": "7",
      "leg_num": 0,
      "title": "Poitiers",
      "start": {
        "city": "France",
        "country": "46.580224,0.340375",
        "lat": "Bordeaux",
        "lng": null
      },
      "finish": {
        "city": "France",
        "country": "44.837789,-0.57918",
        "lat": "242",
        "lng": null
      },
      "length": 0
    },
    {
      "id": "E-1978-08",
      "year": 1978,
      "leg": "8",
      "leg_num": 0,
      "title": "Saint-Émilion",
      "start": {
        "city": "France",
        "country": "44.894387,-0.155729",
        "lat": "Sainte-Foy-la-Grande",
        "lng": null
      },
      "finish": {
        "city": "France",
        "country": "44.841805,0.215006",
        "lat": "59",
        "lng": "3"
      },
      "length": 0
    },
    {
      "id": "E-1978-09",
      "year": 1978,
      "leg": "9",
      "leg_num": 0,
      "title": "Bordeaux",
      "start": {
        "city": "France",
        "country": "44.837789,-0.57918",
        "lat": "Biarritz",
        "lng": null
      },
      "finish": {
        "city": "France",
        "country": "43.483152,-1.558626",
        "lat": "233",
        "lng": null
      },
      "length": 0
    },
    {
      "id": "E-1978-10",
      "year": 1978,
      "leg": "10",
      "leg_num": 0,
      "title": "Biarritz",
      "start": {
        "city": "France",
        "country": "43.483152,-1.558626",
        "lat": "Pau",
        "lng": null
      },
      "finish": {
        "city": "France",
        "country": "43.2951,-0.370797",
        "lat": "191",
        "lng": "5"
      },
      "length": 0
    },
    {
      "id": "E-1978-11",
      "year": 1978,
      "leg": "11",
      "leg_num": 0,
      "title": "Pau",
      "start": {
        "city": "France",
        "country": "43.2951,-0.370797",
        "lat": "Saint-Lary-Soulan",
        "lng": null
      },
      "finish": {
        "city": "France",
        "country": "42.815835,0.320251",
        "lat": "161",
        "lng": null
      },
      "length": 0
    },
    {
      "id": "E-1978-12a",
      "year": 1978,
      "leg": "12a",
      "leg_num": 0,
      "title": "Tarbes",
      "start": {
        "city": "France",
        "country": "43.232951,0.078082",
        "lat": "Valence-d'Agen",
        "lng": null
      },
      "finish": {
        "city": "France",
        "country": "44.108057,0.890241",
        "lat": "158",
        "lng": null
      },
      "length": 0
    },
    {
      "id": "E-1978-12b",
      "year": 1978,
      "leg": "12b",
      "leg_num": 0,
      "title": "Valence-d'Agen",
      "start": {
        "city": "France",
        "country": "44.108057,0.890241",
        "lat": "Toulouse",
        "lng": null
      },
      "finish": {
        "city": "France",
        "country": "43.604652,1.444209",
        "lat": "96",
        "lng": null
      },
      "length": 0
    },
    {
      "id": "E-1978-13",
      "year": 1978,
      "leg": "13",
      "leg_num": 0,
      "title": "Figeac",
      "start": {
        "city": "France",
        "country": "44.608288,2.032871",
        "lat": "Super Besse",
        "lng": null
      },
      "finish": {
        "city": "France",
        "country": "45.508022,2.861518",
        "lat": "221",
        "lng": "5"
      },
      "length": 0
    },
    {
      "id": "E-1978-14",
      "year": 1978,
      "leg": "14",
      "leg_num": 0,
      "title": "Besse-en-Chandesse",
      "start": {
        "city": "France",
        "country": "45.510908,2.933859",
        "lat": "Puy de Dôme",
        "lng": null
      },
      "finish": {
        "city": "France",
        "country": "45.77207,2.96974",
        "lat": "52",
        "lng": "5"
      },
      "length": 0
    },
    {
      "id": "E-1978-15",
      "year": 1978,
      "leg": "15",
      "leg_num": 0,
      "title": "Saint-Dier-d'Auvergne",
      "start": {
        "city": "France",
        "country": "45.675563,3.482832",
        "lat": "Saint-Étienne",
        "lng": null
      },
      "finish": {
        "city": "France",
        "country": "45.439695,4.387178",
        "lat": "196",
        "lng": null
      },
      "length": 0
    },
    {
      "id": "E-1978-16",
      "year": 1978,
      "leg": "16",
      "leg_num": 0,
      "title": "Saint-Étienne",
      "start": {
        "city": "France",
        "country": "45.439695,4.387178",
        "lat": "L'Alpe d'Huez",
        "lng": null
      },
      "finish": {
        "city": "France",
        "country": "45.092624,6.068348",
        "lat": "240",
        "lng": "5"
      },
      "length": 0
    },
    {
      "id": "E-1978-17",
      "year": 1978,
      "leg": "17",
      "leg_num": 0,
      "title": "Grenoble",
      "start": {
        "city": "France",
        "country": "45.188529,5.724524",
        "lat": "Morzine",
        "lng": null
      },
      "finish": {
        "city": "France",
        "country": "46.179192,6.708877",
        "lat": "225",
        "lng": null
      },
      "length": 0
    },
    {
      "id": "E-1978-18",
      "year": 1978,
      "leg": "18",
      "leg_num": 0,
      "title": "Morzine",
      "start": {
        "city": "France",
        "country": "46.179192,6.708877",
        "lat": "Lausanne",
        "lng": null
      },
      "finish": {
        "city": "Suisse",
        "country": "46.519962,6.633597",
        "lat": "137",
        "lng": "5"
      },
      "length": 0
    },
    {
      "id": "E-1978-19",
      "year": 1978,
      "leg": "19",
      "leg_num": 0,
      "title": "Lausanne",
      "start": {
        "city": "Suisse",
        "country": "46.519962,6.633597",
        "lat": "Belfort",
        "lng": null
      },
      "finish": {
        "city": "France",
        "country": "47.639674,6.863849",
        "lat": "181",
        "lng": "5"
      },
      "length": 0
    },
    {
      "id": "E-1978-20",
      "year": 1978,
      "leg": "20",
      "leg_num": 0,
      "title": "Metz",
      "start": {
        "city": "France",
        "country": "49.119666,6.176905",
        "lat": "Nancy",
        "lng": null
      },
      "finish": {
        "city": "France",
        "country": "48.692054,6.184417",
        "lat": "72",
        "lng": null
      },
      "length": 0
    },
    {
      "id": "E-1978-21",
      "year": 1978,
      "leg": "21",
      "leg_num": 0,
      "title": "Épernay",
      "start": {
        "city": "France",
        "country": "49.043411,3.956242",
        "lat": "Senlis",
        "lng": null
      },
      "finish": {
        "city": "France",
        "country": "49.205164,2.583212",
        "lat": "207",
        "lng": "5"
      },
      "length": 0
    },
    {
      "id": "E-1978-22",
      "year": 1978,
      "leg": "22",
      "leg_num": 0,
      "title": "Saint-Germain-en-Laye",
      "start": {
        "city": "France",
        "country": "48.898908,2.093761",
        "lat": "Paris",
        "lng": null
      },
      "finish": {
        "city": "France",
        "country": "48.856614,2.352222",
        "lat": "161",
        "lng": "5"
      },
      "length": 0
    }
  ]
}