{
  "year": 1979,
  "edition": 66,
  "total_length": 3765,
  "nb_legs": 24,
  "has_prologue": false,
  "nb_concurrents": 150,
  "nb_finishers": 90,
  "pct_finishers": 60,
  "winner_first_name": "Bernard",
  "winner_last_name": "Hinault",
  "winner_id": "bernard-hinault",
  "winner_total_time": "103h 06' 50\"",
  "winner_age": "24",
  "winner_country": "France",
  "winner_avg_speed": "36,513",
  "ahead_of_2nd": "0h 06' 50\" ",
  "second_name": "J. Zoetemelk",
  "second_country": "Pays-Bas",
  "second_id": "joop-zoetemelk",
  "ahead_of_3rd": "0h 26' 53\"",
  "third_name": "J. Agosthino",
  "third_country": "Portugal",
  "third_id": null,
  "legs": [
    {
      "id": "E-1979-Prologue",
      "year": 1979,
      "leg": "Prologue",
      "leg_num": 0,
      "title": "Fleurance",
      "start": {
        "city": "Fleurance",
        "country": "France",
        "lat": "43.849456",
        "lng": "0.663244"
      },
      "finish": {
        "city": "Fleurance",
        "country": "France",
        "lat": "43.849456",
        "lng": "0.663244"
      },
      "length": 5
    },
    {
      "id": "E-1979-01",
      "year": 1979,
      "leg": "1",
      "leg_num": 1,
      "title": "Fleurance - Luchon",
      "start": {
        "city": "Fleurance",
        "country": "France",
        "lat": "43.849456",
        "lng": "0.663244"
      },
      "finish": {
        "city": "Luchon",
        "country": "France",
        "lat": "42.788963",
        "lng": "0.592943"
      },
      "length": 225
    },
    {
      "id": "E-1979-02",
      "year": 1979,
      "leg": "2",
      "leg_num": 2,
      "title": "Luchon - Superbagnères",
      "start": {
        "city": "Luchon",
        "country": "France",
        "lat": "42.788963",
        "lng": "0.592943\n"
      },
      "finish": {
        "city": "Superbagnères",
        "country": "France",
        "lat": "42.768576",
        "lng": "0.576927"
      },
      "length": 23
    },
    {
      "id": "E-1979-03",
      "year": 1979,
      "leg": "3",
      "leg_num": 3,
      "title": "Luchon - Pau",
      "start": {
        "city": "Luchon",
        "country": "France",
        "lat": "42.788963",
        "lng": "0.592943"
      },
      "finish": {
        "city": "Pau",
        "country": "France",
        "lat": "43.2951",
        "lng": "-0.370797"
      },
      "length": 180
    },
    {
      "id": "E-1979-04",
      "year": 1979,
      "leg": "4",
      "leg_num": 4,
      "title": "Captieux - Bordeaux",
      "start": {
        "city": "Captieux",
        "country": "France",
        "lat": "44.291534",
        "lng": "-0.261723"
      },
      "finish": {
        "city": "Bordeaux",
        "country": "France",
        "lat": "44.837789",
        "lng": "-0.57918"
      },
      "length": 87
    },
    {
      "id": "E-1979-05",
      "year": 1979,
      "leg": "5",
      "leg_num": 5,
      "title": "Neuville-de-Poitou - Angers",
      "start": {
        "city": "Neuville-de-Poitou",
        "country": "France",
        "lat": "46.685934",
        "lng": "0.246918"
      },
      "finish": {
        "city": "Angers",
        "country": "France",
        "lat": "47.478419",
        "lng": "-0.563166"
      },
      "length": 145
    },
    {
      "id": "E-1979-06",
      "year": 1979,
      "leg": "6",
      "leg_num": 6,
      "title": "Angers - Saint-Brieuc",
      "start": {
        "city": "Angers",
        "country": "France",
        "lat": "47.478419",
        "lng": "-0.563166"
      },
      "finish": {
        "city": "Saint-Brieuc",
        "country": "France",
        "lat": "48.51418",
        "lng": "-2.765835"
      },
      "length": 238
    },
    {
      "id": "E-1979-07",
      "year": 1979,
      "leg": "7",
      "leg_num": 7,
      "title": "Saint-Hilaire-du-Harcouët - Deauville",
      "start": {
        "city": "Saint-Hilaire-du-Harcouët",
        "country": "France",
        "lat": "48.577086",
        "lng": "-1.092034"
      },
      "finish": {
        "city": "Deauville",
        "country": "France",
        "lat": "49.353976",
        "lng": "0.075122"
      },
      "length": 158
    },
    {
      "id": "E-1979-08",
      "year": 1979,
      "leg": "8",
      "leg_num": 8,
      "title": "Deauville - Le Havre",
      "start": {
        "city": "Deauville",
        "country": "France",
        "lat": "49.353976",
        "lng": "0.075122"
      },
      "finish": {
        "city": "Le Havre",
        "country": "France",
        "lat": "49.49437",
        "lng": "0.107929"
      },
      "length": 90
    },
    {
      "id": "E-1979-09",
      "year": 1979,
      "leg": "9",
      "leg_num": 9,
      "title": "Amiens - Roubaix",
      "start": {
        "city": "Amiens",
        "country": "France",
        "lat": "49.894067",
        "lng": "2.295753"
      },
      "finish": {
        "city": "Roubaix",
        "country": "France",
        "lat": "50.692705",
        "lng": "3.177847"
      },
      "length": 201
    },
    {
      "id": "E-1979-10",
      "year": 1979,
      "leg": "10",
      "leg_num": 10,
      "title": "Roubaix - Bruxelles (Bel.)",
      "start": {
        "city": "Roubaix",
        "country": "France",
        "lat": "50.692705",
        "lng": "3.177847"
      },
      "finish": {
        "city": "Bruxelles",
        "country": "Belgique",
        "lat": "50.85034",
        "lng": "4.35171"
      },
      "length": 122
    },
    {
      "id": "E-1979-11",
      "year": 1979,
      "leg": "11",
      "leg_num": 11,
      "title": "Bruxelles (Bel.)",
      "start": {
        "city": "Bruxelles",
        "country": "Belgique",
        "lat": "50.85034",
        "lng": "4.35171"
      },
      "finish": {
        "city": "Bruxelles",
        "country": "Belgique",
        "lat": "50.85034",
        "lng": "4.35171"
      },
      "length": 33
    },
    {
      "id": "E-1979-12",
      "year": 1979,
      "leg": "12",
      "leg_num": 12,
      "title": "Rochefort (Bel.) - Metz",
      "start": {
        "city": "Rochefort",
        "country": "Belgique",
        "lat": "50.15960",
        "lng": "5.22217"
      },
      "finish": {
        "city": "Metz",
        "country": "France",
        "lat": "49.119666",
        "lng": "6.176905"
      },
      "length": 193
    },
    {
      "id": "E-1979-13",
      "year": 1979,
      "leg": "13",
      "leg_num": 13,
      "title": "Metz - Ballon d'Alsace",
      "start": {
        "city": "Metz",
        "country": "France",
        "lat": "49.119666",
        "lng": "6.176905"
      },
      "finish": {
        "city": "Ballon d'Alsace",
        "country": "France",
        "lat": "47.822893",
        "lng": "6.84645"
      },
      "length": 202
    },
    {
      "id": "E-1979-14",
      "year": 1979,
      "leg": "14",
      "leg_num": 14,
      "title": "Belfort - Évian",
      "start": {
        "city": "Belfort",
        "country": "France",
        "lat": "47.639674",
        "lng": "6.863849"
      },
      "finish": {
        "city": "Évian-les-Bains",
        "country": "France",
        "lat": "46.401488",
        "lng": "6.590949"
      },
      "length": 248
    },
    {
      "id": "E-1979-15",
      "year": 1979,
      "leg": "15",
      "leg_num": 15,
      "title": "Évian - Morzine-Avoriaz",
      "start": {
        "city": "Évian-les-Bains",
        "country": "France",
        "lat": "46.401488",
        "lng": "6.590949"
      },
      "finish": {
        "city": "Morzine-Avoriaz",
        "country": "France",
        "lat": "46.189683",
        "lng": "6.776343"
      },
      "length": 54
    },
    {
      "id": "E-1979-16",
      "year": 1979,
      "leg": "16",
      "leg_num": 16,
      "title": "Morzine - Les Menuires",
      "start": {
        "city": "Morzine",
        "country": "France",
        "lat": "46.179192",
        "lng": "6.708877"
      },
      "finish": {
        "city": "Les Menuires",
        "country": "France",
        "lat": "45.326745",
        "lng": "6.536145"
      },
      "length": 201
    },
    {
      "id": "E-1979-17",
      "year": 1979,
      "leg": "17",
      "leg_num": 17,
      "title": "Moûtiers - L'Alpe d'Huez",
      "start": {
        "city": "Moûtiers",
        "country": "France",
        "lat": "45.484615",
        "lng": "6.529926"
      },
      "finish": {
        "city": "L'Alpe d'Huez",
        "country": "France",
        "lat": "45.092624",
        "lng": "6.068348"
      },
      "length": 166
    },
    {
      "id": "E-1979-18",
      "year": 1979,
      "leg": "18",
      "leg_num": 18,
      "title": "L'Alpe d'Huez - L'Alpe d'Huez",
      "start": {
        "city": "L'Alpe d'Huez",
        "country": "France",
        "lat": "45.092624",
        "lng": "6.068348"
      },
      "finish": {
        "city": "L'Alpe d'Huez",
        "country": "France",
        "lat": "45.092624",
        "lng": "6.068348"
      },
      "length": 118
    },
    {
      "id": "E-1979-19",
      "year": 1979,
      "leg": "19",
      "leg_num": 19,
      "title": "Le Bourg-d'Oisans - Saint-Priest",
      "start": {
        "city": "Le Bourg-d'Oisans",
        "country": "France",
        "lat": "45.051951",
        "lng": "6.030064"
      },
      "finish": {
        "city": "Saint-Priest",
        "country": "France",
        "lat": "45.698938",
        "lng": "4.947071"
      },
      "length": 162
    },
    {
      "id": "E-1979-20",
      "year": 1979,
      "leg": "20",
      "leg_num": 20,
      "title": "Saint-Priest - Dijon",
      "start": {
        "city": "Saint-Priest",
        "country": "France",
        "lat": "45.698938",
        "lng": "4.947071"
      },
      "finish": {
        "city": "Dijon",
        "country": "France",
        "lat": "47.322047",
        "lng": "5.04148"
      },
      "length": 239
    },
    {
      "id": "E-1979-21",
      "year": 1979,
      "leg": "21",
      "leg_num": 21,
      "title": "Dijon - Dijon",
      "start": {
        "city": "Dijon",
        "country": "France",
        "lat": "47.322047",
        "lng": "5.04148"
      },
      "finish": {
        "city": "Dijon",
        "country": "France",
        "lat": "47.322047",
        "lng": "5.04148"
      },
      "length": 48
    },
    {
      "id": "E-1979-22",
      "year": 1979,
      "leg": "22",
      "leg_num": 22,
      "title": "Dijon - Auxerre",
      "start": {
        "city": "Dijon",
        "country": "France",
        "lat": "47.322047",
        "lng": "5.04148"
      },
      "finish": {
        "city": "Auxerre",
        "country": "France",
        "lat": "47.798202",
        "lng": "3.573781"
      },
      "length": 189
    },
    {
      "id": "E-1979-23",
      "year": 1979,
      "leg": "23",
      "leg_num": 23,
      "title": "Auxerre - Nogent-sur-Marne",
      "start": {
        "city": "Auxerre",
        "country": "France",
        "lat": "47.798202",
        "lng": "3.573781"
      },
      "finish": {
        "city": "Nogent-sur-Marne",
        "country": "France",
        "lat": "48.837631",
        "lng": "2.481699"
      },
      "length": 205
    },
    {
      "id": "E-1979-24",
      "year": 1979,
      "leg": "24",
      "leg_num": 24,
      "title": "Le Perreux-sur-Marne - Paris",
      "start": {
        "city": "Le Perreux-sur-Marne",
        "country": "France",
        "lat": "48.841386",
        "lng": "2.504038"
      },
      "finish": {
        "city": "Paris",
        "country": "France",
        "lat": "48.856614",
        "lng": "2.352222"
      },
      "length": 180
    }
  ]
}