{
  "year": 1980,
  "edition": 67,
  "total_length": 3842,
  "nb_legs": 22,
  "has_prologue": false,
  "nb_concurrents": 130,
  "nb_finishers": 85,
  "pct_finishers": 65,
  "winner_first_name": "Joop",
  "winner_last_name": "Zoetemelk",
  "winner_id": "joop-zoetemelk",
  "winner_total_time": "109h 19' 14\"",
  "winner_age": "33",
  "winner_country": "Pays-Bas",
  "winner_avg_speed": "35,144",
  "ahead_of_2nd": "0h 06' 55\" ",
  "second_name": "H. Kuiper",
  "second_country": "Belgique",
  "second_id": null,
  "ahead_of_3rd": "0h 07' 56\"",
  "third_name": "R. Martin",
  "third_country": "France",
  "third_id": null,
  "legs": [
    {
      "id": "E-1980-Prologue",
      "year": 1980,
      "leg": "Prologue",
      "leg_num": 0,
      "title": "Francfort",
      "start": {
        "city": "Allemagne",
        "country": "50.110922,8.682127",
        "lat": "Francfort",
        "lng": null
      },
      "finish": {
        "city": "Allemagne",
        "country": "50.110922,8.682127",
        "lat": "7",
        "lng": "6"
      },
      "length": 0
    },
    {
      "id": "E-1980-1a",
      "year": 1980,
      "leg": "1a",
      "leg_num": 0,
      "title": "Francfort",
      "start": {
        "city": "Allemagne",
        "country": "50.110922,8.682127",
        "lat": "Wiesbaden",
        "lng": null
      },
      "finish": {
        "city": "Allemagne",
        "country": "50.06308,8.243344",
        "lat": "133",
        "lng": null
      },
      "length": 0
    },
    {
      "id": "E-1980-1b",
      "year": 1980,
      "leg": "1b",
      "leg_num": 0,
      "title": "Wiesbaden",
      "start": {
        "city": "Allemagne",
        "country": "50.06308,8.243344",
        "lat": "Francfort",
        "lng": null
      },
      "finish": {
        "city": "Allemagne",
        "country": "50.110922,8.682127",
        "lat": "45",
        "lng": "8"
      },
      "length": 0
    },
    {
      "id": "E-1980-02",
      "year": 1980,
      "leg": "2",
      "leg_num": 0,
      "title": "Francfort",
      "start": {
        "city": "Allemagne",
        "country": "50.110922,8.682127",
        "lat": "Metz",
        "lng": null
      },
      "finish": {
        "city": "France",
        "country": "49.119666,6.176905",
        "lat": "276",
        "lng": null
      },
      "length": 0
    },
    {
      "id": "E-1980-03",
      "year": 1980,
      "leg": "3",
      "leg_num": 0,
      "title": "Metz",
      "start": {
        "city": "France",
        "country": "49.119666,6.176905",
        "lat": "Liège",
        "lng": null
      },
      "finish": {
        "city": "Belgique",
        "country": "50.632557,5.579666",
        "lat": "282",
        "lng": "5"
      },
      "length": 0
    },
    {
      "id": "E-1980-04",
      "year": 1980,
      "leg": "4",
      "leg_num": 0,
      "title": "Francorchamps",
      "start": {
        "city": "Belgique",
        "country": "50.43772,5.971528",
        "lat": "Francorchamps",
        "lng": null
      },
      "finish": {
        "city": "Belgique",
        "country": "50.43772,5.971528",
        "lat": "34",
        "lng": "6"
      },
      "length": 0
    },
    {
      "id": "E-1980-05",
      "year": 1980,
      "leg": "5",
      "leg_num": 0,
      "title": "Liège",
      "start": {
        "city": "Belgique",
        "country": "50.632557,5.579666",
        "lat": "Lille",
        "lng": null
      },
      "finish": {
        "city": "France",
        "country": "50.62925,3.057256",
        "lat": "249",
        "lng": "3"
      },
      "length": 0
    },
    {
      "id": "E-1980-06",
      "year": 1980,
      "leg": "6",
      "leg_num": 0,
      "title": "Lille",
      "start": {
        "city": "France",
        "country": "50.62925,3.057256",
        "lat": "Compiègne",
        "lng": null
      },
      "finish": {
        "city": "France",
        "country": "49.417816,2.826145",
        "lat": "215",
        "lng": "6"
      },
      "length": 0
    },
    {
      "id": "E-1980-7a",
      "year": 1980,
      "leg": "7a",
      "leg_num": 0,
      "title": "Compiègne",
      "start": {
        "city": "France",
        "country": "49.417816,2.826145",
        "lat": "Beauvais",
        "lng": null
      },
      "finish": {
        "city": "France",
        "country": "49.42964,2.081875",
        "lat": "65",
        "lng": null
      },
      "length": 0
    },
    {
      "id": "E-1980-7b",
      "year": 1980,
      "leg": "7b",
      "leg_num": 0,
      "title": "Beauvais",
      "start": {
        "city": "France",
        "country": "49.42964,2.081875",
        "lat": "Rouen",
        "lng": null
      },
      "finish": {
        "city": "France",
        "country": "49.443232,1.099971",
        "lat": "92",
        "lng": null
      },
      "length": 0
    },
    {
      "id": "E-1980-08",
      "year": 1980,
      "leg": "8",
      "leg_num": 0,
      "title": "Flers",
      "start": {
        "city": "France",
        "country": "48.750059,-0.575794",
        "lat": "Saint-Malo",
        "lng": null
      },
      "finish": {
        "city": "France",
        "country": "48.649337,-2.025674",
        "lat": "164",
        "lng": "2"
      },
      "length": 0
    },
    {
      "id": "E-1980-09",
      "year": 1980,
      "leg": "9",
      "leg_num": 0,
      "title": "Saint-Malo",
      "start": {
        "city": "France",
        "country": "48.649337,-2.025674",
        "lat": "Nantes",
        "lng": null
      },
      "finish": {
        "city": "France",
        "country": "47.218371,-1.553621",
        "lat": "205",
        "lng": "3"
      },
      "length": 0
    },
    {
      "id": "E-1980-10",
      "year": 1980,
      "leg": "10",
      "leg_num": 0,
      "title": "Rochefort",
      "start": {
        "city": "France",
        "country": "45.936698,-0.961697",
        "lat": "Bordeaux",
        "lng": null
      },
      "finish": {
        "city": "France",
        "country": "44.837789,-0.57918",
        "lat": "203",
        "lng": null
      },
      "length": 0
    },
    {
      "id": "E-1980-11",
      "year": 1980,
      "leg": "11",
      "leg_num": 0,
      "title": "Damazan",
      "start": {
        "city": "France",
        "country": "44.2905,0.276419",
        "lat": "Laplume",
        "lng": null
      },
      "finish": {
        "city": "France",
        "country": "44.110689,0.532322",
        "lat": "51",
        "lng": "8"
      },
      "length": 0
    },
    {
      "id": "E-1980-12",
      "year": 1980,
      "leg": "12",
      "leg_num": 0,
      "title": "Agen",
      "start": {
        "city": "France",
        "country": "44.203142,0.616363",
        "lat": "Pau",
        "lng": null
      },
      "finish": {
        "city": "France",
        "country": "43.2951,-0.370797",
        "lat": "194",
        "lng": "1"
      },
      "length": 0
    },
    {
      "id": "E-1980-13",
      "year": 1980,
      "leg": "13",
      "leg_num": 0,
      "title": "Pau",
      "start": {
        "city": "France",
        "country": "43.2951,-0.370797",
        "lat": "Bagnères-de-Luchon",
        "lng": null
      },
      "finish": {
        "city": "France",
        "country": "42.788963,0.592943",
        "lat": "200",
        "lng": "4"
      },
      "length": 0
    },
    {
      "id": "E-1980-14",
      "year": 1980,
      "leg": "14",
      "leg_num": 0,
      "title": "Lézignan-Corbières",
      "start": {
        "city": "France",
        "country": "43.200503,2.757776",
        "lat": "Montpellier",
        "lng": null
      },
      "finish": {
        "city": "France",
        "country": "43.610769,3.876716",
        "lat": "189",
        "lng": "5"
      },
      "length": 0
    },
    {
      "id": "E-1980-15",
      "year": 1980,
      "leg": "15",
      "leg_num": 0,
      "title": "Montpellier",
      "start": {
        "city": "France",
        "country": "43.610769,3.876716",
        "lat": "Martigues",
        "lng": null
      },
      "finish": {
        "city": "France",
        "country": "43.404811,5.053728",
        "lat": "160",
        "lng": null
      },
      "length": 0
    },
    {
      "id": "E-1980-16",
      "year": 1980,
      "leg": "16",
      "leg_num": 0,
      "title": "Trets",
      "start": {
        "city": "France",
        "country": "43.446909,5.684155",
        "lat": "Pra Loup",
        "lng": null
      },
      "finish": {
        "city": "France",
        "country": "44.369445,6.602232",
        "lat": "208",
        "lng": "6"
      },
      "length": 0
    },
    {
      "id": "E-1980-17",
      "year": 1980,
      "leg": "17",
      "leg_num": 0,
      "title": "Serre Chevalier",
      "start": {
        "city": "France",
        "country": "44.910829,6.549748",
        "lat": "Morzine",
        "lng": null
      },
      "finish": {
        "city": "France",
        "country": "46.179192,6.708877",
        "lat": "242",
        "lng": null
      },
      "length": 0
    },
    {
      "id": "E-1980-18",
      "year": 1980,
      "leg": "18",
      "leg_num": 0,
      "title": "Morzine",
      "start": {
        "city": "France",
        "country": "46.179192,6.708877",
        "lat": "Prapoutel",
        "lng": " les 7 laux"
      },
      "finish": {
        "city": "France",
        "country": "45.256657,5.995565",
        "lat": "198",
        "lng": "8"
      },
      "length": 0
    },
    {
      "id": "E-1980-19",
      "year": 1980,
      "leg": "19",
      "leg_num": 0,
      "title": "Voreppe",
      "start": {
        "city": "France",
        "country": "45.298156,5.637517",
        "lat": "Saint-Étienne",
        "lng": null
      },
      "finish": {
        "city": "France",
        "country": "45.439695,4.387178",
        "lat": "139",
        "lng": "7"
      },
      "length": 0
    },
    {
      "id": "E-1980-20",
      "year": 1980,
      "leg": "20",
      "leg_num": 0,
      "title": "Saint-Étienne",
      "start": {
        "city": "France",
        "country": "45.439695,4.387178",
        "lat": "Saint-Étienne",
        "lng": null
      },
      "finish": {
        "city": "France",
        "country": "45.439695,4.387178",
        "lat": "34",
        "lng": "5"
      },
      "length": 0
    },
    {
      "id": "E-1980-21",
      "year": 1980,
      "leg": "21",
      "leg_num": 0,
      "title": "Auxerre",
      "start": {
        "city": "France",
        "country": "47.798202,3.573781",
        "lat": "Fontenay-sous-Bois",
        "lng": null
      },
      "finish": {
        "city": "France",
        "country": "48.851542,2.475907",
        "lat": "208",
        "lng": null
      },
      "length": 0
    },
    {
      "id": "E-1980-22",
      "year": 1980,
      "leg": "22",
      "leg_num": 0,
      "title": "Fontenay-sous-Bois",
      "start": {
        "city": "France",
        "country": "48.851542,2.475907",
        "lat": "Paris",
        "lng": null
      },
      "finish": {
        "city": "France",
        "country": "48.856614,2.352222",
        "lat": "186",
        "lng": "1"
      },
      "length": 0
    }
  ]
}