{
  "year": 1982,
  "edition": 69,
  "total_length": 3507,
  "nb_legs": 21,
  "has_prologue": false,
  "nb_concurrents": 169,
  "nb_finishers": 125,
  "pct_finishers": 74,
  "winner_first_name": "Bernard",
  "winner_last_name": "Hinault",
  "winner_id": "bernard-hinault",
  "winner_total_time": "92h 08' 46\"",
  "winner_age": "27",
  "winner_country": "France",
  "winner_avg_speed": "38,059",
  "ahead_of_2nd": "0h 06' 21\" ",
  "second_name": "J. Zoetemelk",
  "second_country": "Pays-Bas",
  "second_id": "joop-zoetemelk",
  "ahead_of_3rd": "0h 8' 59\"",
  "third_name": "J. Van Der Velde",
  "third_country": "Pays-Bas",
  "third_id": null,
  "legs": [
    {
      "id": "E-1982-Prologue",
      "year": 1982,
      "leg": "Prologue",
      "leg_num": 0,
      "title": "Bâle",
      "start": {
        "city": "Suisse",
        "country": "47.557421,7.592573",
        "lat": "Bâle",
        "lng": null
      },
      "finish": {
        "city": "Suisse",
        "country": "47.557421,7.592573",
        "lat": "7",
        "lng": "4"
      },
      "length": 0
    },
    {
      "id": "E-1982-01",
      "year": 1982,
      "leg": "1",
      "leg_num": 0,
      "title": "Schupfart-Möhlin",
      "start": {
        "city": "Suisse",
        "country": "47.52068,7.92973",
        "lat": "Schupfart-Möhlin",
        "lng": null
      },
      "finish": {
        "city": "Suisse",
        "country": "47.52068,7.92973",
        "lat": "207",
        "lng": null
      },
      "length": 0
    },
    {
      "id": "E-1982-02",
      "year": 1982,
      "leg": "2",
      "leg_num": 0,
      "title": "Bâle",
      "start": {
        "city": "Suisse",
        "country": "47.557421,7.592573",
        "lat": "Nancy",
        "lng": null
      },
      "finish": {
        "city": "France",
        "country": "48.692054,6.184417",
        "lat": "250",
        "lng": null
      },
      "length": 0
    },
    {
      "id": "E-1982-03",
      "year": 1982,
      "leg": "3",
      "leg_num": 0,
      "title": "Nancy",
      "start": {
        "city": "France",
        "country": "48.692054,6.184417",
        "lat": "Longwy",
        "lng": null
      },
      "finish": {
        "city": "France",
        "country": "49.519919,5.761773",
        "lat": "134",
        "lng": null
      },
      "length": 0
    },
    {
      "id": "E-1982-04",
      "year": 1982,
      "leg": "4",
      "leg_num": 0,
      "title": "Beauraing",
      "start": {
        "city": "Belgique",
        "country": "50.110281,4.955435",
        "lat": "Mouscron",
        "lng": null
      },
      "finish": {
        "city": "Belgique",
        "country": "50.743754,3.220815",
        "lat": "219",
        "lng": null
      },
      "length": 0
    },
    {
      "id": "E-1982-05",
      "year": 1982,
      "leg": "5",
      "leg_num": 0,
      "title": "Orchies",
      "start": {
        "city": "France",
        "country": "50.4745,3.2428",
        "lat": "Fontaine-au-Pire",
        "lng": null
      },
      "finish": {
        "city": "France",
        "country": "50.13042,3.375606",
        "lat": "73",
        "lng": null
      },
      "length": 0
    },
    {
      "id": "E-1982-06",
      "year": 1982,
      "leg": "6",
      "leg_num": 0,
      "title": "Lille",
      "start": {
        "city": "France",
        "country": "50.62925,3.057256",
        "lat": "Lille",
        "lng": null
      },
      "finish": {
        "city": "France",
        "country": "50.62925,3.057256",
        "lat": "233",
        "lng": null
      },
      "length": 0
    },
    {
      "id": "E-1982-07",
      "year": 1982,
      "leg": "7",
      "leg_num": 0,
      "title": "Cancale",
      "start": {
        "city": "France",
        "country": "48.67707,-1.852279",
        "lat": "Concarneau",
        "lng": null
      },
      "finish": {
        "city": "France",
        "country": "47.872834,-3.920734",
        "lat": "234",
        "lng": "5"
      },
      "length": 0
    },
    {
      "id": "E-1982-08",
      "year": 1982,
      "leg": "8",
      "leg_num": 0,
      "title": "Concarneau",
      "start": {
        "city": "France",
        "country": "47.872834,-3.920734",
        "lat": "Châteaulin",
        "lng": null
      },
      "finish": {
        "city": "France",
        "country": "48.195389,-4.094207",
        "lat": "200",
        "lng": "8"
      },
      "length": 0
    },
    {
      "id": "E-1982-9a",
      "year": 1982,
      "leg": "9a",
      "leg_num": 0,
      "title": "Lorient",
      "start": {
        "city": "France",
        "country": "47.748252,-3.370245",
        "lat": "Plumelec",
        "lng": null
      },
      "finish": {
        "city": "France",
        "country": "47.837699,-2.639409",
        "lat": "69",
        "lng": null
      },
      "length": 0
    },
    {
      "id": "E-1982-9b",
      "year": 1982,
      "leg": "9b",
      "leg_num": 0,
      "title": "Plumelec",
      "start": {
        "city": "France",
        "country": "47.837699,-2.639409",
        "lat": "Nantes",
        "lng": null
      },
      "finish": {
        "city": "France",
        "country": "47.218371,-1.553621",
        "lat": "138",
        "lng": "5"
      },
      "length": 0
    },
    {
      "id": "E-1982-10",
      "year": 1982,
      "leg": "10",
      "leg_num": 0,
      "title": "Saintes",
      "start": {
        "city": "France",
        "country": "45.744175,-0.633389",
        "lat": "Bordeaux",
        "lng": null
      },
      "finish": {
        "city": "France",
        "country": "44.837789,-0.57918",
        "lat": "147",
        "lng": "2"
      },
      "length": 0
    },
    {
      "id": "E-1982-11",
      "year": 1982,
      "leg": "11",
      "leg_num": 0,
      "title": "Valence-d'Agen",
      "start": {
        "city": "France",
        "country": "44.108057,0.890241",
        "lat": "Valence-d'Agen",
        "lng": null
      },
      "finish": {
        "city": "France",
        "country": "44.108057,0.890241",
        "lat": "57",
        "lng": "3"
      },
      "length": 0
    },
    {
      "id": "E-1982-12",
      "year": 1982,
      "leg": "12",
      "leg_num": 0,
      "title": "Fleurance",
      "start": {
        "city": "France",
        "country": "43.849456,0.663244",
        "lat": "Pau",
        "lng": null
      },
      "finish": {
        "city": "France",
        "country": "43.2951,-0.370797",
        "lat": "249",
        "lng": null
      },
      "length": 0
    },
    {
      "id": "E-1982-13",
      "year": 1982,
      "leg": "13",
      "leg_num": 0,
      "title": "Pau",
      "start": {
        "city": "France",
        "country": "43.2951,-0.370797",
        "lat": "Saint-Lary-Soulan",
        "lng": null
      },
      "finish": {
        "city": "France",
        "country": "42.815835,0.320251",
        "lat": "122",
        "lng": null
      },
      "length": 0
    },
    {
      "id": "E-1982-14",
      "year": 1982,
      "leg": "14",
      "leg_num": 0,
      "title": "Martigues",
      "start": {
        "city": "France",
        "country": "43.404811,5.053728",
        "lat": "Martigues",
        "lng": null
      },
      "finish": {
        "city": "France",
        "country": "43.404811,5.053728",
        "lat": "32",
        "lng": "5"
      },
      "length": 0
    },
    {
      "id": "E-1982-15",
      "year": 1982,
      "leg": "15",
      "leg_num": 0,
      "title": "Manosque",
      "start": {
        "city": "France",
        "country": "43.835744,5.790916",
        "lat": "Orcières-Merlette",
        "lng": null
      },
      "finish": {
        "city": "France",
        "country": "44.695221,6.320161",
        "lat": "208",
        "lng": null
      },
      "length": 0
    },
    {
      "id": "E-1982-16",
      "year": 1982,
      "leg": "16",
      "leg_num": 0,
      "title": "Orcières-Merlette",
      "start": {
        "city": "France",
        "country": "44.695221,6.320161",
        "lat": "L'Alpe d'Huez",
        "lng": null
      },
      "finish": {
        "city": "France",
        "country": "45.092624,6.068348",
        "lat": "123",
        "lng": null
      },
      "length": 0
    },
    {
      "id": "E-1982-17",
      "year": 1982,
      "leg": "17",
      "leg_num": 0,
      "title": "Bourg-d'Oisans",
      "start": {
        "city": "France",
        "country": "45.051951,6.030064",
        "lat": "Morzine-Avoriaz",
        "lng": null
      },
      "finish": {
        "city": "France",
        "country": "46.189683,6.776343",
        "lat": "251",
        "lng": null
      },
      "length": 0
    },
    {
      "id": "E-1982-18",
      "year": 1982,
      "leg": "18",
      "leg_num": 0,
      "title": "Morzine",
      "start": {
        "city": "France",
        "country": "46.179192,6.708877",
        "lat": "Saint-Priest",
        "lng": null
      },
      "finish": {
        "city": "France",
        "country": "45.698938,4.947071",
        "lat": "233",
        "lng": null
      },
      "length": 0
    },
    {
      "id": "E-1982-19",
      "year": 1982,
      "leg": "19",
      "leg_num": 0,
      "title": "Saint-Priest",
      "start": {
        "city": "France",
        "country": "45.698938,4.947071",
        "lat": "Saint-Priest",
        "lng": null
      },
      "finish": {
        "city": "France",
        "country": "45.698938,4.947071",
        "lat": "48",
        "lng": null
      },
      "length": 0
    },
    {
      "id": "E-1982-20",
      "year": 1982,
      "leg": "20",
      "leg_num": 0,
      "title": "Sens",
      "start": {
        "city": "France",
        "country": "48.20065,3.28268",
        "lat": "Aulnay-sous-Bois",
        "lng": null
      },
      "finish": {
        "city": "France",
        "country": "48.940974,2.497115",
        "lat": "161",
        "lng": null
      },
      "length": 0
    },
    {
      "id": "E-1982-21",
      "year": 1982,
      "leg": "21",
      "leg_num": 0,
      "title": "Fontenay-sous-Bois",
      "start": {
        "city": "France",
        "country": "48.851542,2.475907",
        "lat": "Paris",
        "lng": null
      },
      "finish": {
        "city": "France",
        "country": "48.856614,2.352222",
        "lat": "186",
        "lng": "8"
      },
      "length": 0
    }
  ]
}