{
  "year": 1983,
  "edition": 70,
  "total_length": 3809,
  "nb_legs": 22,
  "has_prologue": false,
  "nb_concurrents": 140,
  "nb_finishers": 88,
  "pct_finishers": 63,
  "winner_first_name": "Laurent",
  "winner_last_name": "Fignon",
  "winner_id": "laurent-fignon",
  "winner_total_time": "105h 07' 52\"",
  "winner_age": "22",
  "winner_country": "France",
  "winner_avg_speed": "36,230",
  "ahead_of_2nd": "0h 04' 04\" ",
  "second_name": "A. Arroyo",
  "second_country": "Espagne",
  "second_id": null,
  "ahead_of_3rd": "0h 04' 09\"",
  "third_name": "P. Winnen",
  "third_country": "Pays-Bas",
  "third_id": null,
  "legs": [
    {
      "id": "E-1983-Prologue",
      "year": 1983,
      "leg": "Prologue",
      "leg_num": 0,
      "title": "Fontenay-sous-Bois",
      "start": {
        "city": "France",
        "country": "48.851542,2.475907",
        "lat": "Fontenay-sous-Bois",
        "lng": null
      },
      "finish": {
        "city": "France",
        "country": "48.851542,2.475907",
        "lat": "5",
        "lng": "5"
      },
      "length": 0
    },
    {
      "id": "E-1983-01",
      "year": 1983,
      "leg": "1",
      "leg_num": 0,
      "title": "Nogent-sur-Marne",
      "start": {
        "city": "France",
        "country": "48.837631,2.481699",
        "lat": "Créteil",
        "lng": null
      },
      "finish": {
        "city": "France",
        "country": "48.790367,2.455572",
        "lat": "163",
        "lng": null
      },
      "length": 0
    },
    {
      "id": "E-1983-02",
      "year": 1983,
      "leg": "2",
      "leg_num": 0,
      "title": "Soissons",
      "start": {
        "city": "France",
        "country": "49.376636,3.32342",
        "lat": "Fontaine-au-Pire",
        "lng": null
      },
      "finish": {
        "city": "France",
        "country": "50.13042,3.375606",
        "lat": "100",
        "lng": null
      },
      "length": 0
    },
    {
      "id": "E-1983-03",
      "year": 1983,
      "leg": "3",
      "leg_num": 0,
      "title": "Valenciennes",
      "start": {
        "city": "France",
        "country": "50.357113,3.518332",
        "lat": "Roubaix",
        "lng": null
      },
      "finish": {
        "city": "France",
        "country": "50.692705,3.177847",
        "lat": "152",
        "lng": null
      },
      "length": 0
    },
    {
      "id": "E-1983-04",
      "year": 1983,
      "leg": "4",
      "leg_num": 0,
      "title": "Roubaix",
      "start": {
        "city": "France",
        "country": "50.692705,3.177847",
        "lat": "Le Havre",
        "lng": null
      },
      "finish": {
        "city": "France",
        "country": "49.49437,0.107929",
        "lat": "300",
        "lng": null
      },
      "length": 0
    },
    {
      "id": "E-1983-05",
      "year": 1983,
      "leg": "5",
      "leg_num": 0,
      "title": "Le Havre",
      "start": {
        "city": "France",
        "country": "49.49437,0.107929",
        "lat": "Le Mans",
        "lng": null
      },
      "finish": {
        "city": "France",
        "country": "48.00611,0.199556",
        "lat": "257",
        "lng": null
      },
      "length": 0
    },
    {
      "id": "E-1983-06",
      "year": 1983,
      "leg": "6",
      "leg_num": 0,
      "title": "Châteaubriant",
      "start": {
        "city": "France",
        "country": "47.720948,-1.376224",
        "lat": "Nantes",
        "lng": null
      },
      "finish": {
        "city": "France",
        "country": "47.218371,-1.553621",
        "lat": "58",
        "lng": "5"
      },
      "length": 0
    },
    {
      "id": "E-1983-07",
      "year": 1983,
      "leg": "7",
      "leg_num": 0,
      "title": "Nantes",
      "start": {
        "city": "France",
        "country": "47.218371,-1.553621",
        "lat": "Île d'Oléron",
        "lng": null
      },
      "finish": {
        "city": "France",
        "country": "45.915934,-1.271674",
        "lat": "216",
        "lng": null
      },
      "length": 0
    },
    {
      "id": "E-1983-08",
      "year": 1983,
      "leg": "8",
      "leg_num": 0,
      "title": "La Rochelle",
      "start": {
        "city": "France",
        "country": "46.160329,-1.151139",
        "lat": "Bordeaux",
        "lng": null
      },
      "finish": {
        "city": "France",
        "country": "44.837789,-0.57918",
        "lat": "222",
        "lng": null
      },
      "length": 0
    },
    {
      "id": "E-1983-09",
      "year": 1983,
      "leg": "9",
      "leg_num": 0,
      "title": "Bordeaux",
      "start": {
        "city": "France",
        "country": "44.837789,-0.57918",
        "lat": "Pau",
        "lng": null
      },
      "finish": {
        "city": "France",
        "country": "43.2951,-0.370797",
        "lat": "207",
        "lng": null
      },
      "length": 0
    },
    {
      "id": "E-1983-10",
      "year": 1983,
      "leg": "10",
      "leg_num": 0,
      "title": "Pau",
      "start": {
        "city": "France",
        "country": "43.2951,-0.370797",
        "lat": "Bagnères-de-Luchon",
        "lng": null
      },
      "finish": {
        "city": "France",
        "country": "42.788963,0.592943",
        "lat": "201",
        "lng": null
      },
      "length": 0
    },
    {
      "id": "E-1983-11",
      "year": 1983,
      "leg": "11",
      "leg_num": 0,
      "title": "Bagnères-de-Luchon",
      "start": {
        "city": "France",
        "country": "42.788963,0.592943",
        "lat": "Fleurance",
        "lng": null
      },
      "finish": {
        "city": "France",
        "country": "43.849456,0.663244",
        "lat": "177",
        "lng": null
      },
      "length": 0
    },
    {
      "id": "E-1983-12",
      "year": 1983,
      "leg": "12",
      "leg_num": 0,
      "title": "Fleurance",
      "start": {
        "city": "France",
        "country": "43.849456,0.663244",
        "lat": "Roquefort-sur-Soulzon",
        "lng": null
      },
      "finish": {
        "city": "France",
        "country": "43.974566,2.992022",
        "lat": "261",
        "lng": null
      },
      "length": 0
    },
    {
      "id": "E-1983-13",
      "year": 1983,
      "leg": "13",
      "leg_num": 0,
      "title": "Roquefort-sur-Soulzon",
      "start": {
        "city": "France",
        "country": "43.974566,2.992022",
        "lat": "Aurillac",
        "lng": null
      },
      "finish": {
        "city": "France",
        "country": "44.930953,2.444997",
        "lat": "210",
        "lng": null
      },
      "length": 0
    },
    {
      "id": "E-1983-14",
      "year": 1983,
      "leg": "14",
      "leg_num": 0,
      "title": "Aurillac",
      "start": {
        "city": "France",
        "country": "44.930953,2.444997",
        "lat": "Issoire",
        "lng": null
      },
      "finish": {
        "city": "France",
        "country": "45.54151,3.248128",
        "lat": "249",
        "lng": null
      },
      "length": 0
    },
    {
      "id": "E-1983-15",
      "year": 1983,
      "leg": "15",
      "leg_num": 0,
      "title": "Clermont-Ferrand",
      "start": {
        "city": "France",
        "country": "45.777222,3.087025",
        "lat": "Puy-de-Dôme",
        "lng": null
      },
      "finish": {
        "city": "France",
        "country": "45.77207,2.96974",
        "lat": "15",
        "lng": "6"
      },
      "length": 0
    },
    {
      "id": "E-1983-16",
      "year": 1983,
      "leg": "16",
      "leg_num": 0,
      "title": "Issoire",
      "start": {
        "city": "France",
        "country": "45.54151,3.248128",
        "lat": "Saint-Étienne",
        "lng": null
      },
      "finish": {
        "city": "France",
        "country": "45.439695,4.387178",
        "lat": "144",
        "lng": "5"
      },
      "length": 0
    },
    {
      "id": "E-1983-17",
      "year": 1983,
      "leg": "17",
      "leg_num": 0,
      "title": "La Tour-du-Pin",
      "start": {
        "city": "France",
        "country": "45.564026,5.445327",
        "lat": "L'Alpe d'Huez",
        "lng": null
      },
      "finish": {
        "city": "France",
        "country": "45.092624,6.068348",
        "lat": "223",
        "lng": null
      },
      "length": 0
    },
    {
      "id": "E-1983-18",
      "year": 1983,
      "leg": "18",
      "leg_num": 0,
      "title": "Bourg-d'Oisans",
      "start": {
        "city": "France",
        "country": "45.051951,6.030064",
        "lat": "Morzine",
        "lng": null
      },
      "finish": {
        "city": "France",
        "country": "46.179192,6.708877",
        "lat": "247",
        "lng": null
      },
      "length": 0
    },
    {
      "id": "E-1983-19",
      "year": 1983,
      "leg": "19",
      "leg_num": 0,
      "title": "Morzine",
      "start": {
        "city": "France",
        "country": "46.179192,6.708877",
        "lat": "Avoriaz",
        "lng": null
      },
      "finish": {
        "city": "France",
        "country": "46.189683,6.776343",
        "lat": "15",
        "lng": null
      },
      "length": 0
    },
    {
      "id": "E-1983-20",
      "year": 1983,
      "leg": "20",
      "leg_num": 0,
      "title": "Morzine",
      "start": {
        "city": "France",
        "country": "46.179192,6.708877",
        "lat": "Dijon",
        "lng": null
      },
      "finish": {
        "city": "France",
        "country": "47.322047,5.04148",
        "lat": "291",
        "lng": null
      },
      "length": 0
    },
    {
      "id": "E-1983-21",
      "year": 1983,
      "leg": "21",
      "leg_num": 0,
      "title": "Dijon",
      "start": {
        "city": "France",
        "country": "47.322047,5.04148",
        "lat": "Dijon",
        "lng": null
      },
      "finish": {
        "city": "France",
        "country": "47.322047,5.04148",
        "lat": "50",
        "lng": null
      },
      "length": 0
    },
    {
      "id": "E-1983-22",
      "year": 1983,
      "leg": "22",
      "leg_num": 0,
      "title": "Alfortville",
      "start": {
        "city": "France",
        "country": "48.80093,2.422317",
        "lat": "Paris",
        "lng": null
      },
      "finish": {
        "city": "France",
        "country": "48.856614,2.352222",
        "lat": "195",
        "lng": null
      },
      "length": 0
    }
  ]
}