{
  "year": 1984,
  "edition": 71,
  "total_length": 4021,
  "nb_legs": 23,
  "has_prologue": false,
  "nb_concurrents": 170,
  "nb_finishers": 124,
  "pct_finishers": 73,
  "winner_first_name": "Laurent",
  "winner_last_name": "Fignon",
  "winner_id": "laurent-fignon",
  "winner_total_time": "112h 03' 40\"",
  "winner_age": "23",
  "winner_country": "France",
  "winner_avg_speed": "35,882",
  "ahead_of_2nd": "0h 10' 32\" ",
  "second_name": "B. Hinault",
  "second_country": "France",
  "second_id": "bernard-hinault",
  "ahead_of_3rd": "0h 11' 46\"",
  "third_name": "G. Lemond",
  "third_country": "États-Unis",
  "third_id": "greg-lemond",
  "legs": [
    {
      "id": "E-1984-Prologue",
      "year": 1984,
      "leg": "Prologue",
      "leg_num": 0,
      "title": "Montreuil",
      "start": {
        "city": "France",
        "country": "48.863812,2.448451",
        "lat": "Noisy-le-Sec",
        "lng": null
      },
      "finish": {
        "city": "France",
        "country": "48.892489,2.458625",
        "lat": "5",
        "lng": "4"
      },
      "length": 0
    },
    {
      "id": "E-1984-01",
      "year": 1984,
      "leg": "1",
      "leg_num": 0,
      "title": "Bondy",
      "start": {
        "city": "France",
        "country": "48.906008,2.481875",
        "lat": "Saint-Denis",
        "lng": null
      },
      "finish": {
        "city": "France",
        "country": "48.936181,2.357443",
        "lat": "148",
        "lng": "5"
      },
      "length": 0
    },
    {
      "id": "E-1984-02",
      "year": 1984,
      "leg": "2",
      "leg_num": 0,
      "title": "Bobigny",
      "start": {
        "city": "France",
        "country": "48.908612,2.439712",
        "lat": "Louvroil",
        "lng": null
      },
      "finish": {
        "city": "France",
        "country": "50.26374,3.959502",
        "lat": "249",
        "lng": null
      },
      "length": 0
    },
    {
      "id": "E-1984-03",
      "year": 1984,
      "leg": "3",
      "leg_num": 0,
      "title": "Louvroil",
      "start": {
        "city": "France",
        "country": "50.26374,3.959502",
        "lat": "Valenciennes",
        "lng": null
      },
      "finish": {
        "city": "France",
        "country": "50.357113,3.518332",
        "lat": "51",
        "lng": null
      },
      "length": 0
    },
    {
      "id": "E-1984-04",
      "year": 1984,
      "leg": "4",
      "leg_num": 0,
      "title": "Valenciennes",
      "start": {
        "city": "France",
        "country": "50.357113,3.518332",
        "lat": "Béthune",
        "lng": null
      },
      "finish": {
        "city": "France",
        "country": "50.531036,2.63926",
        "lat": "83",
        "lng": null
      },
      "length": 0
    },
    {
      "id": "E-1984-05",
      "year": 1984,
      "leg": "5",
      "leg_num": 0,
      "title": "Béthune",
      "start": {
        "city": "France",
        "country": "50.531036,2.63926",
        "lat": "Cergy-Pontoise",
        "lng": null
      },
      "finish": {
        "city": "France",
        "country": "49.03915,2.075051",
        "lat": "207",
        "lng": null
      },
      "length": 0
    },
    {
      "id": "E-1984-06",
      "year": 1984,
      "leg": "6",
      "leg_num": 0,
      "title": "Cergy-Pontoise",
      "start": {
        "city": "France",
        "country": "49.03915,2.075051",
        "lat": "Alençon",
        "lng": null
      },
      "finish": {
        "city": "France",
        "country": "48.432856,0.091266",
        "lat": "202",
        "lng": null
      },
      "length": 0
    },
    {
      "id": "E-1984-07",
      "year": 1984,
      "leg": "7",
      "leg_num": 0,
      "title": "Alençon",
      "start": {
        "city": "France",
        "country": "48.432856,0.091266",
        "lat": "Le Mans",
        "lng": null
      },
      "finish": {
        "city": "France",
        "country": "48.00611,0.199556",
        "lat": "67",
        "lng": null
      },
      "length": 0
    },
    {
      "id": "E-1984-08",
      "year": 1984,
      "leg": "8",
      "leg_num": 0,
      "title": "Le Mans",
      "start": {
        "city": "France",
        "country": "48.00611,0.199556",
        "lat": "Nantes",
        "lng": null
      },
      "finish": {
        "city": "France",
        "country": "47.218371,-1.553621",
        "lat": "192",
        "lng": null
      },
      "length": 0
    },
    {
      "id": "E-1984-09",
      "year": 1984,
      "leg": "9",
      "leg_num": 0,
      "title": "Nantes",
      "start": {
        "city": "France",
        "country": "47.218371,-1.553621",
        "lat": "Bordeaux",
        "lng": null
      },
      "finish": {
        "city": "France",
        "country": "44.837789,-0.57918",
        "lat": "338",
        "lng": null
      },
      "length": 0
    },
    {
      "id": "E-1984-10",
      "year": 1984,
      "leg": "10",
      "leg_num": 0,
      "title": "Langon",
      "start": {
        "city": "France",
        "country": "44.555419,-0.245126",
        "lat": "Pau",
        "lng": null
      },
      "finish": {
        "city": "France",
        "country": "43.2951,-0.370797",
        "lat": "198",
        "lng": null
      },
      "length": 0
    },
    {
      "id": "E-1984-11",
      "year": 1984,
      "leg": "11",
      "leg_num": 0,
      "title": "Pau",
      "start": {
        "city": "France",
        "country": "43.2951,-0.370797",
        "lat": "Guzet-neige",
        "lng": null
      },
      "finish": {
        "city": "France",
        "country": "42.779877,1.299708",
        "lat": "226",
        "lng": "5"
      },
      "length": 0
    },
    {
      "id": "E-1984-12",
      "year": 1984,
      "leg": "12",
      "leg_num": 0,
      "title": "Saint-Girons",
      "start": {
        "city": "France",
        "country": "42.982876,1.146088",
        "lat": "Blagnac",
        "lng": null
      },
      "finish": {
        "city": "France",
        "country": "43.635087,1.39703",
        "lat": "111",
        "lng": null
      },
      "length": 0
    },
    {
      "id": "E-1984-13",
      "year": 1984,
      "leg": "13",
      "leg_num": 0,
      "title": "Blagnac",
      "start": {
        "city": "France",
        "country": "43.635087,1.39703",
        "lat": "Rodez",
        "lng": null
      },
      "finish": {
        "city": "France",
        "country": "44.349389,2.575986",
        "lat": "220",
        "lng": "5"
      },
      "length": 0
    },
    {
      "id": "E-1984-14",
      "year": 1984,
      "leg": "14",
      "leg_num": 0,
      "title": "Rodez",
      "start": {
        "city": "France",
        "country": "44.349389,2.575986",
        "lat": "Grospierre",
        "lng": null
      },
      "finish": {
        "city": "France",
        "country": "44.400794,4.289771",
        "lat": "227",
        "lng": "5"
      },
      "length": 0
    },
    {
      "id": "E-1984-15",
      "year": 1984,
      "leg": "15",
      "leg_num": 0,
      "title": "Grospierre",
      "start": {
        "city": "France",
        "country": "44.400794,4.289771",
        "lat": "Grenoble",
        "lng": null
      },
      "finish": {
        "city": "France",
        "country": "45.188529,5.724524",
        "lat": "241",
        "lng": "5"
      },
      "length": 0
    },
    {
      "id": "E-1984-16",
      "year": 1984,
      "leg": "16",
      "leg_num": 0,
      "title": "Les Echelles",
      "start": {
        "city": "France",
        "country": "45.436571,5.753686",
        "lat": "La Ruchère en Chartreuse",
        "lng": null
      },
      "finish": {
        "city": "France",
        "country": "45.411218,5.803222",
        "lat": "22",
        "lng": null
      },
      "length": 0
    },
    {
      "id": "E-1984-17",
      "year": 1984,
      "leg": "17",
      "leg_num": 0,
      "title": "Grenoble",
      "start": {
        "city": "France",
        "country": "45.188529,5.724524",
        "lat": "L'Alpe d'Huez",
        "lng": null
      },
      "finish": {
        "city": "France",
        "country": "45.092624,6.068348",
        "lat": "151",
        "lng": null
      },
      "length": 0
    },
    {
      "id": "E-1984-18",
      "year": 1984,
      "leg": "18",
      "leg_num": 0,
      "title": "Bourg-d'Oisans",
      "start": {
        "city": "France",
        "country": "45.051951,6.030064",
        "lat": "La Plagne",
        "lng": null
      },
      "finish": {
        "city": "France",
        "country": "45.509874,6.659294",
        "lat": "185",
        "lng": "5"
      },
      "length": 0
    },
    {
      "id": "E-1984-19",
      "year": 1984,
      "leg": "19",
      "leg_num": 0,
      "title": "La Plagne",
      "start": {
        "city": "France",
        "country": "45.509874,6.659294",
        "lat": "Morzine",
        "lng": null
      },
      "finish": {
        "city": "France",
        "country": "46.179192,6.708877",
        "lat": "186",
        "lng": null
      },
      "length": 0
    },
    {
      "id": "E-1984-20",
      "year": 1984,
      "leg": "20",
      "leg_num": 0,
      "title": "Morzine",
      "start": {
        "city": "France",
        "country": "46.179192,6.708877",
        "lat": "Crans-Montana",
        "lng": null
      },
      "finish": {
        "city": "Suisse",
        "country": "46.30762,7.47371",
        "lat": "140",
        "lng": "5"
      },
      "length": 0
    },
    {
      "id": "E-1984-21",
      "year": 1984,
      "leg": "21",
      "leg_num": 0,
      "title": "Crans-Montana",
      "start": {
        "city": "Suisse",
        "country": "46.30762,7.47371",
        "lat": "Villefranche-en-Beaujolais",
        "lng": null
      },
      "finish": {
        "city": "France",
        "country": "45.991471,4.718821",
        "lat": "320",
        "lng": "5"
      },
      "length": 0
    },
    {
      "id": "E-1984-22",
      "year": 1984,
      "leg": "22",
      "leg_num": 0,
      "title": "Villié-Morgon",
      "start": {
        "city": "France",
        "country": "46.160931,4.679334",
        "lat": "Villefranche-en-Beaujolais",
        "lng": null
      },
      "finish": {
        "city": "France",
        "country": "45.991471,4.718821",
        "lat": "51",
        "lng": null
      },
      "length": 0
    },
    {
      "id": "E-1984-23",
      "year": 1984,
      "leg": "23",
      "leg_num": 0,
      "title": "Pantin",
      "start": {
        "city": "France",
        "country": "48.894533,2.40963",
        "lat": "Paris",
        "lng": null
      },
      "finish": {
        "city": "France",
        "country": "48.856614,2.352222",
        "lat": "196",
        "lng": "5"
      },
      "length": 0
    }
  ]
}