{
  "year": 1986,
  "edition": 73,
  "total_length": 4094,
  "nb_legs": 23,
  "has_prologue": false,
  "nb_concurrents": 210,
  "nb_finishers": 132,
  "pct_finishers": 63,
  "winner_first_name": "Greg",
  "winner_last_name": "LeMond",
  "winner_id": "greg-lemond",
  "winner_total_time": "110h 35' 19\"",
  "winner_age": "24",
  "winner_country": "États-Unis",
  "winner_avg_speed": "37,020",
  "ahead_of_2nd": "0h 03' 10\" ",
  "second_name": "B. Hinault",
  "second_country": "France",
  "second_id": "bernard-hinault",
  "ahead_of_3rd": "0h 10' 54\"",
  "third_name": "U. Zimmermann",
  "third_country": "Suisse",
  "third_id": null,
  "legs": [
    {
      "id": "E-1986-Prologue",
      "year": 1986,
      "leg": "Prologue",
      "leg_num": 0,
      "title": "Boulogne-Billancourt",
      "start": {
        "city": "France",
        "country": "48.84325,2.237803",
        "lat": "Boulogne-Billancourt",
        "lng": null
      },
      "finish": {
        "city": "France",
        "country": "48.84325,2.237803",
        "lat": "4",
        "lng": "6"
      },
      "length": 0
    },
    {
      "id": "E-1986-01",
      "year": 1986,
      "leg": "1",
      "leg_num": 0,
      "title": "Nanterre",
      "start": {
        "city": "France",
        "country": "48.892423,2.215331",
        "lat": "Sceaux",
        "lng": null
      },
      "finish": {
        "city": "France",
        "country": "48.778016,2.295092",
        "lat": "85",
        "lng": null
      },
      "length": 0
    },
    {
      "id": "E-1986-02",
      "year": 1986,
      "leg": "2",
      "leg_num": 0,
      "title": "Meudon",
      "start": {
        "city": "France",
        "country": "48.812995,2.23847",
        "lat": "Saint-Quentin-en-Yvelines",
        "lng": null
      },
      "finish": {
        "city": "France",
        "country": "48.771652,2.0192",
        "lat": "56",
        "lng": null
      },
      "length": 0
    },
    {
      "id": "E-1986-03",
      "year": 1986,
      "leg": "3",
      "leg_num": 0,
      "title": "Levallois-Perret",
      "start": {
        "city": "France",
        "country": "48.893217,2.287864",
        "lat": "Liévin",
        "lng": null
      },
      "finish": {
        "city": "France",
        "country": "50.417921,2.775222",
        "lat": "214",
        "lng": null
      },
      "length": 0
    },
    {
      "id": "E-1986-04",
      "year": 1986,
      "leg": "4",
      "leg_num": 0,
      "title": "Liévin",
      "start": {
        "city": "France",
        "country": "50.417921,2.775222",
        "lat": "Évreux",
        "lng": null
      },
      "finish": {
        "city": "France",
        "country": "49.027013,1.151361",
        "lat": "243",
        "lng": null
      },
      "length": 0
    },
    {
      "id": "E-1986-05",
      "year": 1986,
      "leg": "5",
      "leg_num": 0,
      "title": "Évreux",
      "start": {
        "city": "France",
        "country": "49.027013,1.151361",
        "lat": "Villers-sur-Mer",
        "lng": null
      },
      "finish": {
        "city": "France",
        "country": "49.321744,-0.005321",
        "lat": "124",
        "lng": "5"
      },
      "length": 0
    },
    {
      "id": "E-1986-06",
      "year": 1986,
      "leg": "6",
      "leg_num": 0,
      "title": "Villers-sur-Mer",
      "start": {
        "city": "France",
        "country": "49.321744,-0.005321",
        "lat": "Cherbourg",
        "lng": null
      },
      "finish": {
        "city": "France",
        "country": "49.639093,-1.625298",
        "lat": "200",
        "lng": null
      },
      "length": 0
    },
    {
      "id": "E-1986-07",
      "year": 1986,
      "leg": "7",
      "leg_num": 0,
      "title": "Cherbourg",
      "start": {
        "city": "France",
        "country": "49.639093,-1.625298",
        "lat": "Saint-Hilaire-du-Harcouët",
        "lng": null
      },
      "finish": {
        "city": "France",
        "country": "48.577086,-1.092034",
        "lat": "201",
        "lng": null
      },
      "length": 0
    },
    {
      "id": "E-1986-08",
      "year": 1986,
      "leg": "8",
      "leg_num": 0,
      "title": "Saint-Hilaire-du-Harcouët",
      "start": {
        "city": "France",
        "country": "48.577086,-1.092034",
        "lat": "Nantes",
        "lng": null
      },
      "finish": {
        "city": "France",
        "country": "47.218371,-1.553621",
        "lat": "204",
        "lng": null
      },
      "length": 0
    },
    {
      "id": "E-1986-09",
      "year": 1986,
      "leg": "9",
      "leg_num": 0,
      "title": "Nantes",
      "start": {
        "city": "France",
        "country": "47.218371,-1.553621",
        "lat": "Nantes",
        "lng": null
      },
      "finish": {
        "city": "France",
        "country": "47.218371,-1.553621",
        "lat": "61",
        "lng": "5"
      },
      "length": 0
    },
    {
      "id": "E-1986-10",
      "year": 1986,
      "leg": "10",
      "leg_num": 0,
      "title": "Nantes",
      "start": {
        "city": "France",
        "country": "47.218371,-1.553621",
        "lat": "Futuroscope",
        "lng": " Poitiers"
      },
      "finish": {
        "city": "France",
        "country": "\n46.66680,0.36762",
        "lat": "183",
        "lng": null
      },
      "length": 0
    },
    {
      "id": "E-1986-11",
      "year": 1986,
      "leg": "11",
      "leg_num": 0,
      "title": "Poitiers",
      "start": {
        "city": "France",
        "country": "46.580224,0.340375",
        "lat": "Bordeaux",
        "lng": null
      },
      "finish": {
        "city": "France",
        "country": "44.837789,-0.57918",
        "lat": "258",
        "lng": "5"
      },
      "length": 0
    },
    {
      "id": "E-1986-12",
      "year": 1986,
      "leg": "12",
      "leg_num": 0,
      "title": "Bayonne",
      "start": {
        "city": "France",
        "country": "43.492949,-1.474841",
        "lat": "Pau",
        "lng": null
      },
      "finish": {
        "city": "France",
        "country": "43.2951,-0.370797",
        "lat": "217",
        "lng": "5"
      },
      "length": 0
    },
    {
      "id": "E-1986-13",
      "year": 1986,
      "leg": "13",
      "leg_num": 0,
      "title": "Pau",
      "start": {
        "city": "France",
        "country": "43.2951,-0.370797",
        "lat": "Superbagnères",
        "lng": null
      },
      "finish": {
        "city": "France",
        "country": "42.768576,0.576927",
        "lat": "186",
        "lng": null
      },
      "length": 0
    },
    {
      "id": "E-1986-14",
      "year": 1986,
      "leg": "14",
      "leg_num": 0,
      "title": "Luchon",
      "start": {
        "city": "France",
        "country": "42.788963,0.592943",
        "lat": "Blagnac",
        "lng": null
      },
      "finish": {
        "city": "France",
        "country": "43.635087,1.39703",
        "lat": "154",
        "lng": null
      },
      "length": 0
    },
    {
      "id": "E-1986-15",
      "year": 1986,
      "leg": "15",
      "leg_num": 0,
      "title": "Carcassonne",
      "start": {
        "city": "France",
        "country": "43.212161,2.353663",
        "lat": "Nîmes",
        "lng": null
      },
      "finish": {
        "city": "France",
        "country": "43.836699,4.360054",
        "lat": "225",
        "lng": "5"
      },
      "length": 0
    },
    {
      "id": "E-1986-16",
      "year": 1986,
      "leg": "16",
      "leg_num": 0,
      "title": "Nîmes",
      "start": {
        "city": "France",
        "country": "43.836699,4.360054",
        "lat": "Gap",
        "lng": null
      },
      "finish": {
        "city": "France",
        "country": "44.559638,6.079758",
        "lat": "246",
        "lng": "5"
      },
      "length": 0
    },
    {
      "id": "E-1986-17",
      "year": 1986,
      "leg": "17",
      "leg_num": 0,
      "title": "Gap",
      "start": {
        "city": "France",
        "country": "44.559638,6.079758",
        "lat": "Col de Granon",
        "lng": null
      },
      "finish": {
        "city": "France",
        "country": "44.963029,6.611931",
        "lat": "179",
        "lng": "5"
      },
      "length": 0
    },
    {
      "id": "E-1986-18",
      "year": 1986,
      "leg": "18",
      "leg_num": 0,
      "title": "Briançon",
      "start": {
        "city": "France",
        "country": "44.899416,6.643179",
        "lat": "L'Alpe-d'Huez",
        "lng": null
      },
      "finish": {
        "city": "France",
        "country": "45.092624,6.068348",
        "lat": "162",
        "lng": "5"
      },
      "length": 0
    },
    {
      "id": "E-1986-19",
      "year": 1986,
      "leg": "19",
      "leg_num": 0,
      "title": "Villard-de-Lans",
      "start": {
        "city": "France",
        "country": "45.070641,5.55227",
        "lat": "Saint-Étienne",
        "lng": null
      },
      "finish": {
        "city": "France",
        "country": "45.439695,4.387178",
        "lat": "179",
        "lng": "5"
      },
      "length": 0
    },
    {
      "id": "E-1986-20",
      "year": 1986,
      "leg": "20",
      "leg_num": 0,
      "title": "Saint-Étienne",
      "start": {
        "city": "France",
        "country": "45.439695,4.387178",
        "lat": "Saint-Étienne",
        "lng": null
      },
      "finish": {
        "city": "France",
        "country": "45.439695,4.387178",
        "lat": "58",
        "lng": null
      },
      "length": 0
    },
    {
      "id": "E-1986-21",
      "year": 1986,
      "leg": "21",
      "leg_num": 0,
      "title": "Saint-Étienne",
      "start": {
        "city": "France",
        "country": "45.439695,4.387178",
        "lat": "Puy de Dôme",
        "lng": null
      },
      "finish": {
        "city": "France",
        "country": "45.77207,2.96974",
        "lat": "190",
        "lng": null
      },
      "length": 0
    },
    {
      "id": "E-1986-22",
      "year": 1986,
      "leg": "22",
      "leg_num": 0,
      "title": "Clermont-Ferrand",
      "start": {
        "city": "France",
        "country": "45.777222,3.087025",
        "lat": "Nevers",
        "lng": null
      },
      "finish": {
        "city": "France",
        "country": "46.990896,3.162845",
        "lat": "194",
        "lng": null
      },
      "length": 0
    },
    {
      "id": "E-1986-23",
      "year": 1986,
      "leg": "23",
      "leg_num": 0,
      "title": "Cosne-sur-Loire",
      "start": {
        "city": "France",
        "country": "47.4122,2.9275",
        "lat": "Paris",
        "lng": null
      },
      "finish": {
        "city": "France",
        "country": "48.856614,2.352222",
        "lat": "255",
        "lng": null
      },
      "length": 0
    }
  ]
}