{
  "year": 1988,
  "edition": 75,
  "total_length": 3286,
  "nb_legs": 22,
  "has_prologue": false,
  "nb_concurrents": 198,
  "nb_finishers": 151,
  "pct_finishers": 76,
  "winner_name": "Pedro Delgado",
  "winner_time": "84h 27’ 53”",
  "ahead_of_2nd": "0h 07' 13\" ",
  "second_name": "S. Rooks",
  "second_country": "Pays-Bas",
  "ahead_of_3rd": "0h 09' 58\"",
  "third_name": "F. Parra",
  "third_country": "F. Parra",
  "legs": [
    {
      "id": "E-1988-Préface",
      "year": 1988,
      "leg": 0,
      "title": "Pornichet - La Baule",
      "start": {
        "city": "Pornichet",
        "country": "France",
        "lng": "-2.340571",
        "lat": "47.263426"
      },
      "finish": {
        "city": "La Baule",
        "country": "France",
        "lng": "-2.393236",
        "lat": "47.285448"
      },
      "length": 172,
      "type": null,
      "winner": {
        "name": "Drapeau des Pays-Bas Jean-Paul van Poppel (NED)",
        "nationality": null
      },
      "leader": {
        "name": "Drapeau d'Espagne Pedro Delgado (ESP)",
        "nationality": null
      }
    },
    {
      "id": "E-1988-01",
      "year": 1988,
      "leg": 1,
      "title": "Pontchâteau - Machecoul",
      "start": {
        "city": "Pontchâteau",
        "country": "France",
        "lng": "-2.089536",
        "lat": "47.436929"
      },
      "finish": {
        "city": "Machecoul",
        "country": "France",
        "lng": "-1.817202",
        "lat": "46.992283"
      },
      "length": 1,
      "type": "(CLM par équipes)",
      "winner": {
        "name": "Drapeau d'Italie Guido Bontempi (ITA)",
        "nationality": null
      },
      "leader": {
        "name": "Drapeau d'Italie Guido Bontempi (ITA)",
        "nationality": null
      }
    },
    {
      "id": "E-1988-02",
      "year": 1988,
      "leg": 2,
      "title": "La Haie-Fouassière - Ancenis",
      "start": {
        "city": "La Haie-Fouassière",
        "country": "France",
        "lng": "-1.399547",
        "lat": "47.1556"
      },
      "finish": {
        "city": "L'Alpe d'Huez",
        "country": "France",
        "lng": "6.068348",
        "lat": "45.092624"
      },
      "length": 213,
      "type": null,
      "winner": {
        "name": "Drapeau des Pays-Bas Jean-Paul van Poppel (NED)",
        "nationality": null
      },
      "leader": {
        "name": "Drapeau des Pays-Bas Teun van Vliet (NED)",
        "nationality": null
      }
    },
    {
      "id": "E-1988-03",
      "year": 1988,
      "leg": 3,
      "title": "Nantes - Le Mans",
      "start": {
        "city": "Nantes",
        "country": "France",
        "lng": "-1.553621",
        "lat": "47.218371"
      },
      "finish": {
        "city": "Pau",
        "country": "France",
        "lng": "-0.370797",
        "lat": "43.2951"
      },
      "length": 225,
      "type": null,
      "winner": {
        "name": "Drapeau d'Italie Valerio Tebaldi (ITA)",
        "nationality": null
      },
      "leader": {
        "name": "Drapeau des Pays-Bas Jelle Nijdam (NED)",
        "nationality": null
      }
    },
    {
      "id": "E-1988-04",
      "year": 1988,
      "leg": 4,
      "title": "Le Mans - Évreux",
      "start": {
        "city": "Le Mans",
        "country": "France",
        "lng": "0.199556",
        "lat": "48.00611"
      },
      "finish": {
        "city": "Bordeaux",
        "country": "France",
        "lng": "-0.57918",
        "lat": "44.837789"
      },
      "length": 219,
      "type": null,
      "winner": {
        "name": "Drapeau d'Allemagne Rolf Gölz (GER)",
        "nationality": null
      },
      "leader": {
        "name": "Drapeau du Canada Steve Bauer (CAN)",
        "nationality": null
      }
    },
    {
      "id": "E-1988-05",
      "year": 1988,
      "leg": 5,
      "title": "Neufchâtel-en-Bray - Liévin",
      "start": {
        "city": "Neufchâtel-en-Bray",
        "country": "France",
        "lng": "1.441891",
        "lat": "49.732771"
      },
      "finish": {
        "city": "Limoges",
        "country": "France",
        "lng": "1.261105",
        "lat": "45.833619"
      },
      "length": 160,
      "type": "Étape de montagne",
      "winner": {
        "name": "Drapeau de France Jérôme Simon (FRA)",
        "nationality": null
      },
      "leader": {
        "name": "Drapeau du Canada Steve Bauer (CAN)",
        "nationality": null
      }
    },
    {
      "id": "E-1988-06",
      "year": 1988,
      "leg": 6,
      "title": "Liévin - Wasquehal",
      "start": {
        "city": "Liévin",
        "country": "France",
        "lng": "2.775222",
        "lat": "50.417921"
      },
      "finish": {
        "city": "Puy de Dôme",
        "country": "France",
        "lng": "3.015582",
        "lat": "45.712414"
      },
      "length": 149,
      "type": "Étape de montagne",
      "winner": {
        "name": "Drapeau des Pays-Bas Jean-Paul van Poppel (NED)",
        "nationality": null
      },
      "leader": {
        "name": "Drapeau du Canada Steve Bauer (CAN)",
        "nationality": null
      }
    },
    {
      "id": "E-1988-07",
      "year": 1988,
      "leg": 7,
      "title": "Wasquehal - Reims",
      "start": {
        "city": "Wasquehal",
        "country": "France",
        "lng": "3.130782",
        "lat": "50.669276"
      },
      "finish": {
        "city": "Chalon-sur-Saône",
        "country": "France",
        "lng": "4.853947",
        "lat": "46.780764"
      },
      "length": 227,
      "type": "Étape de montagne",
      "winner": {
        "name": "Drapeau des Pays-Bas Steven Rooks (NED)",
        "nationality": null
      },
      "leader": {
        "name": "Drapeau d'Espagne Pedro Delgado (ESP)",
        "nationality": null
      }
    },
    {
      "id": "E-1988-08",
      "year": 1988,
      "leg": 8,
      "title": "Reims - Nancy",
      "start": {
        "city": "Reims",
        "country": "France",
        "lng": "4.031696",
        "lat": "49.258329"
      },
      "finish": {
        "city": "Santenay",
        "country": "France",
        "lng": "4.696534",
        "lat": "46.912833"
      },
      "length": 38,
      "type": "Étape de montagne (CLM)",
      "winner": {
        "name": "Drapeau d'Espagne Pedro Delgado (ESP)",
        "nationality": null
      },
      "leader": {
        "name": "Drapeau d'Espagne Pedro Delgado (ESP)",
        "nationality": null
      }
    },
    {
      "id": "E-1988-09",
      "year": 1988,
      "leg": 9,
      "title": "Nancy - Strasbourg",
      "start": {
        "city": "Nancy",
        "country": "France",
        "lng": "6.184417",
        "lat": "48.692054"
      },
      "finish": {
        "city": "Paris",
        "country": "France",
        "lng": "2.352222",
        "lat": "48.856614"
      },
      "length": 163,
      "type": "Étape de montagne",
      "winner": {
        "name": "Drapeau d'Italie Massimo Ghirotto (ITA)",
        "nationality": null
      },
      "leader": {
        "name": "Drapeau d'Espagne Pedro Delgado (ESP)",
        "nationality": null
      }
    },
    {
      "id": "E-1988-10",
      "year": 1988,
      "leg": 10,
      "title": "Belfort - Besançon",
      "start": {
        "city": "Belfort",
        "country": "France",
        "lng": "6.863849",
        "lat": "47.639674"
      },
      "finish": {
        "city": "Ancenis",
        "country": "France",
        "lng": "-1.177491",
        "lat": "47.365464"
      },
      "length": 232,
      "type": "Étape de montagne",
      "winner": {
        "name": "Drapeau de Colombie Fabio Parra (COL)",
        "nationality": null
      },
      "leader": {
        "name": "Drapeau du Canada Steve Bauer (CAN)",
        "nationality": null
      }
    },
    {
      "id": "E-1988-11",
      "year": 1988,
      "leg": 11,
      "title": "Besançon - Morzine",
      "start": {
        "city": "Besançon",
        "country": "France",
        "lng": "6.024054",
        "lat": "47.237829"
      },
      "finish": {
        "city": "Le Mans",
        "country": "France",
        "lng": "0.199556",
        "lat": "48.00611"
      },
      "length": 187,
      "type": "Étape de montagne",
      "winner": {
        "name": "Drapeau d'Espagne Laudelino Cubino (ESP)",
        "nationality": null
      },
      "leader": {
        "name": "Drapeau d'Espagne Pedro Delgado (ESP)",
        "nationality": null
      }
    },
    {
      "id": "E-1988-12",
      "year": 1988,
      "leg": 12,
      "title": "Morzine - L'Alpe d'Huez",
      "start": {
        "city": "Morzine",
        "country": "France",
        "lng": "6.708877",
        "lat": "46.179192"
      },
      "finish": {
        "city": "Évreux",
        "country": "France",
        "lng": "1.151361",
        "lat": "49.027013"
      },
      "length": 38,
      "type": null,
      "winner": {
        "name": "Drapeau des Pays-Bas Adrie van der Poel (NED)",
        "nationality": null
      },
      "leader": {
        "name": "Drapeau d'Espagne Pedro Delgado (ESP)",
        "nationality": null
      }
    },
    {
      "id": "E-1988-13",
      "year": 1988,
      "leg": 13,
      "title": "Grenoble - Villard-de-Lans",
      "start": {
        "city": "Grenoble",
        "country": "France",
        "lng": "5.724524",
        "lat": "45.188529"
      },
      "finish": {
        "city": "Liévin",
        "country": "France",
        "lng": "2.775222",
        "lat": "50.417921"
      },
      "length": 210,
      "type": null,
      "winner": {
        "name": "Drapeau des Pays-Bas Jean-Paul van Poppel (NED)",
        "nationality": null
      },
      "leader": {
        "name": "Drapeau d'Espagne Pedro Delgado (ESP)",
        "nationality": null
      }
    },
    {
      "id": "E-1988-14",
      "year": 1988,
      "leg": 14,
      "title": "Blagnac - Guzet-Neige",
      "start": {
        "city": "Blagnac",
        "country": "France",
        "lng": "1.39703",
        "lat": "43.635087"
      },
      "finish": {
        "city": "Wasquehal",
        "country": "France",
        "lng": "3.130782",
        "lat": "50.669276"
      },
      "length": 93,
      "type": null,
      "winner": {
        "name": "Drapeau d'Italie Gianni Bugno (ITA)",
        "nationality": null
      },
      "leader": {
        "name": "Drapeau d'Espagne Pedro Delgado (ESP)",
        "nationality": null
      }
    },
    {
      "id": "E-1988-15",
      "year": 1988,
      "leg": 15,
      "title": "Saint-Girons - Luz-Ardiden",
      "start": {
        "city": "Saint-Girons",
        "country": "France",
        "lng": "1.146088",
        "lat": "42.982876"
      },
      "finish": {
        "city": "Reims",
        "country": "France",
        "lng": "4.031696",
        "lat": "49.258329"
      },
      "length": 188,
      "type": "Étape de montagne",
      "winner": {
        "name": "Drapeau du Danemark Johnny Weltz (DEN)",
        "nationality": null
      },
      "leader": {
        "name": "Drapeau d'Espagne Pedro Delgado (ESP)",
        "nationality": null
      }
    },
    {
      "id": "E-1988-16",
      "year": 1988,
      "leg": 16,
      "title": "Tarbes - Pau",
      "start": {
        "city": "Tarbes",
        "country": "France",
        "lng": "0.078082",
        "lat": "43.232951"
      },
      "finish": {
        "city": "Nancy",
        "country": "France",
        "lng": "6.184417",
        "lat": "48.692054"
      },
      "length": 223,
      "type": null,
      "winner": {
        "name": "Drapeau de France Thierry Marie (FRA)",
        "nationality": null
      },
      "leader": {
        "name": "Drapeau d'Espagne Pedro Delgado (ESP)",
        "nationality": null
      }
    },
    {
      "id": "E-1988-17",
      "year": 1988,
      "leg": 17,
      "title": "Pau - Bordeaux",
      "start": {
        "city": "Pau",
        "country": "France",
        "lng": "-0.370797",
        "lat": "43.2951"
      },
      "finish": {
        "city": "Strasbourg",
        "country": "France",
        "lng": "7.747882",
        "lat": "48.583148"
      },
      "length": 46,
      "type": "(CLM)",
      "winner": {
        "name": "Drapeau d'Espagne Juan Martínez Oliver (ESP)",
        "nationality": null
      },
      "leader": {
        "name": "Drapeau d'Espagne Pedro Delgado (ESP)",
        "nationality": null
      }
    },
    {
      "id": "E-1988-18",
      "year": 1988,
      "leg": 18,
      "title": "Ruelle-sur-Touvre - Limoges",
      "start": {
        "city": "Ruelle-sur-Touvre",
        "country": "France",
        "lng": "0.219218",
        "lat": "45.676762"
      },
      "finish": {
        "city": "Besançon",
        "country": "France",
        "lng": "6.024054",
        "lat": "47.237829"
      },
      "length": 91,
      "type": null,
      "winner": {
        "name": "Drapeau du Canada Steve Bauer (CAN)",
        "nationality": null
      },
      "leader": {
        "name": "Drapeau du Canada Steve Bauer (CAN)",
        "nationality": null
      }
    },
    {
      "id": "E-1988-19",
      "year": 1988,
      "leg": 19,
      "title": "Limoges - Puy de Dôme",
      "start": {
        "city": "Limoges",
        "country": "France",
        "lng": "1.261105",
        "lat": "45.833619"
      },
      "finish": {
        "city": "Morzine",
        "country": "France",
        "lng": "6.708877",
        "lat": "46.179192"
      },
      "length": 48,
      "type": "(CLM par équipes)",
      "winner": {
        "name": "Drapeau des Pays-Bas Panasonic (NED)",
        "nationality": null
      },
      "leader": {
        "name": "Drapeau des Pays-Bas Teun van Vliet (NED)",
        "nationality": null
      }
    },
    {
      "id": "E-1988-20",
      "year": 1988,
      "leg": 20,
      "title": "Clermont-Ferrand - Chalon-sur-Saône",
      "start": {
        "city": "Clermont-Ferrand",
        "country": "France",
        "lng": "3.087025",
        "lat": "45.777222"
      },
      "finish": {
        "city": "Villard-de-Lans",
        "country": "France",
        "lng": "5.55227",
        "lat": "45.070641"
      },
      "length": 158,
      "type": null,
      "winner": {
        "name": "Drapeau du Portugal Acácio da Silva (POR)",
        "nationality": null
      },
      "leader": {
        "name": "Drapeau des Pays-Bas Teun van Vliet (NED)",
        "nationality": null
      }
    },
    {
      "id": "E-1988-21",
      "year": 1988,
      "leg": 21,
      "title": "Santenay - Santenay",
      "start": {
        "city": "Santenay",
        "country": "France",
        "lng": "4.696534",
        "lat": "46.912833"
      },
      "finish": {
        "city": "Guzet-Neige, Ustou",
        "country": "France",
        "lng": "1.299708",
        "lat": "42.779877"
      },
      "length": 147,
      "type": null,
      "winner": {
        "name": "Drapeau des Pays-Bas Jelle Nijdam (NED)",
        "nationality": null
      },
      "leader": {
        "name": "Drapeau des Pays-Bas Henk Lubberding (NED)",
        "nationality": null
      }
    },
    {
      "id": "E-1988-22",
      "year": 1988,
      "leg": 22,
      "title": "Nemours - Paris",
      "start": {
        "city": "Nemours",
        "country": "France",
        "lng": "2.692611",
        "lat": "48.267043"
      },
      "finish": {
        "city": "Luz-Ardiden",
        "country": "France",
        "lng": "-0.061335",
        "lat": "42.885105"
      },
      "length": 52,
      "type": "(CLM)",
      "winner": {
        "name": "Drapeau de Grande-Bretagne Sean Yates (GBR)",
        "nationality": null
      },
      "leader": {
        "name": "Drapeau des Pays-Bas Jelle Nijdam (NED)",
        "nationality": null
      }
    }
  ]
}