{
  "year": 1990,
  "edition": 77,
  "total_length": 3504,
  "nb_legs": 21,
  "has_prologue": false,
  "nb_concurrents": 198,
  "nb_finishers": 156,
  "pct_finishers": 79,
  "winner_first_name": "Greg",
  "winner_last_name": "LeMond",
  "winner_id": "greg-lemond",
  "winner_total_time": "90h 43' 20\"",
  "winner_age": "28",
  "winner_country": "États-Unis",
  "winner_avg_speed": "38,621",
  "ahead_of_2nd": "0h 02' 16\" ",
  "second_name": "C. Chiappucci",
  "second_country": "Italie",
  "second_id": null,
  "ahead_of_3rd": "0h 02' 29\"",
  "third_name": "E. Breukink",
  "third_country": "Pays-Bas",
  "third_id": null,
  "legs": [
    {
      "id": "E-1990-Prologue",
      "year": 1990,
      "leg": "Prologue",
      "leg_num": 0,
      "title": "Futuroscope, Poitiers",
      "start": {
        "city": "France",
        "country": "46.66680,0.36762",
        "lat": "Futuroscope",
        "lng": " Poitiers"
      },
      "finish": {
        "city": "France",
        "country": "46.66680,0.36762",
        "lat": "6",
        "lng": "3"
      },
      "length": 0
    },
    {
      "id": "E-1990-01",
      "year": 1990,
      "leg": "1",
      "leg_num": 0,
      "title": "Futuroscope, Poitiers",
      "start": {
        "city": "France",
        "country": "\n46.66680,0.36762",
        "lat": "Futuroscope",
        "lng": " Poitiers"
      },
      "finish": {
        "city": "France",
        "country": "\n46.66680,0.36762",
        "lat": "138",
        "lng": "5"
      },
      "length": 0
    },
    {
      "id": "E-1990-02",
      "year": 1990,
      "leg": "2",
      "leg_num": 0,
      "title": "Futuroscope, Poitiers",
      "start": {
        "city": "France",
        "country": "46.66680,0.36762",
        "lat": "Futuroscope",
        "lng": " Poitiers"
      },
      "finish": {
        "city": "France",
        "country": "46.66680,0.36762",
        "lat": "44",
        "lng": "5"
      },
      "length": 0
    },
    {
      "id": "E-1990-03",
      "year": 1990,
      "leg": "3",
      "leg_num": 0,
      "title": "Poitiers",
      "start": {
        "city": "France",
        "country": "46.580224,0.340375",
        "lat": "Nantes",
        "lng": null
      },
      "finish": {
        "city": "France",
        "country": "47.218371,-1.553621",
        "lat": "233",
        "lng": null
      },
      "length": 0
    },
    {
      "id": "E-1990-04",
      "year": 1990,
      "leg": "4",
      "leg_num": 0,
      "title": "Nantes",
      "start": {
        "city": "France",
        "country": "47.218371,-1.553621",
        "lat": "Mont Saint-Michel",
        "lng": null
      },
      "finish": {
        "city": "France",
        "country": "48.636063,-1.511457",
        "lat": "203",
        "lng": null
      },
      "length": 0
    },
    {
      "id": "E-1990-05",
      "year": 1990,
      "leg": "5",
      "leg_num": 0,
      "title": "Avranches",
      "start": {
        "city": "France",
        "country": "48.686843,-1.36166",
        "lat": "Rouen",
        "lng": null
      },
      "finish": {
        "city": "France",
        "country": "49.443232,1.099971",
        "lat": "301",
        "lng": null
      },
      "length": 0
    },
    {
      "id": "E-1990-06",
      "year": 1990,
      "leg": "6",
      "leg_num": 0,
      "title": "Sarrebourg",
      "start": {
        "city": "France",
        "country": "48.732663,7.052587",
        "lat": "Vittel",
        "lng": null
      },
      "finish": {
        "city": "France",
        "country": "48.202541,5.943496",
        "lat": "202",
        "lng": "5"
      },
      "length": 0
    },
    {
      "id": "E-1990-07",
      "year": 1990,
      "leg": "7",
      "leg_num": 0,
      "title": "Vittel",
      "start": {
        "city": "France",
        "country": "48.202541,5.943496",
        "lat": "Épinal",
        "lng": null
      },
      "finish": {
        "city": "France",
        "country": "48.172402,6.449403",
        "lat": "61",
        "lng": "5"
      },
      "length": 0
    },
    {
      "id": "E-1990-08",
      "year": 1990,
      "leg": "8",
      "leg_num": 0,
      "title": "Épinal",
      "start": {
        "city": "France",
        "country": "48.172402,6.449403",
        "lat": "Besançon",
        "lng": null
      },
      "finish": {
        "city": "France",
        "country": "47.237829,6.024054",
        "lat": "181",
        "lng": "5"
      },
      "length": 0
    },
    {
      "id": "E-1990-09",
      "year": 1990,
      "leg": "9",
      "leg_num": 0,
      "title": "Besançon",
      "start": {
        "city": "France",
        "country": "47.237829,6.024054",
        "lat": "Genève",
        "lng": null
      },
      "finish": {
        "city": "Suisse",
        "country": "46.198392,6.142296",
        "lat": "196",
        "lng": null
      },
      "length": 0
    },
    {
      "id": "E-1990-10",
      "year": 1990,
      "leg": "10",
      "leg_num": 0,
      "title": "Genève",
      "start": {
        "city": "Suisse",
        "country": "46.198392,6.142296",
        "lat": "Saint-Gervais",
        "lng": null
      },
      "finish": {
        "city": "France",
        "country": "45.892013,6.712187",
        "lat": "118",
        "lng": "5"
      },
      "length": 0
    },
    {
      "id": "E-1990-11",
      "year": 1990,
      "leg": "11",
      "leg_num": 0,
      "title": "Saint-Gervais",
      "start": {
        "city": "France",
        "country": "45.892013,6.712187",
        "lat": "L'Alpe d'Huez",
        "lng": null
      },
      "finish": {
        "city": "France",
        "country": "45.092624,6.068348",
        "lat": "182",
        "lng": "5"
      },
      "length": 0
    },
    {
      "id": "E-1990-12",
      "year": 1990,
      "leg": "12",
      "leg_num": 0,
      "title": "Fontaine",
      "start": {
        "city": "France",
        "country": "45.19275,5.68821",
        "lat": "Villard-de-Lans",
        "lng": null
      },
      "finish": {
        "city": "France",
        "country": "45.070641,5.55227",
        "lat": "33",
        "lng": "5"
      },
      "length": 0
    },
    {
      "id": "E-1990-13",
      "year": 1990,
      "leg": "13",
      "leg_num": 0,
      "title": "Villard-de-Lans",
      "start": {
        "city": "France",
        "country": "45.070641,5.55227",
        "lat": "Saint-Étienne",
        "lng": null
      },
      "finish": {
        "city": "France",
        "country": "45.439695,4.387178",
        "lat": "149",
        "lng": null
      },
      "length": 0
    },
    {
      "id": "E-1990-14",
      "year": 1990,
      "leg": "14",
      "leg_num": 0,
      "title": "Le Puy-en-Velay",
      "start": {
        "city": "France",
        "country": "45.042768,3.882936",
        "lat": "Millau",
        "lng": null
      },
      "finish": {
        "city": "France",
        "country": "44.100575,3.077801",
        "lat": "205",
        "lng": null
      },
      "length": 0
    },
    {
      "id": "E-1990-15",
      "year": 1990,
      "leg": "15",
      "leg_num": 0,
      "title": "Millau",
      "start": {
        "city": "France",
        "country": "44.100575,3.077801",
        "lat": "Revel",
        "lng": null
      },
      "finish": {
        "city": "France",
        "country": "43.458611,2.004573",
        "lat": "170",
        "lng": null
      },
      "length": 0
    },
    {
      "id": "E-1990-16",
      "year": 1990,
      "leg": "16",
      "leg_num": 0,
      "title": "Blagnac",
      "start": {
        "city": "France",
        "country": "43.635087,1.39703",
        "lat": "Luz-Ardiden",
        "lng": null
      },
      "finish": {
        "city": "France",
        "country": "42.885105,-0.061335",
        "lat": "215",
        "lng": null
      },
      "length": 0
    },
    {
      "id": "E-1990-17",
      "year": 1990,
      "leg": "17",
      "leg_num": 0,
      "title": "Lourdes",
      "start": {
        "city": "France",
        "country": "43.091463,-0.045726",
        "lat": "Pau",
        "lng": null
      },
      "finish": {
        "city": "France",
        "country": "43.2951,-0.370797",
        "lat": "150",
        "lng": null
      },
      "length": 0
    },
    {
      "id": "E-1990-18",
      "year": 1990,
      "leg": "18",
      "leg_num": 0,
      "title": "Pau",
      "start": {
        "city": "France",
        "country": "43.2951,-0.370797",
        "lat": "Bordeaux",
        "lng": null
      },
      "finish": {
        "city": "France",
        "country": "44.837789,-0.57918",
        "lat": "202",
        "lng": null
      },
      "length": 0
    },
    {
      "id": "E-1990-19",
      "year": 1990,
      "leg": "19",
      "leg_num": 0,
      "title": "Castillon-la-Bataille",
      "start": {
        "city": "France",
        "country": "44.852067,-0.043008",
        "lat": "Limoges",
        "lng": null
      },
      "finish": {
        "city": "France",
        "country": "45.833619,1.261105",
        "lat": "177",
        "lng": null
      },
      "length": 0
    },
    {
      "id": "E-1990-20",
      "year": 1990,
      "leg": "20",
      "leg_num": 0,
      "title": "Lac de Vassivière",
      "start": {
        "city": "France",
        "country": "45.791652,1.87608",
        "lat": "Lac de Vassivière",
        "lng": null
      },
      "finish": {
        "city": "France",
        "country": "45.791652,1.87608",
        "lat": "45",
        "lng": "5"
      },
      "length": 0
    },
    {
      "id": "E-1990-21",
      "year": 1990,
      "leg": "21",
      "leg_num": 0,
      "title": "Brétigny-sur-Orge",
      "start": {
        "city": "France",
        "country": "48.611486,2.30604",
        "lat": "Paris",
        "lng": null
      },
      "finish": {
        "city": "France",
        "country": "48.856614,2.352222",
        "lat": "182",
        "lng": "5"
      },
      "length": 0
    }
  ]
}