{
  "year": 1991,
  "edition": 78,
  "total_length": 3914,
  "nb_legs": 22,
  "has_prologue": true,
  "nb_concurrents": 198,
  "nb_finishers": 158,
  "pct_finishers": 80,
  "winner_name": "Miguel Indurain",
  "winner_time": "101h 01’ 20”",
  "ahead_of_2nd": "0h 03' 36\" ",
  "second_name": "G. Bugno",
  "second_country": "Italie",
  "ahead_of_3rd": "0h 05' 56\"",
  "third_name": "C. Chiappucci",
  "third_country": "C. Chiappucci",
  "legs": [
    {
      "id": "E-1991-Prologue",
      "year": 1991,
      "leg": 0,
      "title": "Lyon",
      "start": {
        "city": "Lyon",
        "country": "France",
        "lng": "4.835659",
        "lat": "45.764043"
      },
      "finish": {
        "city": "Lyon",
        "country": "France",
        "lng": "4.835659",
        "lat": "45.764043"
      },
      "length": 178,
      "type": null,
      "winner": {
        "name": "Dimitri Konyshev Flag of Russian SFSR.svgRSFS de Russie",
        "nationality": null
      },
      "leader": {
        "name": "Miguel Indurain Drapeau d'Espagne Espagne",
        "nationality": null
      }
    },
    {
      "id": "E-1991-01",
      "year": 1991,
      "leg": 1,
      "title": "Lyon - Lyon",
      "start": {
        "city": "Lyon",
        "country": "France",
        "lng": "4.835659",
        "lat": "45.764043"
      },
      "finish": {
        "city": "Lyon",
        "country": "France",
        "lng": "4.835659",
        "lat": "45.764043"
      },
      "length": 5,
      "type": "(CLM)",
      "winner": {
        "name": "Thierry Marie Drapeau de France France",
        "nationality": null
      },
      "leader": {
        "name": "Thierry Marie Drapeau de France France",
        "nationality": null
      }
    },
    {
      "id": "E-1991-02",
      "year": 1991,
      "leg": 2,
      "title": "Bron - Chassieu",
      "start": {
        "city": "Bron",
        "country": "France",
        "lng": "4.911927",
        "lat": "45.733316"
      },
      "finish": {
        "city": "Jaca",
        "country": "Espagne",
        "lng": "-0.547055",
        "lat": "42.571717"
      },
      "length": 210,
      "type": null,
      "winner": {
        "name": "Etienne De Wilde Drapeau belge Belgique",
        "nationality": null
      },
      "leader": {
        "name": "Rolf Sørensen Drapeau du Danemark Danemark",
        "nationality": null
      }
    },
    {
      "id": "E-1991-03",
      "year": 1991,
      "leg": 3,
      "title": "Villeurbanne - Dijon",
      "start": {
        "city": "Villeurbanne",
        "country": "France",
        "lng": "4.890171",
        "lat": "45.771944"
      },
      "finish": {
        "city": "Gap",
        "country": "France",
        "lng": "6.079758",
        "lat": "44.559638"
      },
      "length": 196,
      "type": null,
      "winner": {
        "name": "Jean-Paul van Poppel Drapeau : Pays-Bas Pays-Bas",
        "nationality": null
      },
      "leader": {
        "name": "Thierry Marie Drapeau de France France",
        "nationality": null
      }
    },
    {
      "id": "E-1991-04",
      "year": 1991,
      "leg": 4,
      "title": "Dijon - Reims",
      "start": {
        "city": "Dijon",
        "country": "France",
        "lng": "5.04148",
        "lat": "47.322047"
      },
      "finish": {
        "city": "L'Alpe d'Huez",
        "country": "France",
        "lng": "6.068348",
        "lat": "45.092624"
      },
      "length": 73,
      "type": "(CLM)",
      "winner": {
        "name": "Miguel Indurain Drapeau d'Espagne Espagne",
        "nationality": null
      },
      "leader": {
        "name": "Greg LeMond Drapeau des États-Unis États-Unis",
        "nationality": null
      }
    },
    {
      "id": "E-1991-05",
      "year": 1991,
      "leg": 5,
      "title": "Reims - Valenciennes",
      "start": {
        "city": "Reims",
        "country": "France",
        "lng": "4.031696",
        "lat": "49.258329"
      },
      "finish": {
        "city": "Morzine",
        "country": "France",
        "lng": "6.708877",
        "lat": "46.179192"
      },
      "length": 161,
      "type": null,
      "winner": {
        "name": "Mauro Ribeiro Drapeau du BrésilBrésil",
        "nationality": null
      },
      "leader": {
        "name": "Greg LeMond Drapeau des États-Unis États-Unis",
        "nationality": null
      }
    },
    {
      "id": "E-1991-06",
      "year": 1991,
      "leg": 6,
      "title": "Arras - Le Havre",
      "start": {
        "city": "Arras",
        "country": "France",
        "lng": "2.777535",
        "lat": "50.291002"
      },
      "finish": {
        "city": "Aix-les-Bains",
        "country": "France",
        "lng": "5.908998",
        "lat": "45.692341"
      },
      "length": 207,
      "type": null,
      "winner": {
        "name": "Phil Anderson Flag of Australia.svgAustralie",
        "nationality": null
      },
      "leader": {
        "name": "Greg LeMond Drapeau des États-Unis États-Unis",
        "nationality": null
      }
    },
    {
      "id": "E-1991-07",
      "year": 1991,
      "leg": 7,
      "title": "Le Havre - Argentan",
      "start": {
        "city": "Le Havre",
        "country": "France",
        "lng": "0.107929",
        "lat": "49.49437"
      },
      "finish": {
        "city": "Mâcon",
        "country": "France",
        "lng": "4.828731",
        "lat": "46.306884"
      },
      "length": 192,
      "type": "Étape de montagne",
      "winner": {
        "name": "Charly Mottet Drapeau de France France",
        "nationality": null
      },
      "leader": {
        "name": "Luc Leblanc Drapeau de France France",
        "nationality": null
      }
    },
    {
      "id": "E-1991-08",
      "year": 1991,
      "leg": 8,
      "title": "Argentan - Alençon",
      "start": {
        "city": "Argentan",
        "country": "France",
        "lng": "-0.016566",
        "lat": "48.744001"
      },
      "finish": {
        "city": "Mâcon",
        "country": "France",
        "lng": "4.828731",
        "lat": "46.306884"
      },
      "length": 232,
      "type": "Étape de montagne",
      "winner": {
        "name": "Claudio Chiappucci Drapeau d'Italie Italie",
        "nationality": null
      },
      "leader": {
        "name": "Miguel Indurain Drapeau d'Espagne Espagne",
        "nationality": null
      }
    },
    {
      "id": "E-1991-09",
      "year": 1991,
      "leg": 9,
      "title": "Alençon - Rennes",
      "start": {
        "city": "Alençon",
        "country": "France",
        "lng": "0.091266",
        "lat": "48.432856"
      },
      "finish": {
        "city": "Paris",
        "country": "France",
        "lng": "2.352222",
        "lat": "48.856614"
      },
      "length": 172,
      "type": null,
      "winner": {
        "name": "Bruno Cenghialta Drapeau d'Italie Italie",
        "nationality": null
      },
      "leader": {
        "name": "Miguel Indurain Drapeau d'Espagne Espagne",
        "nationality": null
      }
    },
    {
      "id": "E-1991-10",
      "year": 1991,
      "leg": 10,
      "title": "Rennes - Quimper",
      "start": {
        "city": "Rennes",
        "country": "France",
        "lng": "-1.675708",
        "lat": "48.113475"
      },
      "finish": {
        "city": "Chassieu",
        "country": "France",
        "lng": "4.971918",
        "lat": "45.743527"
      },
      "length": 246,
      "type": null,
      "winner": {
        "name": "Charly Mottet Drapeau de France France",
        "nationality": null
      },
      "leader": {
        "name": "Greg LeMond Drapeau des États-Unis États-Unis",
        "nationality": null
      }
    },
    {
      "id": "E-1991-11",
      "year": 1991,
      "leg": 11,
      "title": "Quimper - Saint-Herblain",
      "start": {
        "city": "Quimper",
        "country": "France",
        "lng": "-4.097899",
        "lat": "47.997542"
      },
      "finish": {
        "city": "Dijon",
        "country": "France",
        "lng": "5.04148",
        "lat": "47.322047"
      },
      "length": 235,
      "type": null,
      "winner": {
        "name": "Moreno Argentin Drapeau d'Italie Italie",
        "nationality": null
      },
      "leader": {
        "name": "Miguel Indurain Drapeau d'Espagne Espagne",
        "nationality": null
      }
    },
    {
      "id": "E-1991-12",
      "year": 1991,
      "leg": 12,
      "title": "Pau - Jaca",
      "start": {
        "city": "Pau",
        "country": "France",
        "lng": "-0.370797",
        "lat": "43.2951"
      },
      "finish": {
        "city": "Reims",
        "country": "France",
        "lng": "4.031696",
        "lat": "49.258329"
      },
      "length": 215,
      "type": null,
      "winner": {
        "name": "Marco Lietti Drapeau d'Italie Italie",
        "nationality": null
      },
      "leader": {
        "name": "Miguel Indurain Drapeau d'Espagne Espagne",
        "nationality": null
      }
    },
    {
      "id": "E-1991-13",
      "year": 1991,
      "leg": 13,
      "title": "Jaca - Val-Louron",
      "start": {
        "city": "Jaca",
        "country": "Espagne",
        "lng": "-0.547055",
        "lat": "42.571717"
      },
      "finish": {
        "city": "Valenciennes",
        "country": "France",
        "lng": "3.518332",
        "lat": "50.357113"
      },
      "length": 125,
      "type": "Étape de montagne",
      "winner": {
        "name": "Gianni Bugno Drapeau d'Italie Italie",
        "nationality": null
      },
      "leader": {
        "name": "Miguel Indurain Drapeau d'Espagne Espagne",
        "nationality": null
      }
    },
    {
      "id": "E-1991-14",
      "year": 1991,
      "leg": 14,
      "title": "Saint-Gaudens - Castres",
      "start": {
        "city": "Saint-Gaudens",
        "country": "France",
        "lng": "0.723763",
        "lat": "43.106895"
      },
      "finish": {
        "city": "Le Havre",
        "country": "France",
        "lng": "0.107929",
        "lat": "49.49437"
      },
      "length": 255,
      "type": "Étape de montagne",
      "winner": {
        "name": "Thierry Claveyrolat Drapeau de France France",
        "nationality": null
      },
      "leader": {
        "name": "Miguel Indurain Drapeau d'Espagne Espagne",
        "nationality": null
      }
    },
    {
      "id": "E-1991-15",
      "year": 1991,
      "leg": 15,
      "title": "Albi - Alès",
      "start": {
        "city": "Albi",
        "country": "France",
        "lng": "2.146343",
        "lat": "43.926896"
      },
      "finish": {
        "city": "Argentan",
        "country": "France",
        "lng": "-0.016566",
        "lat": "48.744001"
      },
      "length": 177,
      "type": "Étape de montagne",
      "winner": {
        "name": "Dimitri Konyshev Flag of Russian SFSR.svgRSFS de Russie",
        "nationality": null
      },
      "leader": {
        "name": "Miguel Indurain Drapeau d'Espagne Espagne",
        "nationality": null
      }
    },
    {
      "id": "E-1991-16",
      "year": 1991,
      "leg": 16,
      "title": "Alès - Gap",
      "start": {
        "city": "Alès",
        "country": "France",
        "lng": "4.083352",
        "lat": "44.127204"
      },
      "finish": {
        "city": "Alençon",
        "country": "France",
        "lng": "0.091266",
        "lat": "48.432856"
      },
      "length": 160,
      "type": null,
      "winner": {
        "name": "Viatcheslav Ekimov Flag of Russian SFSR.svgRSFS de Russie",
        "nationality": null
      },
      "leader": {
        "name": "Miguel Indurain Drapeau d'Espagne Espagne",
        "nationality": null
      }
    },
    {
      "id": "E-1991-17",
      "year": 1991,
      "leg": 17,
      "title": "Gap - L'Alpe d'Huez",
      "start": {
        "city": "Gap",
        "country": "France",
        "lng": "6.079758",
        "lat": "44.559638"
      },
      "finish": {
        "city": "Rennes",
        "country": "France",
        "lng": "-1.675708",
        "lat": "48.113475"
      },
      "length": 57,
      "type": "(CLM)",
      "winner": {
        "name": "Miguel Indurain Drapeau d'Espagne Espagne",
        "nationality": null
      },
      "leader": {
        "name": "Miguel Indurain Drapeau d'Espagne Espagne",
        "nationality": null
      }
    },
    {
      "id": "E-1991-18",
      "year": 1991,
      "leg": 18,
      "title": "Le Bourg-d'Oisans - Morzine",
      "start": {
        "city": "Le Bourg-d'Oisans",
        "country": "France",
        "lng": "6.030064",
        "lat": "45.051951"
      },
      "finish": {
        "city": "Quimper",
        "country": "France",
        "lng": "-4.097899",
        "lat": "47.997542"
      },
      "length": 114,
      "type": null,
      "winner": {
        "name": "Djamolidine Abdoujaparov Flag of Uzbek SSR.svgRSS d'Ouzbékistan",
        "nationality": null
      },
      "leader": {
        "name": "Greg LeMond Drapeau des États-Unis États-Unis",
        "nationality": null
      }
    },
    {
      "id": "E-1991-19",
      "year": 1991,
      "leg": 19,
      "title": "Morzine - Aix-les-Bains",
      "start": {
        "city": "Morzine",
        "country": "France",
        "lng": "6.708877",
        "lat": "46.179192"
      },
      "finish": {
        "city": "Saint-Herblain",
        "country": "France",
        "lng": "-1.651444",
        "lat": "47.210335"
      },
      "length": 36,
      "type": "(CLM par équipes)",
      "winner": {
        "name": "Ariostea Drapeau : Italie",
        "nationality": null
      },
      "leader": {
        "name": "Rolf Sørensen Drapeau du Danemark Danemark",
        "nationality": null
      }
    },
    {
      "id": "E-1991-20",
      "year": 1991,
      "leg": 20,
      "title": "Aix-les-Bains - Mâcon",
      "start": {
        "city": "Aix-les-Bains",
        "country": "France",
        "lng": "5.908998",
        "lat": "45.692341"
      },
      "finish": {
        "city": "Val-Louron, Génos",
        "country": "France",
        "lng": "0.389625",
        "lat": "42.79097"
      },
      "length": 286,
      "type": null,
      "winner": {
        "name": "Djamolidine Abdoujaparov Flag of Uzbek SSR.svgRSS d'Ouzbékistan",
        "nationality": null
      },
      "leader": {
        "name": "Rolf Sørensen Drapeau du Danemark Danemark",
        "nationality": null
      }
    },
    {
      "id": "E-1991-21",
      "year": 1991,
      "leg": 21,
      "title": "Lugny - Mâcon",
      "start": {
        "city": "Lugny",
        "country": "France",
        "lng": "4.80982",
        "lat": "46.471672"
      },
      "finish": {
        "city": "Castres",
        "country": "France",
        "lng": "2.241295",
        "lat": "43.606214"
      },
      "length": 149,
      "type": null,
      "winner": {
        "name": "Jelle Nijdam Drapeau : Pays-Bas Pays-Bas",
        "nationality": null
      },
      "leader": {
        "name": "Rolf Sørensen Drapeau du Danemark Danemark",
        "nationality": null
      }
    },
    {
      "id": "E-1991-22",
      "year": 1991,
      "leg": 22,
      "title": "Melun - Paris",
      "start": {
        "city": "Melun",
        "country": "France",
        "lng": "2.6554",
        "lat": "48.542105"
      },
      "finish": {
        "city": "Alès",
        "country": "France",
        "lng": "4.083352",
        "lat": "44.127204"
      },
      "length": 259,
      "type": null,
      "winner": {
        "name": "Thierry Marie Drapeau de France France",
        "nationality": null
      },
      "leader": {
        "name": "Thierry Marie Drapeau de France France",
        "nationality": null
      }
    }
  ]
}