{
  "year": 1991,
  "edition": 78,
  "total_length": 3914,
  "nb_legs": 22,
  "has_prologue": false,
  "nb_concurrents": 198,
  "nb_finishers": 158,
  "pct_finishers": 80,
  "winner_first_name": "Miguel",
  "winner_last_name": "Indurain",
  "winner_id": "miguel-indurain",
  "winner_total_time": "101h 01' 20\"",
  "winner_age": "27",
  "winner_country": "Espagne",
  "winner_avg_speed": "38,747",
  "ahead_of_2nd": "0h 03' 36\" ",
  "second_name": "G. Bugno",
  "second_country": "Italie",
  "second_id": null,
  "ahead_of_3rd": "0h 05' 56\"",
  "third_name": "C. Chiappucci",
  "third_country": "Italie",
  "third_id": null,
  "legs": [
    {
      "id": "E-1991-Prologue",
      "year": 1991,
      "leg": "Prologue",
      "leg_num": 0,
      "title": "Lyon",
      "start": {
        "city": "France",
        "country": "45.764043,4.835659",
        "lat": "Lyon",
        "lng": null
      },
      "finish": {
        "city": "France",
        "country": "45.764043,4.835659",
        "lat": "5",
        "lng": "4"
      },
      "length": 0
    },
    {
      "id": "E-1991-01",
      "year": 1991,
      "leg": "1",
      "leg_num": 0,
      "title": "Lyon",
      "start": {
        "city": "France",
        "country": "45.764043,4.835659",
        "lat": "Lyon",
        "lng": null
      },
      "finish": {
        "city": "France",
        "country": "45.764043,4.835659",
        "lat": "114",
        "lng": "5"
      },
      "length": 0
    },
    {
      "id": "E-1991-02",
      "year": 1991,
      "leg": "2",
      "leg_num": 0,
      "title": "Bron",
      "start": {
        "city": "France",
        "country": "45.733316,4.911927",
        "lat": "Chassieu",
        "lng": null
      },
      "finish": {
        "city": "France",
        "country": "45.743527,4.971918",
        "lat": "36",
        "lng": "5"
      },
      "length": 0
    },
    {
      "id": "E-1991-03",
      "year": 1991,
      "leg": "3",
      "leg_num": 0,
      "title": "Villeurbanne",
      "start": {
        "city": "France",
        "country": "45.771944,4.890171",
        "lat": "Dijon",
        "lng": null
      },
      "finish": {
        "city": "France",
        "country": "47.322047,5.04148",
        "lat": "210",
        "lng": "5"
      },
      "length": 0
    },
    {
      "id": "E-1991-04",
      "year": 1991,
      "leg": "4",
      "leg_num": 0,
      "title": "Dijon",
      "start": {
        "city": "France",
        "country": "47.322047,5.04148",
        "lat": "Reims",
        "lng": null
      },
      "finish": {
        "city": "France",
        "country": "49.258329,4.031696",
        "lat": "286",
        "lng": null
      },
      "length": 0
    },
    {
      "id": "E-1991-05",
      "year": 1991,
      "leg": "5",
      "leg_num": 0,
      "title": "Reims",
      "start": {
        "city": "France",
        "country": "49.258329,4.031696",
        "lat": "Valenciennes",
        "lng": null
      },
      "finish": {
        "city": "France",
        "country": "50.357113,3.518332",
        "lat": "149",
        "lng": "5"
      },
      "length": 0
    },
    {
      "id": "E-1991-06",
      "year": 1991,
      "leg": "6",
      "leg_num": 0,
      "title": "Arras",
      "start": {
        "city": "France",
        "country": "50.291002,2.777535",
        "lat": "Le Havre",
        "lng": null
      },
      "finish": {
        "city": "France",
        "country": "49.49437,0.107929",
        "lat": "259",
        "lng": null
      },
      "length": 0
    },
    {
      "id": "E-1991-07",
      "year": 1991,
      "leg": "7",
      "leg_num": 0,
      "title": "Le Havre",
      "start": {
        "city": "France",
        "country": "49.49437,0.107929",
        "lat": "Argentan",
        "lng": null
      },
      "finish": {
        "city": "France",
        "country": "48.744001,-0.016566",
        "lat": "196",
        "lng": "5"
      },
      "length": 0
    },
    {
      "id": "E-1991-08",
      "year": 1991,
      "leg": "8",
      "leg_num": 0,
      "title": "Argentan",
      "start": {
        "city": "France",
        "country": "48.744001,-0.016566",
        "lat": "Alençon",
        "lng": null
      },
      "finish": {
        "city": "France",
        "country": "48.432856,0.091266",
        "lat": "73",
        "lng": null
      },
      "length": 0
    },
    {
      "id": "E-1991-09",
      "year": 1991,
      "leg": "9",
      "leg_num": 0,
      "title": "Alençon",
      "start": {
        "city": "France",
        "country": "48.432856,0.091266",
        "lat": "Rennes",
        "lng": null
      },
      "finish": {
        "city": "France",
        "country": "48.113475,-1.675708",
        "lat": "161",
        "lng": null
      },
      "length": 0
    },
    {
      "id": "E-1991-10",
      "year": 1991,
      "leg": "10",
      "leg_num": 0,
      "title": "Rennes",
      "start": {
        "city": "France",
        "country": "48.113475,-1.675708",
        "lat": "Quimper",
        "lng": null
      },
      "finish": {
        "city": "France",
        "country": "47.997542,-4.097899",
        "lat": "207",
        "lng": "5"
      },
      "length": 0
    },
    {
      "id": "E-1991-11",
      "year": 1991,
      "leg": "11",
      "leg_num": 0,
      "title": "Quimper",
      "start": {
        "city": "France",
        "country": "47.997542,-4.097899",
        "lat": "Saint-Herblain",
        "lng": null
      },
      "finish": {
        "city": "France",
        "country": "47.210335,-1.651444",
        "lat": "246",
        "lng": null
      },
      "length": 0
    },
    {
      "id": "E-1991-12",
      "year": 1991,
      "leg": "12",
      "leg_num": 0,
      "title": "Pau",
      "start": {
        "city": "France",
        "country": "43.2951,-0.370797",
        "lat": "Jaca",
        "lng": null
      },
      "finish": {
        "city": "Espagne",
        "country": "42.571717,-0.547055",
        "lat": "192",
        "lng": null
      },
      "length": 0
    },
    {
      "id": "E-1991-13",
      "year": 1991,
      "leg": "13",
      "leg_num": 0,
      "title": "Jaca",
      "start": {
        "city": "Espagne",
        "country": "42.571717,-0.547055",
        "lat": "Val-Louron",
        "lng": " Génos"
      },
      "finish": {
        "city": "France",
        "country": "42.79097,0.389625",
        "lat": "232",
        "lng": null
      },
      "length": 0
    },
    {
      "id": "E-1991-14",
      "year": 1991,
      "leg": "14",
      "leg_num": 0,
      "title": "Saint-Gaudens",
      "start": {
        "city": "France",
        "country": "43.106895,0.723763",
        "lat": "Castres",
        "lng": null
      },
      "finish": {
        "city": "France",
        "country": "43.606214,2.241295",
        "lat": "172",
        "lng": "5"
      },
      "length": 0
    },
    {
      "id": "E-1991-15",
      "year": 1991,
      "leg": "15",
      "leg_num": 0,
      "title": "Albi",
      "start": {
        "city": "France",
        "country": "43.926896,2.146343",
        "lat": "Alès",
        "lng": null
      },
      "finish": {
        "city": "France",
        "country": "44.127204,4.083352",
        "lat": "235",
        "lng": null
      },
      "length": 0
    },
    {
      "id": "E-1991-16",
      "year": 1991,
      "leg": "16",
      "leg_num": 0,
      "title": "Alès",
      "start": {
        "city": "France",
        "country": "44.127204,4.083352",
        "lat": "Gap",
        "lng": null
      },
      "finish": {
        "city": "France",
        "country": "44.559638,6.079758",
        "lat": "215",
        "lng": null
      },
      "length": 0
    },
    {
      "id": "E-1991-17",
      "year": 1991,
      "leg": "17",
      "leg_num": 0,
      "title": "Gap",
      "start": {
        "city": "France",
        "country": "44.559638,6.079758",
        "lat": "L'Alpe d'Huez",
        "lng": null
      },
      "finish": {
        "city": "France",
        "country": "45.092624,6.068348",
        "lat": "125",
        "lng": null
      },
      "length": 0
    },
    {
      "id": "E-1991-18",
      "year": 1991,
      "leg": "18",
      "leg_num": 0,
      "title": "Le Bourg-d'Oisans",
      "start": {
        "city": "France",
        "country": "45.051951,6.030064",
        "lat": "Morzine",
        "lng": null
      },
      "finish": {
        "city": "France",
        "country": "46.179192,6.708877",
        "lat": "255",
        "lng": null
      },
      "length": 0
    },
    {
      "id": "E-1991-19",
      "year": 1991,
      "leg": "19",
      "leg_num": 0,
      "title": "Morzine",
      "start": {
        "city": "France",
        "country": "46.179192,6.708877",
        "lat": "Aix-les-Bains",
        "lng": null
      },
      "finish": {
        "city": "France",
        "country": "45.692341,5.908998",
        "lat": "177",
        "lng": null
      },
      "length": 0
    },
    {
      "id": "E-1991-20",
      "year": 1991,
      "leg": "20",
      "leg_num": 0,
      "title": "Aix-les-Bains",
      "start": {
        "city": "France",
        "country": "45.692341,5.908998",
        "lat": "Mâcon",
        "lng": null
      },
      "finish": {
        "city": "France",
        "country": "46.306884,4.828731",
        "lat": "160",
        "lng": null
      },
      "length": 0
    },
    {
      "id": "E-1991-21",
      "year": 1991,
      "leg": "21",
      "leg_num": 0,
      "title": "Lugny",
      "start": {
        "city": "France",
        "country": "46.471672,4.80982",
        "lat": "Mâcon",
        "lng": null
      },
      "finish": {
        "city": "France",
        "country": "46.306884,4.828731",
        "lat": "57",
        "lng": null
      },
      "length": 0
    },
    {
      "id": "E-1991-22",
      "year": 1991,
      "leg": "22",
      "leg_num": 0,
      "title": "Melun",
      "start": {
        "city": "France",
        "country": "48.542105,2.6554",
        "lat": "Paris",
        "lng": null
      },
      "finish": {
        "city": "France",
        "country": "48.856614,2.352222",
        "lat": "178",
        "lng": null
      },
      "length": 0
    }
  ]
}