{
  "year": 1992,
  "edition": 79,
  "total_length": 3983,
  "nb_legs": 21,
  "has_prologue": false,
  "nb_concurrents": 198,
  "nb_finishers": 130,
  "pct_finishers": 66,
  "winner_first_name": "Miguel",
  "winner_last_name": "Indurain",
  "winner_id": "miguel-indurain",
  "winner_total_time": "100h 49' 30\"",
  "winner_age": "28",
  "winner_country": "Espagne",
  "winner_avg_speed": "39,504",
  "ahead_of_2nd": "0h 04' 35\" ",
  "second_name": "C. Chiappucci",
  "second_country": "Italie",
  "second_id": null,
  "ahead_of_3rd": "0h 10' 49\"",
  "third_name": "G. Bugno",
  "third_country": "Italie",
  "third_id": null,
  "legs": [
    {
      "id": "E-1992-Prologue",
      "year": 1992,
      "leg": "Prologue",
      "leg_num": 0,
      "title": "Saint-Sébastien",
      "start": {
        "city": "Espagne",
        "country": "43.321662,-1.984993",
        "lat": "Saint-Sébastien",
        "lng": null
      },
      "finish": {
        "city": "Espagne",
        "country": "43.321662,-1.984993",
        "lat": "8",
        "lng": null
      },
      "length": 0
    },
    {
      "id": "E-1992-01",
      "year": 1992,
      "leg": "1",
      "leg_num": 0,
      "title": "Saint-Sébastien",
      "start": {
        "city": "Espagne",
        "country": "43.321662,-1.984993",
        "lat": "Saint-Sébastien",
        "lng": null
      },
      "finish": {
        "city": "Espagne",
        "country": "43.321662,-1.984993",
        "lat": "194",
        "lng": "5"
      },
      "length": 0
    },
    {
      "id": "E-1992-02",
      "year": 1992,
      "leg": "2",
      "leg_num": 0,
      "title": "Saint-Sébastien",
      "start": {
        "city": "Espagne",
        "country": "43.321662,-1.984993",
        "lat": "Pau",
        "lng": null
      },
      "finish": {
        "city": "France",
        "country": "43.2951,-0.370797",
        "lat": "255",
        "lng": null
      },
      "length": 0
    },
    {
      "id": "E-1992-03",
      "year": 1992,
      "leg": "3",
      "leg_num": 0,
      "title": "Pau",
      "start": {
        "city": "Espagne",
        "country": "43.2951,-0.370797",
        "lat": "Bordeaux",
        "lng": null
      },
      "finish": {
        "city": "France",
        "country": "44.837789,-0.57918",
        "lat": "218",
        "lng": null
      },
      "length": 0
    },
    {
      "id": "E-1992-04",
      "year": 1992,
      "leg": "4",
      "leg_num": 0,
      "title": "Libourne",
      "start": {
        "city": "Espagne",
        "country": "44.912998,-0.243985",
        "lat": "Libourne",
        "lng": null
      },
      "finish": {
        "city": "France",
        "country": "44.912998,-0.243985",
        "lat": "63",
        "lng": "5"
      },
      "length": 0
    },
    {
      "id": "E-1992-05",
      "year": 1992,
      "leg": "5",
      "leg_num": 0,
      "title": "Nogent-sur-Oise",
      "start": {
        "city": "Espagne",
        "country": "49.278948,2.464688",
        "lat": "Wasquehal",
        "lng": null
      },
      "finish": {
        "city": "France",
        "country": "50.669276,3.130782",
        "lat": "196",
        "lng": null
      },
      "length": 0
    },
    {
      "id": "E-1992-06",
      "year": 1992,
      "leg": "6",
      "leg_num": 0,
      "title": "Roubaix",
      "start": {
        "city": "Espagne",
        "country": "50.692705,3.177847",
        "lat": "Bruxelles",
        "lng": null
      },
      "finish": {
        "city": "Belgique",
        "country": "50.85034,4.35171",
        "lat": "167",
        "lng": null
      },
      "length": 0
    },
    {
      "id": "E-1992-07",
      "year": 1992,
      "leg": "7",
      "leg_num": 0,
      "title": "Bruxelles",
      "start": {
        "city": "Belgique",
        "country": "50.85034,4.35171",
        "lat": "Valkenburg",
        "lng": null
      },
      "finish": {
        "city": "Pays-Bas",
        "country": "50.863796,5.833991",
        "lat": "196",
        "lng": "5"
      },
      "length": 0
    },
    {
      "id": "E-1992-08",
      "year": 1992,
      "leg": "8",
      "leg_num": 0,
      "title": "Valkenburg",
      "start": {
        "city": "Pays-Bas",
        "country": "50.863796,5.833991",
        "lat": "Coblence",
        "lng": null
      },
      "finish": {
        "city": "Allemagne",
        "country": "50.360025,7.589907",
        "lat": "206",
        "lng": "5"
      },
      "length": 0
    },
    {
      "id": "E-1992-09",
      "year": 1992,
      "leg": "9",
      "leg_num": 0,
      "title": "Luxembourg",
      "start": {
        "city": "Luxembourg",
        "country": "49.61162,6.13193",
        "lat": "Luxembourg",
        "lng": null
      },
      "finish": {
        "city": "Luxembourg",
        "country": "49.61162,6.13193",
        "lat": "65",
        "lng": null
      },
      "length": 0
    },
    {
      "id": "E-1992-10",
      "year": 1992,
      "leg": "10",
      "leg_num": 0,
      "title": "Luxembourg",
      "start": {
        "city": "Luxembourg",
        "country": "49.61162,6.13193",
        "lat": "Strasbourg",
        "lng": null
      },
      "finish": {
        "city": "France",
        "country": "48.583148,7.747882",
        "lat": "217",
        "lng": null
      },
      "length": 0
    },
    {
      "id": "E-1992-11",
      "year": 1992,
      "leg": "11",
      "leg_num": 0,
      "title": "Strasbourg",
      "start": {
        "city": "France",
        "country": "48.583148,7.747882",
        "lat": "Mulhouse",
        "lng": null
      },
      "finish": {
        "city": "France",
        "country": "47.750839,7.335888",
        "lat": "249",
        "lng": "5"
      },
      "length": 0
    },
    {
      "id": "E-1992-12",
      "year": 1992,
      "leg": "12",
      "leg_num": 0,
      "title": "Dole",
      "start": {
        "city": "France",
        "country": "47.09534,5.49081",
        "lat": "Saint-Gervais",
        "lng": null
      },
      "finish": {
        "city": "France",
        "country": "45.892013,6.712187",
        "lat": "267",
        "lng": "5"
      },
      "length": 0
    },
    {
      "id": "E-1992-13",
      "year": 1992,
      "leg": "13",
      "leg_num": 0,
      "title": "Saint-Gervais",
      "start": {
        "city": "France",
        "country": "45.892013,6.712187",
        "lat": "Sestrières",
        "lng": null
      },
      "finish": {
        "city": "France",
        "country": "44.9565,6.879234",
        "lat": "254",
        "lng": "5"
      },
      "length": 0
    },
    {
      "id": "E-1992-14",
      "year": 1992,
      "leg": "14",
      "leg_num": 0,
      "title": "Sestrières",
      "start": {
        "city": "France",
        "country": "44.9565,6.879234",
        "lat": "Alpe d'Huez",
        "lng": null
      },
      "finish": {
        "city": "France",
        "country": "45.092624,6.068348",
        "lat": "186",
        "lng": "5"
      },
      "length": 0
    },
    {
      "id": "E-1992-15",
      "year": 1992,
      "leg": "15",
      "leg_num": 0,
      "title": "Le Bourg-d'Oisans",
      "start": {
        "city": "France",
        "country": "45.051951,6.030064",
        "lat": "Saint-Étienne",
        "lng": null
      },
      "finish": {
        "city": "France",
        "country": "45.439695,4.387178",
        "lat": "198",
        "lng": null
      },
      "length": 0
    },
    {
      "id": "E-1992-16",
      "year": 1992,
      "leg": "16",
      "leg_num": 0,
      "title": "Saint-Étienne",
      "start": {
        "city": "France",
        "country": "45.439695,4.387178",
        "lat": "La Bourboule",
        "lng": null
      },
      "finish": {
        "city": "France",
        "country": "45.587241,2.738992",
        "lat": "212",
        "lng": null
      },
      "length": 0
    },
    {
      "id": "E-1992-17",
      "year": 1992,
      "leg": "17",
      "leg_num": 0,
      "title": "La Bourboule",
      "start": {
        "city": "France",
        "country": "45.587241,2.738992",
        "lat": "Montluçon",
        "lng": null
      },
      "finish": {
        "city": "France",
        "country": "46.339966,2.606645",
        "lat": "189",
        "lng": null
      },
      "length": 0
    },
    {
      "id": "E-1992-18",
      "year": 1992,
      "leg": "18",
      "leg_num": 0,
      "title": "Montluçon",
      "start": {
        "city": "France",
        "country": "46.339966,2.606645",
        "lat": "Tours",
        "lng": null
      },
      "finish": {
        "city": "France",
        "country": "47.394144,0.68484",
        "lat": "212",
        "lng": null
      },
      "length": 0
    },
    {
      "id": "E-1992-19",
      "year": 1992,
      "leg": "19",
      "leg_num": 0,
      "title": "Tours",
      "start": {
        "city": "France",
        "country": "47.394144,0.68484",
        "lat": "Blois",
        "lng": null
      },
      "finish": {
        "city": "France",
        "country": "47.587952,1.336272",
        "lat": "64",
        "lng": null
      },
      "length": 0
    },
    {
      "id": "E-1992-20",
      "year": 1992,
      "leg": "20",
      "leg_num": 0,
      "title": "Blois",
      "start": {
        "city": "France",
        "country": "47.587952,1.336272",
        "lat": "Nanterre",
        "lng": null
      },
      "finish": {
        "city": "France",
        "country": "48.892423,2.215331",
        "lat": "222",
        "lng": null
      },
      "length": 0
    },
    {
      "id": "E-1992-21",
      "year": 1992,
      "leg": "21",
      "leg_num": 0,
      "title": "La Défense",
      "start": {
        "city": "France",
        "country": "48.889736,2.241843",
        "lat": "Paris",
        "lng": null
      },
      "finish": {
        "city": "France",
        "country": "48.856614,2.352222",
        "lat": "175",
        "lng": null
      },
      "length": 0
    }
  ]
}