{
  "year": 1993,
  "edition": 80,
  "total_length": 3714,
  "nb_legs": 20,
  "has_prologue": false,
  "nb_concurrents": 180,
  "nb_finishers": 136,
  "pct_finishers": 76,
  "winner_first_name": "Miguel",
  "winner_last_name": "Indurain",
  "winner_id": "miguel-indurain",
  "winner_total_time": "95h 57' 09\"",
  "winner_age": "29",
  "winner_country": "Espagne",
  "winner_avg_speed": "38,709",
  "ahead_of_2nd": "0h 04' 59\" ",
  "second_name": "T. Rominger",
  "second_country": "Suisse",
  "second_id": null,
  "ahead_of_3rd": "0h 05' 48\"",
  "third_name": "Z. Jaskula",
  "third_country": "Pologne",
  "third_id": null,
  "legs": [
    {
      "id": "E-1993-Prologue",
      "year": 1993,
      "leg": "Prologue",
      "leg_num": 0,
      "title": "Les Epesses",
      "start": {
        "city": "France",
        "country": "46.884536,-0.899612",
        "lat": "Les Epesses",
        "lng": null
      },
      "finish": {
        "city": "France",
        "country": "46.884536,-0.899612",
        "lat": "6",
        "lng": "8"
      },
      "length": 0
    },
    {
      "id": "E-1993-01",
      "year": 1993,
      "leg": "1",
      "leg_num": 0,
      "title": "Luçon",
      "start": {
        "city": "France",
        "country": "46.454772,-1.167062",
        "lat": "Les Sables-d'Olonne",
        "lng": null
      },
      "finish": {
        "city": "France",
        "country": "46.492958,-1.795493",
        "lat": "215",
        "lng": null
      },
      "length": 0
    },
    {
      "id": "E-1993-02",
      "year": 1993,
      "leg": "2",
      "leg_num": 0,
      "title": "Les Sables-d'Olonne",
      "start": {
        "city": "France",
        "country": "46.492958,-1.795493",
        "lat": "Vannes",
        "lng": null
      },
      "finish": {
        "city": "France",
        "country": "47.658236,-2.760847",
        "lat": "203",
        "lng": "5"
      },
      "length": 0
    },
    {
      "id": "E-1993-03",
      "year": 1993,
      "leg": "3",
      "leg_num": 0,
      "title": "Vannes",
      "start": {
        "city": "France",
        "country": "47.658236,-2.760847",
        "lat": "Dinard",
        "lng": null
      },
      "finish": {
        "city": "France",
        "country": "48.633024,-2.055125",
        "lat": "189",
        "lng": "5"
      },
      "length": 0
    },
    {
      "id": "E-1993-04",
      "year": 1993,
      "leg": "4",
      "leg_num": 0,
      "title": "Dinard",
      "start": {
        "city": "France",
        "country": "48.633024,-2.055125",
        "lat": "Avranches",
        "lng": null
      },
      "finish": {
        "city": "France",
        "country": "48.686843,-1.36166",
        "lat": "81",
        "lng": null
      },
      "length": 0
    },
    {
      "id": "E-1993-05",
      "year": 1993,
      "leg": "5",
      "leg_num": 0,
      "title": "Avranches",
      "start": {
        "city": "France",
        "country": "48.686843,-1.36166",
        "lat": "Évreux",
        "lng": null
      },
      "finish": {
        "city": "France",
        "country": "49.027013,1.151361",
        "lat": "225",
        "lng": "5"
      },
      "length": 0
    },
    {
      "id": "E-1993-06",
      "year": 1993,
      "leg": "6",
      "leg_num": 0,
      "title": "Évreux",
      "start": {
        "city": "France",
        "country": "49.027013,1.151361",
        "lat": "Amiens",
        "lng": null
      },
      "finish": {
        "city": "France",
        "country": "49.894067,2.295753",
        "lat": "158",
        "lng": null
      },
      "length": 0
    },
    {
      "id": "E-1993-07",
      "year": 1993,
      "leg": "7",
      "leg_num": 0,
      "title": "Péronne",
      "start": {
        "city": "France",
        "country": "49.933071,2.933353",
        "lat": "Châlons-sur-Marne",
        "lng": null
      },
      "finish": {
        "city": "France",
        "country": "48.956682,4.363073",
        "lat": "199",
        "lng": null
      },
      "length": 0
    },
    {
      "id": "E-1993-08",
      "year": 1993,
      "leg": "8",
      "leg_num": 0,
      "title": "Châlons-sur-Marne",
      "start": {
        "city": "France",
        "country": "48.956682,4.363073",
        "lat": "Verdun",
        "lng": null
      },
      "finish": {
        "city": "France",
        "country": "49.15894,5.386757",
        "lat": "184",
        "lng": "5"
      },
      "length": 0
    },
    {
      "id": "E-1993-09",
      "year": 1993,
      "leg": "9",
      "leg_num": 0,
      "title": "Lac de Madine",
      "start": {
        "city": "France",
        "country": "48.921618,5.736175",
        "lat": "Lac de Madine",
        "lng": null
      },
      "finish": {
        "city": "France",
        "country": "48.921618,5.736175",
        "lat": "59",
        "lng": null
      },
      "length": 0
    },
    {
      "id": "E-1993-10",
      "year": 1993,
      "leg": "10",
      "leg_num": 0,
      "title": "Villard-de-Lans",
      "start": {
        "city": "France",
        "country": "45.070641,5.55227",
        "lat": "Serre Chevalier",
        "lng": null
      },
      "finish": {
        "city": "France",
        "country": "44.910829,6.549748",
        "lat": "203",
        "lng": null
      },
      "length": 0
    },
    {
      "id": "E-1993-11",
      "year": 1993,
      "leg": "11",
      "leg_num": 0,
      "title": "Serre Chevalier",
      "start": {
        "city": "France",
        "country": "44.910829,6.549748",
        "lat": "Isola 2000",
        "lng": null
      },
      "finish": {
        "city": "France",
        "country": "44.18571,7.15922",
        "lat": "180",
        "lng": null
      },
      "length": 0
    },
    {
      "id": "E-1993-12",
      "year": 1993,
      "leg": "12",
      "leg_num": 0,
      "title": "Isola 2000",
      "start": {
        "city": "France",
        "country": "44.18571,7.15922",
        "lat": "Marseille",
        "lng": null
      },
      "finish": {
        "city": "France",
        "country": "43.296482,5.36978",
        "lat": "286",
        "lng": "5"
      },
      "length": 0
    },
    {
      "id": "E-1993-13",
      "year": 1993,
      "leg": "13",
      "leg_num": 0,
      "title": "Marseille",
      "start": {
        "city": "France",
        "country": "43.296482,5.36978",
        "lat": "Montpellier",
        "lng": null
      },
      "finish": {
        "city": "France",
        "country": "43.610769,3.876716",
        "lat": "181",
        "lng": "5"
      },
      "length": 0
    },
    {
      "id": "E-1993-14",
      "year": 1993,
      "leg": "14",
      "leg_num": 0,
      "title": "Montpellier",
      "start": {
        "city": "France",
        "country": "43.610769,3.876716",
        "lat": "Perpignan",
        "lng": null
      },
      "finish": {
        "city": "France",
        "country": "42.698684,2.895872",
        "lat": "223",
        "lng": null
      },
      "length": 0
    },
    {
      "id": "E-1993-15",
      "year": 1993,
      "leg": "15",
      "leg_num": 0,
      "title": "Perpignan",
      "start": {
        "city": "France",
        "country": "42.698684,2.895872",
        "lat": "Pal",
        "lng": null
      },
      "finish": {
        "city": "Andorre",
        "country": "42.54487,1.47520\n",
        "lat": "231",
        "lng": "5"
      },
      "length": 0
    },
    {
      "id": "E-1993-16",
      "year": 1993,
      "leg": "16",
      "leg_num": 0,
      "title": "Andorre",
      "start": {
        "city": "Andorre",
        "country": "42.506285,1.521801",
        "lat": "Saint-Lary-Soulan",
        "lng": null
      },
      "finish": {
        "city": "France",
        "country": "42.815835,0.320251",
        "lat": "224",
        "lng": "5"
      },
      "length": 0
    },
    {
      "id": "E-1993-17",
      "year": 1993,
      "leg": "17",
      "leg_num": 0,
      "title": "Tarbes",
      "start": {
        "city": "France",
        "country": "43.232951,0.078082",
        "lat": "Pau",
        "lng": null
      },
      "finish": {
        "city": "France",
        "country": "43.2951,-0.370797",
        "lat": "190",
        "lng": null
      },
      "length": 0
    },
    {
      "id": "E-1993-18",
      "year": 1993,
      "leg": "18",
      "leg_num": 0,
      "title": "Orthez",
      "start": {
        "city": "France",
        "country": "43.48756,-0.773928",
        "lat": "Bordeaux",
        "lng": null
      },
      "finish": {
        "city": "France",
        "country": "44.837789,-0.57918",
        "lat": "174",
        "lng": "5"
      },
      "length": 0
    },
    {
      "id": "E-1993-19",
      "year": 1993,
      "leg": "19",
      "leg_num": 0,
      "title": "Brétigny-sur-Orge",
      "start": {
        "city": "France",
        "country": "48.611486,2.30604",
        "lat": "Montlhéry",
        "lng": null
      },
      "finish": {
        "city": "France",
        "country": "48.638324,2.271502",
        "lat": "48",
        "lng": null
      },
      "length": 0
    },
    {
      "id": "E-1993-20",
      "year": 1993,
      "leg": "20",
      "leg_num": 0,
      "title": "Viry-Châtillon",
      "start": {
        "city": "France",
        "country": "48.666218,2.375902",
        "lat": "Paris",
        "lng": null
      },
      "finish": {
        "city": "France",
        "country": "48.856614,2.352222",
        "lat": "196",
        "lng": "5"
      },
      "length": 0
    }
  ]
}