{
  "year": 1995,
  "edition": 82,
  "total_length": 3635,
  "nb_legs": 20,
  "has_prologue": false,
  "nb_concurrents": 189,
  "nb_finishers": 115,
  "pct_finishers": 61,
  "winner_first_name": "Miguel",
  "winner_last_name": "Indurain",
  "winner_id": "miguel-indurain",
  "winner_total_time": "92h 44' 59\"",
  "winner_age": "31",
  "winner_country": "Espagne",
  "winner_avg_speed": "39,193",
  "ahead_of_2nd": "0h 04' 35\" ",
  "second_name": "A. Zulle",
  "second_country": "Suisse",
  "second_id": null,
  "ahead_of_3rd": "0h 06' 47\"",
  "third_name": "B. Rijs",
  "third_country": "Danemark",
  "third_id": null,
  "legs": [
    {
      "id": "E-1995-Prologue",
      "year": 1995,
      "leg": "Prologue",
      "leg_num": 0,
      "title": "Saint-Brieuc",
      "start": {
        "city": "France",
        "country": "48.51418,-2.765835",
        "lat": "Saint-Brieuc",
        "lng": null
      },
      "finish": {
        "city": "France",
        "country": "48.51418,-2.765835",
        "lat": "7",
        "lng": "3"
      },
      "length": 0
    },
    {
      "id": "E-1995-01",
      "year": 1995,
      "leg": "1",
      "leg_num": 0,
      "title": "Dinan",
      "start": {
        "city": "France",
        "country": "48.454366,-2.047327",
        "lat": "Lannion",
        "lng": null
      },
      "finish": {
        "city": "France",
        "country": "48.732084,-3.459144",
        "lat": "233",
        "lng": "5"
      },
      "length": 0
    },
    {
      "id": "E-1995-02",
      "year": 1995,
      "leg": "2",
      "leg_num": 0,
      "title": "Perros-Guirec",
      "start": {
        "city": "France",
        "country": "48.815456,-3.444943",
        "lat": "Vitré",
        "lng": null
      },
      "finish": {
        "city": "France",
        "country": "48.124746,-1.21543",
        "lat": "235",
        "lng": "5"
      },
      "length": 0
    },
    {
      "id": "E-1995-03",
      "year": 1995,
      "leg": "3",
      "leg_num": 0,
      "title": "Mayenne",
      "start": {
        "city": "France",
        "country": "48.306124,-0.620935",
        "lat": "Alençon",
        "lng": null
      },
      "finish": {
        "city": "France",
        "country": "48.432856,0.091266",
        "lat": "67",
        "lng": null
      },
      "length": 0
    },
    {
      "id": "E-1995-04",
      "year": 1995,
      "leg": "4",
      "leg_num": 0,
      "title": "Alençon",
      "start": {
        "city": "France",
        "country": "48.432856,0.091266",
        "lat": "Le Havre",
        "lng": null
      },
      "finish": {
        "city": "France",
        "country": "49.49437,0.107929",
        "lat": "162",
        "lng": null
      },
      "length": 0
    },
    {
      "id": "E-1995-05",
      "year": 1995,
      "leg": "5",
      "leg_num": 0,
      "title": "Fecamp",
      "start": {
        "city": "France",
        "country": "49.755601,0.380774",
        "lat": "Dunkerque",
        "lng": null
      },
      "finish": {
        "city": "France",
        "country": "51.03456,2.375202",
        "lat": "261",
        "lng": null
      },
      "length": 0
    },
    {
      "id": "E-1995-06",
      "year": 1995,
      "leg": "6",
      "leg_num": 0,
      "title": "Dunkerque",
      "start": {
        "city": "France",
        "country": "51.03456,2.375202",
        "lat": "Charleroi",
        "lng": null
      },
      "finish": {
        "city": "Belgique",
        "country": "50.41081,4.444643",
        "lat": "202",
        "lng": null
      },
      "length": 0
    },
    {
      "id": "E-1995-07",
      "year": 1995,
      "leg": "7",
      "leg_num": 0,
      "title": "Charleroi",
      "start": {
        "city": "Belgique",
        "country": "50.41081,4.444643",
        "lat": "Liège",
        "lng": null
      },
      "finish": {
        "city": "Belgique",
        "country": "50.632557,5.579666",
        "lat": "203",
        "lng": null
      },
      "length": 0
    },
    {
      "id": "E-1995-08",
      "year": 1995,
      "leg": "8",
      "leg_num": 0,
      "title": "Huy",
      "start": {
        "city": "Belgique",
        "country": "50.518715,5.239666",
        "lat": "Seraing",
        "lng": null
      },
      "finish": {
        "city": "Belgique",
        "country": "50.583333,5.5",
        "lat": "54",
        "lng": null
      },
      "length": 0
    },
    {
      "id": "E-1995-09",
      "year": 1995,
      "leg": "9",
      "leg_num": 0,
      "title": "Le Grand-Bornand",
      "start": {
        "city": "France",
        "country": "45.942027,6.426699",
        "lat": "La Plagne",
        "lng": null
      },
      "finish": {
        "city": "France",
        "country": "45.509874,6.659294",
        "lat": "160",
        "lng": null
      },
      "length": 0
    },
    {
      "id": "E-1995-10",
      "year": 1995,
      "leg": "10",
      "leg_num": 0,
      "title": "Aime",
      "start": {
        "city": "France",
        "country": "45.555982,6.652126",
        "lat": "L'Alpe d'Huez",
        "lng": null
      },
      "finish": {
        "city": "France",
        "country": "45.092624,6.068348",
        "lat": "162",
        "lng": "5"
      },
      "length": 0
    },
    {
      "id": "E-1995-11",
      "year": 1995,
      "leg": "11",
      "leg_num": 0,
      "title": "Le Bourg-d'Oisans",
      "start": {
        "city": "France",
        "country": "45.051951,6.030064",
        "lat": "Saint-Étienne",
        "lng": null
      },
      "finish": {
        "city": "France",
        "country": "45.439695,4.387178",
        "lat": "199",
        "lng": null
      },
      "length": 0
    },
    {
      "id": "E-1995-12",
      "year": 1995,
      "leg": "12",
      "leg_num": 0,
      "title": "Saint-Étienne",
      "start": {
        "city": "France",
        "country": "45.439695,4.387178",
        "lat": "Mende",
        "lng": null
      },
      "finish": {
        "city": "France",
        "country": "44.517611,3.501873",
        "lat": "222",
        "lng": "5"
      },
      "length": 0
    },
    {
      "id": "E-1995-13",
      "year": 1995,
      "leg": "13",
      "leg_num": 0,
      "title": "Mende",
      "start": {
        "city": "France",
        "country": "44.517611,3.501873",
        "lat": "Revel",
        "lng": null
      },
      "finish": {
        "city": "France",
        "country": "43.458611,2.004573",
        "lat": "245",
        "lng": null
      },
      "length": 0
    },
    {
      "id": "E-1995-14",
      "year": 1995,
      "leg": "14",
      "leg_num": 0,
      "title": "Saint-Orens",
      "start": {
        "city": "France",
        "country": "43.713938,0.907853",
        "lat": "Guzet-neige",
        "lng": null
      },
      "finish": {
        "city": "France",
        "country": "42.779877,1.299708",
        "lat": "164",
        "lng": null
      },
      "length": 0
    },
    {
      "id": "E-1995-15",
      "year": 1995,
      "leg": "15",
      "leg_num": 0,
      "title": "Saint-Girons",
      "start": {
        "city": "France",
        "country": "42.982876,1.146088",
        "lat": "Cauterets",
        "lng": null
      },
      "finish": {
        "city": "France",
        "country": "42.889054,-0.114246",
        "lat": "206",
        "lng": null
      },
      "length": 0
    },
    {
      "id": "E-1995-16",
      "year": 1995,
      "leg": "16",
      "leg_num": 0,
      "title": "Tarbes",
      "start": {
        "city": "France",
        "country": "43.232951,0.078082",
        "lat": "Pau",
        "lng": null
      },
      "finish": {
        "city": "France",
        "country": "43.2951,-0.370797",
        "lat": "149",
        "lng": null
      },
      "length": 0
    },
    {
      "id": "E-1995-17",
      "year": 1995,
      "leg": "17",
      "leg_num": 0,
      "title": "Pau",
      "start": {
        "city": "France",
        "country": "43.2951,-0.370797",
        "lat": "Bordeaux",
        "lng": null
      },
      "finish": {
        "city": "France",
        "country": "44.837789,-0.57918",
        "lat": "246",
        "lng": null
      },
      "length": 0
    },
    {
      "id": "E-1995-18",
      "year": 1995,
      "leg": "18",
      "leg_num": 0,
      "title": "Montpon-Ménestérol",
      "start": {
        "city": "France",
        "country": "45.009274,0.162",
        "lat": "Limoges",
        "lng": null
      },
      "finish": {
        "city": "France",
        "country": "45.833619,1.261105",
        "lat": "166",
        "lng": "5"
      },
      "length": 0
    },
    {
      "id": "E-1995-19",
      "year": 1995,
      "leg": "19",
      "leg_num": 0,
      "title": "Lac de Vassivière",
      "start": {
        "city": "France",
        "country": "45.791652,1.87608",
        "lat": "Lac de Vassivière",
        "lng": null
      },
      "finish": {
        "city": "France",
        "country": "45.791652,1.87608",
        "lat": "46",
        "lng": "5"
      },
      "length": 0
    },
    {
      "id": "E-1995-20",
      "year": 1995,
      "leg": "20",
      "leg_num": 0,
      "title": "Sainte-Geneviève-des-Bois",
      "start": {
        "city": "France",
        "country": "48.642943,2.326838",
        "lat": "Paris",
        "lng": null
      },
      "finish": {
        "city": "France",
        "country": "48.856614,2.352222",
        "lat": "155",
        "lng": null
      },
      "length": 0
    }
  ]
}