{
  "year": 1996,
  "edition": 83,
  "total_length": 3765,
  "nb_legs": 21,
  "has_prologue": false,
  "nb_concurrents": 198,
  "nb_finishers": 129,
  "pct_finishers": 65,
  "winner_first_name": "Bjarne",
  "winner_last_name": "Riis",
  "winner_id": "bjarne-riis",
  "winner_total_time": "95h 57' 16\"",
  "winner_age": "32",
  "winner_country": "Danemark",
  "winner_avg_speed": "39,227",
  "ahead_of_2nd": "0h 01' 41\" ",
  "second_name": "J. Ullrich",
  "second_country": "Allemagne",
  "second_id": "jan-ullrich",
  "ahead_of_3rd": "0h 04' 37\"",
  "third_name": "R. Virenque",
  "third_country": "France",
  "third_id": null,
  "legs": [
    {
      "id": "E-1996-01",
      "year": 1996,
      "leg": "1",
      "leg_num": 1,
      "title": "s-Hertogenbosch - 's-Hertogenbosch",
      "start": {
        "city": "Bois-le-Duc",
        "country": "Pays-Bas",
        "lat": "51.697816",
        "lng": "5.303675"
      },
      "finish": {
        "city": "Bois-le-Duc",
        "country": "Pays-Bas",
        "lat": "51.697816",
        "lng": "5.303675"
      },
      "length": 209,
      "type": null,
      "winner": {
        "name": null,
        "nationality": null
      },
      "leader": {
        "name": null,
        "nationality": null
      }
    },
    {
      "id": "E-1996-02",
      "year": 1996,
      "leg": "2",
      "leg_num": 2,
      "title": "s-Hertogenbosch - Wasquehal",
      "start": {
        "city": "Bois-le-Duc",
        "country": "Pays-Bas",
        "lat": "51.697816",
        "lng": "5.303675"
      },
      "finish": {
        "city": "Wasquehal",
        "country": "France",
        "lat": "50.669276",
        "lng": "3.130782"
      },
      "length": 247,
      "type": null,
      "winner": {
        "name": null,
        "nationality": null
      },
      "leader": {
        "name": null,
        "nationality": null
      }
    },
    {
      "id": "E-1996-03",
      "year": 1996,
      "leg": "3",
      "leg_num": 3,
      "title": "Wasquehal - Nogent-sur-Oise",
      "start": {
        "city": "Wasquehal",
        "country": "France",
        "lat": "50.669276",
        "lng": "3.130782"
      },
      "finish": {
        "city": "Nogent-sur-Oise",
        "country": "France",
        "lat": "49.278948",
        "lng": "2.464688"
      },
      "length": 195,
      "type": null,
      "winner": {
        "name": null,
        "nationality": null
      },
      "leader": {
        "name": null,
        "nationality": null
      }
    },
    {
      "id": "E-1996-04",
      "year": 1996,
      "leg": "4",
      "leg_num": 4,
      "title": "Soissons - Lac de Madine",
      "start": {
        "city": "Soissons",
        "country": "France",
        "lat": "49.376636",
        "lng": "3.32342"
      },
      "finish": {
        "city": "Lac de Madine",
        "country": "France",
        "lat": "48.921618",
        "lng": "5.736175"
      },
      "length": 232,
      "type": null,
      "winner": {
        "name": null,
        "nationality": null
      },
      "leader": {
        "name": null,
        "nationality": null
      }
    },
    {
      "id": "E-1996-05",
      "year": 1996,
      "leg": "5",
      "leg_num": 5,
      "title": "Lac de Madine - Besançon",
      "start": {
        "city": "Lac de Madine",
        "country": "France",
        "lat": "48.921618",
        "lng": "5.736175"
      },
      "finish": {
        "city": "Besançon",
        "country": "France",
        "lat": "47.237829",
        "lng": "6.024054"
      },
      "length": 232,
      "type": null,
      "winner": {
        "name": null,
        "nationality": null
      },
      "leader": {
        "name": null,
        "nationality": null
      }
    },
    {
      "id": "E-1996-06",
      "year": 1996,
      "leg": "6",
      "leg_num": 6,
      "title": "Arc-et-Senans - Aix-les-Bains",
      "start": {
        "city": "Arc-et-Senans",
        "country": "France",
        "lat": "47.032958",
        "lng": "5.781165"
      },
      "finish": {
        "city": "Aix-les-Bains",
        "country": "France",
        "lat": "45.692341",
        "lng": "5.908998"
      },
      "length": 207,
      "type": null,
      "winner": {
        "name": null,
        "nationality": null
      },
      "leader": {
        "name": null,
        "nationality": null
      }
    },
    {
      "id": "E-1996-07",
      "year": 1996,
      "leg": "7",
      "leg_num": 7,
      "title": "Chambéry - Les Arcs (Savoie)",
      "start": {
        "city": "Chambéry",
        "country": "France",
        "lat": "45.564601",
        "lng": "5.917781"
      },
      "finish": {
        "city": "Les Arcs, Bourg-Saint-Maurice",
        "country": "France",
        "lat": "45.594058",
        "lng": "6.796495"
      },
      "length": 200,
      "type": null,
      "winner": {
        "name": null,
        "nationality": null
      },
      "leader": {
        "name": null,
        "nationality": null
      }
    },
    {
      "id": "E-1996-08",
      "year": 1996,
      "leg": "8",
      "leg_num": 8,
      "title": "Bourg-Saint-Maurice - Val-d'Isère",
      "start": {
        "city": "Bourg-Saint-Maurice",
        "country": "France",
        "lat": "45.618598",
        "lng": "6.769548"
      },
      "finish": {
        "city": "Val-d'Isère",
        "country": "France",
        "lat": "45.448034",
        "lng": "6.980226"
      },
      "length": 30,
      "type": null,
      "winner": {
        "name": null,
        "nationality": null
      },
      "leader": {
        "name": null,
        "nationality": null
      }
    },
    {
      "id": "E-1996-09",
      "year": 1996,
      "leg": "9",
      "leg_num": 9,
      "title": "Le Monêtier-les-Bains - Sestrières",
      "start": {
        "city": "Le Monêtier-les-Bains",
        "country": "France",
        "lat": "44.976254",
        "lng": "6.507839"
      },
      "finish": {
        "city": "Sestrières",
        "country": "Italie",
        "lat": "44.9565",
        "lng": "6.879234"
      },
      "length": 46,
      "type": null,
      "winner": {
        "name": null,
        "nationality": null
      },
      "leader": {
        "name": null,
        "nationality": null
      }
    },
    {
      "id": "E-1996-10",
      "year": 1996,
      "leg": "10",
      "leg_num": 10,
      "title": "Turin - Gap",
      "start": {
        "city": "Turin",
        "country": "Italie",
        "lat": "45.070982",
        "lng": "7.685676"
      },
      "finish": {
        "city": "Gap",
        "country": "France",
        "lat": "44.559638",
        "lng": "6.079758"
      },
      "length": 208,
      "type": null,
      "winner": {
        "name": null,
        "nationality": null
      },
      "leader": {
        "name": null,
        "nationality": null
      }
    },
    {
      "id": "E-1996-11",
      "year": 1996,
      "leg": "11",
      "leg_num": 11,
      "title": "Gap - Valence",
      "start": {
        "city": "Gap",
        "country": "France",
        "lat": "44.559638",
        "lng": "6.079758"
      },
      "finish": {
        "city": "Valence",
        "country": "France",
        "lat": "44.933393",
        "lng": "4.89236"
      },
      "length": 202,
      "type": null,
      "winner": {
        "name": null,
        "nationality": null
      },
      "leader": {
        "name": null,
        "nationality": null
      }
    },
    {
      "id": "E-1996-12",
      "year": 1996,
      "leg": "12",
      "leg_num": 12,
      "title": "Valence - Le Puy-en-Velay",
      "start": {
        "city": "Valence",
        "country": "France",
        "lat": "44.933393",
        "lng": "4.89236"
      },
      "finish": {
        "city": "Le Puy-en-Velay",
        "country": "France",
        "lat": "45.042768",
        "lng": "3.882936"
      },
      "length": 143,
      "type": null,
      "winner": {
        "name": null,
        "nationality": null
      },
      "leader": {
        "name": null,
        "nationality": null
      }
    },
    {
      "id": "E-1996-13",
      "year": 1996,
      "leg": "13",
      "leg_num": 13,
      "title": "Le Puy-en-Velay - Super Besse",
      "start": {
        "city": "Le Puy-en-Velay",
        "country": "France",
        "lat": "45.042768",
        "lng": "3.882936"
      },
      "finish": {
        "city": "Super Besse, Besse",
        "country": "France",
        "lat": "45.508022",
        "lng": "2.861518"
      },
      "length": 177,
      "type": null,
      "winner": {
        "name": null,
        "nationality": null
      },
      "leader": {
        "name": null,
        "nationality": null
      }
    },
    {
      "id": "E-1996-14",
      "year": 1996,
      "leg": "14",
      "leg_num": 14,
      "title": "Besse-Tulle",
      "start": {
        "city": "Besse-en-Chandesse",
        "country": "France",
        "lat": "45.510908",
        "lng": "2.933859"
      },
      "finish": {
        "city": "Tulle",
        "country": "France",
        "lat": "45.26565",
        "lng": "1.771697"
      },
      "length": 185,
      "type": null,
      "winner": {
        "name": null,
        "nationality": null
      },
      "leader": {
        "name": null,
        "nationality": null
      }
    },
    {
      "id": "E-1996-15",
      "year": 1996,
      "leg": "15",
      "leg_num": 15,
      "title": "Brive - Villeneuve-sur-Lot",
      "start": {
        "city": "Brive",
        "country": "France",
        "lat": "45.159555",
        "lng": "1.533937"
      },
      "finish": {
        "city": "Villeneuve-sur-Lot",
        "country": "France",
        "lat": "44.407126",
        "lng": "0.703561"
      },
      "length": 176,
      "type": null,
      "winner": {
        "name": null,
        "nationality": null
      },
      "leader": {
        "name": null,
        "nationality": null
      }
    },
    {
      "id": "E-1996-16",
      "year": 1996,
      "leg": "16",
      "leg_num": 16,
      "title": "Agen - Lourdes-Hautacam",
      "start": {
        "city": "Agen",
        "country": "France",
        "lat": "44.203142",
        "lng": "0.616363"
      },
      "finish": {
        "city": "Hautacam, Préchac",
        "country": "France",
        "lat": "42.972222",
        "lng": "-0.0075"
      },
      "length": 199,
      "type": null,
      "winner": {
        "name": null,
        "nationality": null
      },
      "leader": {
        "name": null,
        "nationality": null
      }
    },
    {
      "id": "E-1996-17",
      "year": 1996,
      "leg": "17",
      "leg_num": 17,
      "title": "Argelès-Gazost - Pampelune",
      "start": {
        "city": "Argelès-Gazost",
        "country": "France",
        "lat": "43.005028",
        "lng": "-0.101087"
      },
      "finish": {
        "city": "Pampelune",
        "country": "Espagne",
        "lat": "42.811663",
        "lng": "-1.648265"
      },
      "length": 262,
      "type": null,
      "winner": {
        "name": null,
        "nationality": null
      },
      "leader": {
        "name": null,
        "nationality": null
      }
    },
    {
      "id": "E-1996-18",
      "year": 1996,
      "leg": "18",
      "leg_num": 18,
      "title": "Pampelune - Hendaye",
      "start": {
        "city": "Pampelune",
        "country": "Espagne",
        "lat": "42.811663",
        "lng": "-1.648265"
      },
      "finish": {
        "city": "Hendaye",
        "country": "France",
        "lat": "43.359399",
        "lng": "-1.766148"
      },
      "length": 154,
      "type": null,
      "winner": {
        "name": null,
        "nationality": null
      },
      "leader": {
        "name": null,
        "nationality": null
      }
    },
    {
      "id": "E-1996-19",
      "year": 1996,
      "leg": "19",
      "leg_num": 19,
      "title": "Hendaye - Bordeaux",
      "start": {
        "city": "Hendaye",
        "country": "France",
        "lat": "43.359399",
        "lng": "-1.766148"
      },
      "finish": {
        "city": "Bordeaux",
        "country": "France",
        "lat": "44.837789",
        "lng": "-0.57918"
      },
      "length": 226,
      "type": null,
      "winner": {
        "name": null,
        "nationality": null
      },
      "leader": {
        "name": null,
        "nationality": null
      }
    },
    {
      "id": "E-1996-20",
      "year": 1996,
      "leg": "20",
      "leg_num": 20,
      "title": "Bordeaux - Saint-Émilion",
      "start": {
        "city": "Bordeaux",
        "country": "France",
        "lat": "44.837789",
        "lng": "-0.57918"
      },
      "finish": {
        "city": "Saint-Émilion",
        "country": "France",
        "lat": "44.894387",
        "lng": "-0.155729"
      },
      "length": 63,
      "type": null,
      "winner": {
        "name": null,
        "nationality": null
      },
      "leader": {
        "name": null,
        "nationality": null
      }
    },
    {
      "id": "E-1996-21",
      "year": 1996,
      "leg": "21",
      "leg_num": 21,
      "title": "Palaiseau - Paris",
      "start": {
        "city": "Palaiseau",
        "country": "France",
        "lat": "48.714509",
        "lng": "2.245748"
      },
      "finish": {
        "city": "Paris",
        "country": "France",
        "lat": "48.856614",
        "lng": "2.352222"
      },
      "length": 147,
      "type": null,
      "winner": {
        "name": null,
        "nationality": null
      },
      "leader": {
        "name": null,
        "nationality": null
      }
    },
    {
      "id": "E-1996-Prologue",
      "year": 1996,
      "leg": "Prologue",
      "leg_num": 22,
      "title": "s-Hertogenbosch - 's-Hertogenbosch",
      "start": {
        "city": "Bois-le-Duc",
        "country": "Pays-Bas",
        "lat": "51.697816",
        "lng": "5.303675"
      },
      "finish": {
        "city": "Bois-le-Duc",
        "country": "Pays-Bas",
        "lat": "51.697816",
        "lng": "5.303675"
      },
      "length": 9,
      "type": null,
      "winner": {
        "name": null,
        "nationality": null
      },
      "leader": {
        "name": null,
        "nationality": null
      }
    }
  ]
}