{
  "year": 1996,
  "edition": 83,
  "total_length": 3765,
  "nb_legs": 21,
  "has_prologue": false,
  "nb_concurrents": 198,
  "nb_finishers": 129,
  "pct_finishers": 65,
  "winner_first_name": "Bjarne",
  "winner_last_name": "Riis",
  "winner_id": "bjarne-riis",
  "winner_total_time": "95h 57' 16\"",
  "winner_age": "32",
  "winner_country": "Danemark",
  "winner_avg_speed": "39,227",
  "ahead_of_2nd": "0h 01' 41\" ",
  "second_name": "J. Ullrich",
  "second_country": "Allemagne",
  "second_id": "jan-ullrich",
  "ahead_of_3rd": "0h 04' 37\"",
  "third_name": "R. Virenque",
  "third_country": "France",
  "third_id": null,
  "legs": [
    {
      "id": "E-1996-Prologue",
      "year": 1996,
      "leg": "Prologue",
      "leg_num": 0,
      "title": "Bois-le-Duc",
      "start": {
        "city": "Pays-Bas",
        "country": "51.697816,5.303675",
        "lat": "Bois-le-Duc",
        "lng": null
      },
      "finish": {
        "city": "Pays-Bas",
        "country": "51.697816,5.303675",
        "lat": "9",
        "lng": "4"
      },
      "length": 0
    },
    {
      "id": "E-1996-01",
      "year": 1996,
      "leg": "1",
      "leg_num": 0,
      "title": "Bois-le-Duc",
      "start": {
        "city": "Pays-Bas",
        "country": "51.697816,5.303675",
        "lat": "Bois-le-Duc",
        "lng": null
      },
      "finish": {
        "city": "Pays-Bas",
        "country": "51.697816,5.303675",
        "lat": "209",
        "lng": null
      },
      "length": 0
    },
    {
      "id": "E-1996-02",
      "year": 1996,
      "leg": "2",
      "leg_num": 0,
      "title": "Bois-le-Duc",
      "start": {
        "city": "Pays-Bas",
        "country": "51.697816,5.303675",
        "lat": "Wasquehal",
        "lng": null
      },
      "finish": {
        "city": "France",
        "country": "50.669276,3.130782",
        "lat": "247",
        "lng": "5"
      },
      "length": 0
    },
    {
      "id": "E-1996-03",
      "year": 1996,
      "leg": "3",
      "leg_num": 0,
      "title": "Wasquehal",
      "start": {
        "city": "France",
        "country": "50.669276,3.130782",
        "lat": "Nogent-sur-Oise",
        "lng": null
      },
      "finish": {
        "city": "France",
        "country": "49.278948,2.464688",
        "lat": "195",
        "lng": null
      },
      "length": 0
    },
    {
      "id": "E-1996-04",
      "year": 1996,
      "leg": "4",
      "leg_num": 0,
      "title": "Soissons",
      "start": {
        "city": "France",
        "country": "49.376636,3.32342",
        "lat": "Lac de Madine",
        "lng": null
      },
      "finish": {
        "city": "France",
        "country": "48.921618,5.736175",
        "lat": "232",
        "lng": null
      },
      "length": 0
    },
    {
      "id": "E-1996-05",
      "year": 1996,
      "leg": "5",
      "leg_num": 0,
      "title": "Lac de Madine",
      "start": {
        "city": "France",
        "country": "48.921618,5.736175",
        "lat": "Besançon",
        "lng": null
      },
      "finish": {
        "city": "France",
        "country": "47.237829,6.024054",
        "lat": "232",
        "lng": null
      },
      "length": 0
    },
    {
      "id": "E-1996-06",
      "year": 1996,
      "leg": "6",
      "leg_num": 0,
      "title": "Arc-et-Senans",
      "start": {
        "city": "France",
        "country": "47.032958,5.781165",
        "lat": "Aix-les-Bains",
        "lng": null
      },
      "finish": {
        "city": "France",
        "country": "45.692341,5.908998",
        "lat": "207",
        "lng": null
      },
      "length": 0
    },
    {
      "id": "E-1996-07",
      "year": 1996,
      "leg": "7",
      "leg_num": 0,
      "title": "Chambéry",
      "start": {
        "city": "France",
        "country": "45.564601,5.917781",
        "lat": "Les Arcs",
        "lng": " Bourg-Saint-Maurice"
      },
      "finish": {
        "city": "France",
        "country": "45.594058,6.796495",
        "lat": "200",
        "lng": null
      },
      "length": 0
    },
    {
      "id": "E-1996-08",
      "year": 1996,
      "leg": "8",
      "leg_num": 0,
      "title": "Bourg-Saint-Maurice",
      "start": {
        "city": "France",
        "country": "45.618598,6.769548",
        "lat": "Val-d'Isère",
        "lng": null
      },
      "finish": {
        "city": "France",
        "country": "45.448034,6.980226",
        "lat": "30",
        "lng": "5"
      },
      "length": 0
    },
    {
      "id": "E-1996-09",
      "year": 1996,
      "leg": "9",
      "leg_num": 0,
      "title": "Le Monêtier-les-Bains",
      "start": {
        "city": "France",
        "country": "44.976254,6.507839",
        "lat": "Sestrières",
        "lng": null
      },
      "finish": {
        "city": "Italie",
        "country": "44.9565,6.879234",
        "lat": "46",
        "lng": null
      },
      "length": 0
    },
    {
      "id": "E-1996-10",
      "year": 1996,
      "leg": "10",
      "leg_num": 0,
      "title": "Turin",
      "start": {
        "city": "Italie",
        "country": "45.070982,7.685676",
        "lat": "Gap",
        "lng": null
      },
      "finish": {
        "city": "France",
        "country": "44.559638,6.079758",
        "lat": "208",
        "lng": "5"
      },
      "length": 0
    },
    {
      "id": "E-1996-11",
      "year": 1996,
      "leg": "11",
      "leg_num": 0,
      "title": "Gap",
      "start": {
        "city": "France",
        "country": "44.559638,6.079758",
        "lat": "Valence",
        "lng": null
      },
      "finish": {
        "city": "France",
        "country": "44.933393,4.89236",
        "lat": "202",
        "lng": null
      },
      "length": 0
    },
    {
      "id": "E-1996-12",
      "year": 1996,
      "leg": "12",
      "leg_num": 0,
      "title": "Valence",
      "start": {
        "city": "France",
        "country": "44.933393,4.89236",
        "lat": "Le Puy-en-Velay",
        "lng": null
      },
      "finish": {
        "city": "France",
        "country": "45.042768,3.882936",
        "lat": "143",
        "lng": "5"
      },
      "length": 0
    },
    {
      "id": "E-1996-13",
      "year": 1996,
      "leg": "13",
      "leg_num": 0,
      "title": "Le Puy-en-Velay",
      "start": {
        "city": "France",
        "country": "45.042768,3.882936",
        "lat": "Super Besse",
        "lng": " Besse"
      },
      "finish": {
        "city": "France",
        "country": "45.508022,2.861518",
        "lat": "177",
        "lng": null
      },
      "length": 0
    },
    {
      "id": "E-1996-14",
      "year": 1996,
      "leg": "14",
      "leg_num": 0,
      "title": "Besse-en-Chandesse",
      "start": {
        "city": "France",
        "country": "45.510908,2.933859",
        "lat": "Tulle",
        "lng": null
      },
      "finish": {
        "city": "France",
        "country": "45.26565,1.771697",
        "lat": "185",
        "lng": null
      },
      "length": 0
    },
    {
      "id": "E-1996-15",
      "year": 1996,
      "leg": "15",
      "leg_num": 0,
      "title": "Brive",
      "start": {
        "city": "France",
        "country": "45.159555,1.533937",
        "lat": "Villeneuve-sur-Lot",
        "lng": null
      },
      "finish": {
        "city": "France",
        "country": "44.407126,0.703561",
        "lat": "176",
        "lng": null
      },
      "length": 0
    },
    {
      "id": "E-1996-16",
      "year": 1996,
      "leg": "16",
      "leg_num": 0,
      "title": "Agen",
      "start": {
        "city": "France",
        "country": "44.203142,0.616363",
        "lat": "Hautacam",
        "lng": " Préchac"
      },
      "finish": {
        "city": "France",
        "country": "42.972222,-0.0075",
        "lat": "199",
        "lng": null
      },
      "length": 0
    },
    {
      "id": "E-1996-17",
      "year": 1996,
      "leg": "17",
      "leg_num": 0,
      "title": "Argelès-Gazost",
      "start": {
        "city": "France",
        "country": "43.005028,-0.101087",
        "lat": "Pampelune",
        "lng": null
      },
      "finish": {
        "city": "Espagne",
        "country": "42.811663,-1.648265",
        "lat": "262",
        "lng": null
      },
      "length": 0
    },
    {
      "id": "E-1996-18",
      "year": 1996,
      "leg": "18",
      "leg_num": 0,
      "title": "Pampelune",
      "start": {
        "city": "Espagne",
        "country": "42.811663,-1.648265",
        "lat": "Hendaye",
        "lng": null
      },
      "finish": {
        "city": "France",
        "country": "43.359399,-1.766148",
        "lat": "154",
        "lng": "5"
      },
      "length": 0
    },
    {
      "id": "E-1996-19",
      "year": 1996,
      "leg": "19",
      "leg_num": 0,
      "title": "Hendaye",
      "start": {
        "city": "France",
        "country": "43.359399,-1.766148",
        "lat": "Bordeaux",
        "lng": null
      },
      "finish": {
        "city": "France",
        "country": "44.837789,-0.57918",
        "lat": "226",
        "lng": "5"
      },
      "length": 0
    },
    {
      "id": "E-1996-20",
      "year": 1996,
      "leg": "20",
      "leg_num": 0,
      "title": "Bordeaux",
      "start": {
        "city": "France",
        "country": "44.837789,-0.57918",
        "lat": "Saint-Émilion",
        "lng": null
      },
      "finish": {
        "city": "France",
        "country": "44.894387,-0.155729",
        "lat": "63",
        "lng": "5"
      },
      "length": 0
    },
    {
      "id": "E-1996-21",
      "year": 1996,
      "leg": "21",
      "leg_num": 0,
      "title": "Palaiseau",
      "start": {
        "city": "France",
        "country": "48.714509,2.245748",
        "lat": "Paris",
        "lng": null
      },
      "finish": {
        "city": "France",
        "country": "48.856614,2.352222",
        "lat": "147",
        "lng": "5"
      },
      "length": 0
    }
  ]
}