{
  "year": 1996,
  "edition": 83,
  "total_length": 3765,
  "nb_legs": 21,
  "has_prologue": true,
  "nb_concurrents": 198,
  "nb_finishers": 129,
  "pct_finishers": 65,
  "winner_name": "Bjarne Riis",
  "winner_time": "95h 57’ 16”",
  "ahead_of_2nd": "0h 01' 41\" ",
  "second_name": "J. Ullrich",
  "second_country": "Allemagne",
  "ahead_of_3rd": "0h 04' 37\"",
  "third_name": "R. Virenque",
  "third_country": "R. Virenque",
  "legs": [
    {
      "id": "E-1996-Prologue",
      "year": 1996,
      "leg": 0,
      "title": "'s-Hertogenbosch - 's-Hertogenbosch",
      "start": {
        "city": "Bois-le-Duc",
        "country": "Pays-Bas",
        "lng": "5.303675",
        "lat": "51.697816"
      },
      "finish": {
        "city": "Bois-le-Duc",
        "country": "Pays-Bas",
        "lng": "5.303675",
        "lat": "51.697816"
      },
      "length": 147,
      "type": null,
      "winner": {
        "name": "Drapeau : ItalieFabio Baldato",
        "nationality": null
      },
      "leader": {
        "name": "Drapeau : DanemarkBjarne Riis",
        "nationality": null
      }
    },
    {
      "id": "E-1996-01",
      "year": 1996,
      "leg": 1,
      "title": "'s-Hertogenbosch - 's-Hertogenbosch",
      "start": {
        "city": "Bois-le-Duc",
        "country": "Pays-Bas",
        "lng": "5.303675",
        "lat": "51.697816"
      },
      "finish": {
        "city": "Bois-le-Duc",
        "country": "Pays-Bas",
        "lng": "5.303675",
        "lat": "51.697816"
      },
      "length": 9,
      "type": "(CLM)",
      "winner": {
        "name": "Drapeau : SuisseAlex Zülle",
        "nationality": null
      },
      "leader": {
        "name": "Drapeau : SuisseAlex Zülle",
        "nationality": null
      }
    },
    {
      "id": "E-1996-02",
      "year": 1996,
      "leg": 2,
      "title": "'s-Hertogenbosch - Wasquehal",
      "start": {
        "city": "Bois-le-Duc",
        "country": "Pays-Bas",
        "lng": "5.303675",
        "lat": "51.697816"
      },
      "finish": {
        "city": "Le Puy-en-Velay",
        "country": "France",
        "lng": "3.882936",
        "lat": "45.042768"
      },
      "length": 195,
      "type": null,
      "winner": {
        "name": "Drapeau : AllemagneErik Zabel",
        "nationality": null
      },
      "leader": {
        "name": "Drapeau : FranceFrédéric Moncassin",
        "nationality": null
      }
    },
    {
      "id": "E-1996-03",
      "year": 1996,
      "leg": 3,
      "title": "Wasquehal - Nogent-sur-Oise",
      "start": {
        "city": "Wasquehal",
        "country": "France",
        "lng": "3.130782",
        "lat": "50.669276"
      },
      "finish": {
        "city": "Villeneuve-sur-Lot",
        "country": "France",
        "lng": "0.703561",
        "lat": "44.407126"
      },
      "length": 207,
      "type": null,
      "winner": {
        "name": "Drapeau : Pays-BasMichael Boogerd",
        "nationality": null
      },
      "leader": {
        "name": "Drapeau : FranceStéphane Heulot",
        "nationality": null
      }
    },
    {
      "id": "E-1996-04",
      "year": 1996,
      "leg": 4,
      "title": "Soissons - Lac de Madine",
      "start": {
        "city": "Soissons",
        "country": "France",
        "lng": "3.32342",
        "lat": "49.376636"
      },
      "finish": {
        "city": "Hautacam, Préchac",
        "country": "France",
        "lng": "-0.072462",
        "lat": "42.961214"
      },
      "length": 200,
      "type": "Étape de montagne",
      "winner": {
        "name": "Drapeau : FranceLuc Leblanc",
        "nationality": null
      },
      "leader": {
        "name": "Drapeau : RussieEvgueni Berzin",
        "nationality": null
      }
    },
    {
      "id": "E-1996-05",
      "year": 1996,
      "leg": 5,
      "title": "Lac de Madine - Besançon",
      "start": {
        "city": "Lac de Madine",
        "country": "France",
        "lng": "5.736175",
        "lat": "48.921618"
      },
      "finish": {
        "city": "Pampelune",
        "country": "Espagne",
        "lng": "-1.648265",
        "lat": "42.811663"
      },
      "length": 30,
      "type": "Étape de montagne (CLM)",
      "winner": {
        "name": "Drapeau : RussieEvgueni Berzin",
        "nationality": null
      },
      "leader": {
        "name": "Drapeau : RussieEvgueni Berzin",
        "nationality": null
      }
    },
    {
      "id": "E-1996-06",
      "year": 1996,
      "leg": 6,
      "title": "Arc-et-Senans - Aix-les-Bains",
      "start": {
        "city": "Arc-et-Senans",
        "country": "France",
        "lng": "5.781165",
        "lat": "47.032958"
      },
      "finish": {
        "city": "Hendaye",
        "country": "France",
        "lng": "-1.766148",
        "lat": "43.359399"
      },
      "length": 46,
      "type": "Étape de montagne",
      "winner": {
        "name": "Drapeau : DanemarkBjarne Riis",
        "nationality": null
      },
      "leader": {
        "name": "Drapeau : DanemarkBjarne Riis",
        "nationality": null
      }
    },
    {
      "id": "E-1996-07",
      "year": 1996,
      "leg": 7,
      "title": "Chambéry - Les Arcs (Savoie)",
      "start": {
        "city": "Chambéry",
        "country": "France",
        "lng": "5.917781",
        "lat": "45.564601"
      },
      "finish": {
        "city": "Bordeaux",
        "country": "France",
        "lng": "-0.57918",
        "lat": "44.837789"
      },
      "length": 208,
      "type": "Étape de montagne",
      "winner": {
        "name": "Drapeau : AllemagneErik Zabel",
        "nationality": null
      },
      "leader": {
        "name": "Drapeau : DanemarkBjarne Riis",
        "nationality": null
      }
    },
    {
      "id": "E-1996-08",
      "year": 1996,
      "leg": 8,
      "title": "Bourg-Saint-Maurice - Val-d'Isère",
      "start": {
        "city": "Bourg-Saint-Maurice",
        "country": "France",
        "lng": "6.769548",
        "lat": "45.618598"
      },
      "finish": {
        "city": "Saint-Émilion",
        "country": "France",
        "lng": "-0.155729",
        "lat": "44.894387"
      },
      "length": 143,
      "type": "Étape de montagne",
      "winner": {
        "name": "Drapeau : SuissePascal Richard",
        "nationality": null
      },
      "leader": {
        "name": "Drapeau : DanemarkBjarne Riis",
        "nationality": null
      }
    },
    {
      "id": "E-1996-09",
      "year": 1996,
      "leg": 9,
      "title": "Le Monêtier-les-Bains - Sestrières",
      "start": {
        "city": "Le Monêtier-les-Bains",
        "country": "France",
        "lng": "6.507839",
        "lat": "44.976254"
      },
      "finish": {
        "city": "Paris",
        "country": "France",
        "lng": "2.352222",
        "lat": "48.856614"
      },
      "length": 177,
      "type": "Étape de montagne",
      "winner": {
        "name": "Drapeau : DanemarkRolf Sørensen",
        "nationality": null
      },
      "leader": {
        "name": "Drapeau : DanemarkBjarne Riis",
        "nationality": null
      }
    },
    {
      "id": "E-1996-10",
      "year": 1996,
      "leg": 10,
      "title": "Turin - Gap",
      "start": {
        "city": "Turin",
        "country": "Italie",
        "lng": "7.685676",
        "lat": "45.070982"
      },
      "finish": {
        "city": "Wasquehal",
        "country": "France",
        "lng": "3.130782",
        "lat": "50.669276"
      },
      "length": 202,
      "type": "Étape de montagne",
      "winner": {
        "name": "Drapeau : ColombieJosé Jaime González",
        "nationality": null
      },
      "leader": {
        "name": "Drapeau : DanemarkBjarne Riis",
        "nationality": null
      }
    },
    {
      "id": "E-1996-11",
      "year": 1996,
      "leg": 11,
      "title": "Gap - Valence",
      "start": {
        "city": "Gap",
        "country": "France",
        "lng": "6.079758",
        "lat": "44.559638"
      },
      "finish": {
        "city": "Nogent-sur-Oise",
        "country": "France",
        "lng": "2.464688",
        "lat": "49.278948"
      },
      "length": 185,
      "type": null,
      "winner": {
        "name": "Drapeau : OuzbékistanDjamolidine Abdoujaparov",
        "nationality": null
      },
      "leader": {
        "name": "Drapeau : DanemarkBjarne Riis",
        "nationality": null
      }
    },
    {
      "id": "E-1996-12",
      "year": 1996,
      "leg": 12,
      "title": "Valence - Le Puy-en-Velay",
      "start": {
        "city": "Valence",
        "country": "France",
        "lng": "4.89236",
        "lat": "44.933393"
      },
      "finish": {
        "city": "Lac de Madine",
        "country": "France",
        "lng": "5.736175",
        "lat": "48.921618"
      },
      "length": 176,
      "type": null,
      "winner": {
        "name": "Drapeau : ItalieMassimo Podenzana",
        "nationality": null
      },
      "leader": {
        "name": "Drapeau : DanemarkBjarne Riis",
        "nationality": null
      }
    },
    {
      "id": "E-1996-13",
      "year": 1996,
      "leg": 13,
      "title": "Le Puy-en-Velay - Super Besse",
      "start": {
        "city": "Le Puy-en-Velay",
        "country": "France",
        "lng": "3.882936",
        "lat": "45.042768"
      },
      "finish": {
        "city": "Besançon",
        "country": "France",
        "lng": "6.024054",
        "lat": "47.237829"
      },
      "length": 199,
      "type": "Étape de montagne",
      "winner": {
        "name": "Drapeau : DanemarkBjarne Riis",
        "nationality": null
      },
      "leader": {
        "name": "Drapeau : DanemarkBjarne Riis",
        "nationality": null
      }
    },
    {
      "id": "E-1996-14",
      "year": 1996,
      "leg": 14,
      "title": "Besse-Tulle",
      "start": {
        "city": "Besse",
        "country": "France",
        "lng": "6.176963",
        "lat": "43.34952"
      },
      "finish": {
        "city": "Aix-les-Bains",
        "country": "France",
        "lng": "5.908998",
        "lat": "45.692341"
      },
      "length": 262,
      "type": "Étape de montagne",
      "winner": {
        "name": "Drapeau : SuisseLaurent Dufaux",
        "nationality": null
      },
      "leader": {
        "name": "Drapeau : DanemarkBjarne Riis",
        "nationality": null
      }
    },
    {
      "id": "E-1996-15",
      "year": 1996,
      "leg": 15,
      "title": "Brive - Villeneuve-sur-Lot",
      "start": {
        "city": "Brive",
        "country": "France",
        "lng": "1.533937",
        "lat": "45.159555"
      },
      "finish": {
        "city": "Les Arcs, Bourg-Saint-Maurice",
        "country": "France",
        "lng": "6.796495",
        "lat": "45.594058"
      },
      "length": 154,
      "type": "Étape de montagne",
      "winner": {
        "name": "Drapeau : Pays-BasBart Voskamp",
        "nationality": null
      },
      "leader": {
        "name": "Drapeau : DanemarkBjarne Riis",
        "nationality": null
      }
    },
    {
      "id": "E-1996-16",
      "year": 1996,
      "leg": 16,
      "title": "Agen - Lourdes-Hautacam",
      "start": {
        "city": "Agen",
        "country": "France",
        "lng": "0.616363",
        "lat": "44.203142"
      },
      "finish": {
        "city": "Val-d'Isère",
        "country": "France",
        "lng": "6.980226",
        "lat": "45.448034"
      },
      "length": 226,
      "type": null,
      "winner": {
        "name": "Drapeau : FranceFrédéric Moncassin",
        "nationality": null
      },
      "leader": {
        "name": "Drapeau : DanemarkBjarne Riis",
        "nationality": null
      }
    },
    {
      "id": "E-1996-17",
      "year": 1996,
      "leg": 17,
      "title": "Argelès-Gazost - Pampelune",
      "start": {
        "city": "Argelès-Gazost",
        "country": "France",
        "lng": "-0.101087",
        "lat": "43.005028"
      },
      "finish": {
        "city": "Sestrières",
        "country": "Italie",
        "lng": "6.879234",
        "lat": "44.9565"
      },
      "length": 63,
      "type": "(CLM)",
      "winner": {
        "name": "Drapeau : AllemagneJan Ullrich",
        "nationality": null
      },
      "leader": {
        "name": "Drapeau : DanemarkBjarne Riis",
        "nationality": null
      }
    },
    {
      "id": "E-1996-18",
      "year": 1996,
      "leg": 18,
      "title": "Pampelune - Hendaye",
      "start": {
        "city": "Pampelune",
        "country": "Espagne",
        "lng": "-1.648265",
        "lat": "42.811663"
      },
      "finish": {
        "city": "Gap",
        "country": "France",
        "lng": "6.079758",
        "lat": "44.559638"
      },
      "length": 209,
      "type": null,
      "winner": {
        "name": "Drapeau : FranceFrédéric Moncassin",
        "nationality": null
      },
      "leader": {
        "name": "Drapeau : SuisseAlex Zülle",
        "nationality": null
      }
    },
    {
      "id": "E-1996-19",
      "year": 1996,
      "leg": 19,
      "title": "Hendaye - Bordeaux",
      "start": {
        "city": "Hendaye",
        "country": "France",
        "lng": "-1.766148",
        "lat": "43.359399"
      },
      "finish": {
        "city": "Valence",
        "country": "France",
        "lng": "4.89236",
        "lat": "44.933393"
      },
      "length": 247,
      "type": null,
      "winner": {
        "name": "Drapeau : ItalieMario Cipollini",
        "nationality": null
      },
      "leader": {
        "name": "Drapeau : SuisseAlex Zülle",
        "nationality": null
      }
    },
    {
      "id": "E-1996-20",
      "year": 1996,
      "leg": 20,
      "title": "Bordeaux - Saint-Émilion",
      "start": {
        "city": "Bordeaux",
        "country": "France",
        "lng": "-0.57918",
        "lat": "44.837789"
      },
      "finish": {
        "city": "Super Besse, Besse",
        "country": "France",
        "lng": "2.861518",
        "lat": "45.508022"
      },
      "length": 232,
      "type": null,
      "winner": {
        "name": "Drapeau : FranceCyril Saugrain",
        "nationality": null
      },
      "leader": {
        "name": "Drapeau : FranceStéphane Heulot",
        "nationality": null
      }
    },
    {
      "id": "E-1996-21",
      "year": 1996,
      "leg": 21,
      "title": "Palaiseau - Paris",
      "start": {
        "city": "Palaiseau",
        "country": "France",
        "lng": "2.245748",
        "lat": "48.714509"
      },
      "finish": {
        "city": "Tulle",
        "country": "France",
        "lng": "1.771697",
        "lat": "45.26565"
      },
      "length": 232,
      "type": null,
      "winner": {
        "name": "Drapeau : Pays-BasJeroen Blijlevens",
        "nationality": null
      },
      "leader": {
        "name": "Drapeau : FranceStéphane Heulot",
        "nationality": null
      }
    }
  ]
}