{
  "year": 1997,
  "edition": 84,
  "total_length": 3950,
  "nb_legs": 21,
  "has_prologue": false,
  "nb_concurrents": 198,
  "nb_finishers": 139,
  "pct_finishers": 70,
  "winner_first_name": "Jan",
  "winner_last_name": "Ullrich",
  "winner_id": "jan-ullrich",
  "winner_total_time": "100h 30' 35\"",
  "winner_age": "23",
  "winner_country": "Allemagne",
  "winner_avg_speed": "39,237",
  "ahead_of_2nd": "0h 09' 09\" ",
  "second_name": "R. Virenque",
  "second_country": "France",
  "second_id": null,
  "ahead_of_3rd": "0h 14' 03\"",
  "third_name": "M. Pantani",
  "third_country": "Italie",
  "third_id": "marco-pantani",
  "legs": [
    {
      "id": "E-1997-Prologue",
      "year": 1997,
      "leg": "Prologue",
      "leg_num": 0,
      "title": "Rouen",
      "start": {
        "city": "France",
        "country": "49.443232,1.099971",
        "lat": "Rouen",
        "lng": null
      },
      "finish": {
        "city": "France",
        "country": "49.443232,1.099971",
        "lat": "7",
        "lng": "3"
      },
      "length": 0
    },
    {
      "id": "E-1997-01",
      "year": 1997,
      "leg": "1",
      "leg_num": 0,
      "title": "Rouen",
      "start": {
        "city": "France",
        "country": "49.443232,1.099971",
        "lat": "Forges-les-Eaux",
        "lng": null
      },
      "finish": {
        "city": "France",
        "country": "49.613311,1.545886",
        "lat": "192",
        "lng": null
      },
      "length": 0
    },
    {
      "id": "E-1997-02",
      "year": 1997,
      "leg": "2",
      "leg_num": 0,
      "title": "Saint-Valery-en-Caux",
      "start": {
        "city": "France",
        "country": "49.860582,0.708557",
        "lat": "Vire",
        "lng": null
      },
      "finish": {
        "city": "France",
        "country": "48.837781,-0.888482",
        "lat": "262",
        "lng": null
      },
      "length": 0
    },
    {
      "id": "E-1997-03",
      "year": 1997,
      "leg": "3",
      "leg_num": 0,
      "title": "Vire",
      "start": {
        "city": "France",
        "country": "48.837781,-0.888482",
        "lat": "Plumelec",
        "lng": null
      },
      "finish": {
        "city": "France",
        "country": "47.837699,-2.639409",
        "lat": "224",
        "lng": null
      },
      "length": 0
    },
    {
      "id": "E-1997-04",
      "year": 1997,
      "leg": "4",
      "leg_num": 0,
      "title": "Plumelec",
      "start": {
        "city": "France",
        "country": "47.837699,-2.639409",
        "lat": "Le Puy du Fou",
        "lng": null
      },
      "finish": {
        "city": "France",
        "country": "46.892864,-0.93268",
        "lat": "223",
        "lng": null
      },
      "length": 0
    },
    {
      "id": "E-1997-05",
      "year": 1997,
      "leg": "5",
      "leg_num": 0,
      "title": "Chantonnay",
      "start": {
        "city": "France",
        "country": "46.687082,-1.050176",
        "lat": "La Châtre",
        "lng": null
      },
      "finish": {
        "city": "France",
        "country": "46.581832,1.986165",
        "lat": "261",
        "lng": "5"
      },
      "length": 0
    },
    {
      "id": "E-1997-06",
      "year": 1997,
      "leg": "6",
      "leg_num": 0,
      "title": "Le Blanc",
      "start": {
        "city": "France",
        "country": "46.633239,1.064289",
        "lat": "Marennes",
        "lng": null
      },
      "finish": {
        "city": "France",
        "country": "45.823752,-1.103998",
        "lat": "215",
        "lng": "5"
      },
      "length": 0
    },
    {
      "id": "E-1997-07",
      "year": 1997,
      "leg": "7",
      "leg_num": 0,
      "title": "Marennes",
      "start": {
        "city": "France",
        "country": "45.823752,-1.103998",
        "lat": "Bordeaux",
        "lng": null
      },
      "finish": {
        "city": "France",
        "country": "44.837789,-0.57918",
        "lat": "194",
        "lng": null
      },
      "length": 0
    },
    {
      "id": "E-1997-08",
      "year": 1997,
      "leg": "8",
      "leg_num": 0,
      "title": "Sauternes",
      "start": {
        "city": "France",
        "country": "44.531032,-0.343268",
        "lat": "Pau",
        "lng": null
      },
      "finish": {
        "city": "France",
        "country": "43.2951,-0.370797",
        "lat": "161",
        "lng": "5"
      },
      "length": 0
    },
    {
      "id": "E-1997-09",
      "year": 1997,
      "leg": "9",
      "leg_num": 0,
      "title": "Pau",
      "start": {
        "city": "France",
        "country": "43.2951,-0.370797",
        "lat": "Loudenvielle",
        "lng": null
      },
      "finish": {
        "city": "France",
        "country": "42.795702,0.412744",
        "lat": "182",
        "lng": null
      },
      "length": 0
    },
    {
      "id": "E-1997-10",
      "year": 1997,
      "leg": "10",
      "leg_num": 0,
      "title": "Luchon",
      "start": {
        "city": "France",
        "country": "42.788963,0.592943\n",
        "lat": "Andorre-Arcalis",
        "lng": null
      },
      "finish": {
        "city": "Andorre",
        "country": "42.63247,1.49583",
        "lat": "252",
        "lng": "5"
      },
      "length": 0
    },
    {
      "id": "E-1997-11",
      "year": 1997,
      "leg": "11",
      "leg_num": 0,
      "title": "Andorre",
      "start": {
        "city": "Andorre",
        "country": "42.506285,1.521801",
        "lat": "Perpignan",
        "lng": null
      },
      "finish": {
        "city": "France",
        "country": "42.698684,2.895872",
        "lat": "192",
        "lng": null
      },
      "length": 0
    },
    {
      "id": "E-1997-12",
      "year": 1997,
      "leg": "12",
      "leg_num": 0,
      "title": "St Etienne",
      "start": {
        "city": "France",
        "country": "45.439695,4.387178",
        "lat": "St Etienne",
        "lng": null
      },
      "finish": {
        "city": "France",
        "country": "45.439695,4.387178",
        "lat": "55",
        "lng": "5"
      },
      "length": 0
    },
    {
      "id": "E-1997-13",
      "year": 1997,
      "leg": "13",
      "leg_num": 0,
      "title": "St Etienne",
      "start": {
        "city": "France",
        "country": "45.439695,4.387178",
        "lat": "L'Alpe d'Huez",
        "lng": null
      },
      "finish": {
        "city": "France",
        "country": "45.092624,6.068348",
        "lat": "203",
        "lng": "5"
      },
      "length": 0
    },
    {
      "id": "E-1997-14",
      "year": 1997,
      "leg": "14",
      "leg_num": 0,
      "title": "Le Bourg-d'Oisans",
      "start": {
        "city": "France",
        "country": "45.051951,6.030064",
        "lat": "Courchevel",
        "lng": null
      },
      "finish": {
        "city": "France",
        "country": "45.4203,6.61409",
        "lat": "148",
        "lng": null
      },
      "length": 0
    },
    {
      "id": "E-1997-15",
      "year": 1997,
      "leg": "15",
      "leg_num": 0,
      "title": "Courchevel",
      "start": {
        "city": "France",
        "country": "45.4203,6.61409",
        "lat": "Morzine",
        "lng": null
      },
      "finish": {
        "city": "France",
        "country": "46.179192,6.708877",
        "lat": "208",
        "lng": "5"
      },
      "length": 0
    },
    {
      "id": "E-1997-16",
      "year": 1997,
      "leg": "16",
      "leg_num": 0,
      "title": "Morzine",
      "start": {
        "city": "France",
        "country": "46.179192,6.708877",
        "lat": "Fribourg",
        "lng": null
      },
      "finish": {
        "city": "Suisse",
        "country": "46.801666,7.145568",
        "lat": "181",
        "lng": null
      },
      "length": 0
    },
    {
      "id": "E-1997-17",
      "year": 1997,
      "leg": "17",
      "leg_num": 0,
      "title": "Fribourg",
      "start": {
        "city": "Suisse",
        "country": "46.801666,7.145568",
        "lat": "Colmar",
        "lng": null
      },
      "finish": {
        "city": "France",
        "country": "48.079359,7.358512",
        "lat": "218",
        "lng": "5"
      },
      "length": 0
    },
    {
      "id": "E-1997-18",
      "year": 1997,
      "leg": "18",
      "leg_num": 0,
      "title": "Colmar",
      "start": {
        "city": "France",
        "country": "48.079359,7.358512",
        "lat": "Montbéliard",
        "lng": null
      },
      "finish": {
        "city": "France",
        "country": "47.510356,6.798466",
        "lat": "175",
        "lng": "5"
      },
      "length": 0
    },
    {
      "id": "E-1997-19",
      "year": 1997,
      "leg": "19",
      "leg_num": 0,
      "title": "Montbéliard",
      "start": {
        "city": "France",
        "country": "47.510356,6.798466",
        "lat": "Dijon",
        "lng": null
      },
      "finish": {
        "city": "France",
        "country": "47.322047,5.04148",
        "lat": "172",
        "lng": null
      },
      "length": 0
    },
    {
      "id": "E-1997-20",
      "year": 1997,
      "leg": "20",
      "leg_num": 0,
      "title": "Marne La Vallée",
      "start": {
        "city": "France",
        "country": "48.859276,2.598505",
        "lat": "Marne La Vallée",
        "lng": null
      },
      "finish": {
        "city": "France",
        "country": "48.859276,2.598505",
        "lat": "63",
        "lng": null
      },
      "length": 0
    },
    {
      "id": "E-1997-21",
      "year": 1997,
      "leg": "21",
      "leg_num": 0,
      "title": "Marne La Vallée",
      "start": {
        "city": "France",
        "country": "48.859276,2.598505",
        "lat": "Paris",
        "lng": null
      },
      "finish": {
        "city": "France",
        "country": "48.856614,2.352222",
        "lat": "149",
        "lng": "5"
      },
      "length": 0
    }
  ]
}