{
  "year": 1998,
  "edition": 85,
  "total_length": 3875,
  "nb_legs": 21,
  "has_prologue": false,
  "nb_concurrents": 189,
  "nb_finishers": 96,
  "pct_finishers": 51,
  "winner_first_name": "Marco",
  "winner_last_name": "Pantani",
  "winner_id": "marco-pantani",
  "winner_total_time": "92h 49' 46\"",
  "winner_age": "28",
  "winner_country": "Italie",
  "winner_avg_speed": "39,983",
  "ahead_of_2nd": "0h 03' 21\" ",
  "second_name": "J. Ullrich",
  "second_country": "Allemagne",
  "second_id": "jan-ullrich",
  "ahead_of_3rd": "0h 04' 08\"",
  "third_name": "B. Julich",
  "third_country": "États-Unis",
  "third_id": null,
  "legs": [
    {
      "id": "E-1998-Prologue",
      "year": 1998,
      "leg": "Prologue",
      "leg_num": 0,
      "title": "Dublin",
      "start": {
        "city": "Irlande",
        "country": "53.349805,-6.26031",
        "lat": "Dublin",
        "lng": null
      },
      "finish": {
        "city": "Irlande",
        "country": "53.349805,-6.26031",
        "lat": "5",
        "lng": "6"
      },
      "length": 0
    },
    {
      "id": "E-1998-01",
      "year": 1998,
      "leg": "1",
      "leg_num": 0,
      "title": "Dublin",
      "start": {
        "city": "Irlande",
        "country": "53.349805,-6.26031",
        "lat": "Dublin",
        "lng": null
      },
      "finish": {
        "city": "Irlande",
        "country": "53.349805,-6.26031",
        "lat": "186",
        "lng": "5"
      },
      "length": 0
    },
    {
      "id": "E-1998-02",
      "year": 1998,
      "leg": "2",
      "leg_num": 0,
      "title": "Enniscorthy",
      "start": {
        "city": "Irlande",
        "country": "52.502197,-6.56613",
        "lat": "Cork",
        "lng": null
      },
      "finish": {
        "city": "Irlande",
        "country": "51.896892,-8.486316",
        "lat": "205",
        "lng": "5"
      },
      "length": 0
    },
    {
      "id": "E-1998-03",
      "year": 1998,
      "leg": "3",
      "leg_num": 0,
      "title": "Roscoff",
      "start": {
        "city": "France",
        "country": "48.726199,-3.985325",
        "lat": "Lorient",
        "lng": null
      },
      "finish": {
        "city": "France",
        "country": "47.748252,-3.370245",
        "lat": "169",
        "lng": null
      },
      "length": 0
    },
    {
      "id": "E-1998-04",
      "year": 1998,
      "leg": "4",
      "leg_num": 0,
      "title": "Plouay",
      "start": {
        "city": "France",
        "country": "47.915138,-3.334565",
        "lat": "Cholet",
        "lng": null
      },
      "finish": {
        "city": "France",
        "country": "47.059407,-0.879787",
        "lat": "252",
        "lng": null
      },
      "length": 0
    },
    {
      "id": "E-1998-05",
      "year": 1998,
      "leg": "5",
      "leg_num": 0,
      "title": "Cholet",
      "start": {
        "city": "France",
        "country": "47.059407,-0.879787",
        "lat": "Châteauroux",
        "lng": null
      },
      "finish": {
        "city": "France",
        "country": "46.811434,1.686779",
        "lat": "228",
        "lng": "5"
      },
      "length": 0
    },
    {
      "id": "E-1998-06",
      "year": 1998,
      "leg": "6",
      "leg_num": 0,
      "title": "La Châtre",
      "start": {
        "city": "France",
        "country": "46.581832,1.986165",
        "lat": "Brive",
        "lng": null
      },
      "finish": {
        "city": "France",
        "country": "45.159555,1.533937",
        "lat": "204",
        "lng": "5"
      },
      "length": 0
    },
    {
      "id": "E-1998-07",
      "year": 1998,
      "leg": "7",
      "leg_num": 0,
      "title": "Meyrignac-l'Église",
      "start": {
        "city": "France",
        "country": "45.399074,1.854589",
        "lat": "Corrèze",
        "lng": " Corrèze"
      },
      "finish": {
        "city": "France",
        "country": "45.372114,1.873739",
        "lat": "58",
        "lng": null
      },
      "length": 0
    },
    {
      "id": "E-1998-08",
      "year": 1998,
      "leg": "8",
      "leg_num": 0,
      "title": "Brive",
      "start": {
        "city": "France",
        "country": "45.159555,1.533937",
        "lat": "Montauban",
        "lng": null
      },
      "finish": {
        "city": "France",
        "country": "44.016079,1.35295",
        "lat": "190",
        "lng": "5"
      },
      "length": 0
    },
    {
      "id": "E-1998-09",
      "year": 1998,
      "leg": "9",
      "leg_num": 0,
      "title": "Montauban",
      "start": {
        "city": "France",
        "country": "44.016079,1.35295",
        "lat": "Pau",
        "lng": null
      },
      "finish": {
        "city": "France",
        "country": "43.2951,-0.370797",
        "lat": "210",
        "lng": null
      },
      "length": 0
    },
    {
      "id": "E-1998-10",
      "year": 1998,
      "leg": "10",
      "leg_num": 0,
      "title": "Pau",
      "start": {
        "city": "France",
        "country": "43.2951,-0.370797",
        "lat": "Luchon",
        "lng": null
      },
      "finish": {
        "city": "France",
        "country": "42.788963,0.592943",
        "lat": "196",
        "lng": "5"
      },
      "length": 0
    },
    {
      "id": "E-1998-11",
      "year": 1998,
      "leg": "11",
      "leg_num": 0,
      "title": "Luchon",
      "start": {
        "city": "France",
        "country": "42.788963,0.592943",
        "lat": "Plateau-de-Beille",
        "lng": " Aston"
      },
      "finish": {
        "city": "France",
        "country": "42.709683,1.702387",
        "lat": "170",
        "lng": null
      },
      "length": 0
    },
    {
      "id": "E-1998-12",
      "year": 1998,
      "leg": "12",
      "leg_num": 0,
      "title": "Tarascon-sur-Ariège",
      "start": {
        "city": "France",
        "country": "42.848524,1.604815",
        "lat": "Cap d'Agde",
        "lng": null
      },
      "finish": {
        "city": "France",
        "country": "43.280739,3.505399",
        "lat": "222",
        "lng": null
      },
      "length": 0
    },
    {
      "id": "E-1998-13",
      "year": 1998,
      "leg": "13",
      "leg_num": 0,
      "title": "Frontignan la Peyrade",
      "start": {
        "city": "France",
        "country": "43.427008,3.726749",
        "lat": "Carpentras",
        "lng": null
      },
      "finish": {
        "city": "France",
        "country": "44.055564,5.048722",
        "lat": "196",
        "lng": null
      },
      "length": 0
    },
    {
      "id": "E-1998-14",
      "year": 1998,
      "leg": "14",
      "leg_num": 0,
      "title": "Valréas",
      "start": {
        "city": "France",
        "country": "44.383724,4.989187",
        "lat": "Grenoble",
        "lng": null
      },
      "finish": {
        "city": "France",
        "country": "45.188529,5.724524",
        "lat": "186",
        "lng": "5"
      },
      "length": 0
    },
    {
      "id": "E-1998-15",
      "year": 1998,
      "leg": "15",
      "leg_num": 0,
      "title": "Grenoble",
      "start": {
        "city": "France",
        "country": "45.188529,5.724524",
        "lat": "Les Deux Alpes",
        "lng": null
      },
      "finish": {
        "city": "France",
        "country": "45.010099,6.125578",
        "lat": "189",
        "lng": null
      },
      "length": 0
    },
    {
      "id": "E-1998-16",
      "year": 1998,
      "leg": "16",
      "leg_num": 0,
      "title": "Vizille",
      "start": {
        "city": "France",
        "country": "45.077318,5.772412",
        "lat": "Albertville",
        "lng": null
      },
      "finish": {
        "city": "France",
        "country": "45.675535,6.392726",
        "lat": "204",
        "lng": null
      },
      "length": 0
    },
    {
      "id": "E-1998-17",
      "year": 1998,
      "leg": "17",
      "leg_num": 0,
      "title": "Albertville",
      "start": {
        "city": "France",
        "country": "45.675535,6.392726",
        "lat": "Aix-les-Bains",
        "lng": null
      },
      "finish": {
        "city": "France",
        "country": "45.692341,5.908998",
        "lat": "149",
        "lng": null
      },
      "length": 0
    },
    {
      "id": "E-1998-18",
      "year": 1998,
      "leg": "18",
      "leg_num": 0,
      "title": "Aix-les-Bains",
      "start": {
        "city": "France",
        "country": "45.692341,5.908998",
        "lat": "Neuchâtel",
        "lng": null
      },
      "finish": {
        "city": "Suisse",
        "country": "46.992979,6.931932",
        "lat": "218",
        "lng": "5"
      },
      "length": 0
    },
    {
      "id": "E-1998-19",
      "year": 1998,
      "leg": "19",
      "leg_num": 0,
      "title": "La Chaux-de-Fonds",
      "start": {
        "city": "France",
        "country": "47.097872,6.821634",
        "lat": "Autun",
        "lng": null
      },
      "finish": {
        "city": "France",
        "country": "46.950914,4.301565",
        "lat": "242",
        "lng": null
      },
      "length": 0
    },
    {
      "id": "E-1998-20",
      "year": 1998,
      "leg": "20",
      "leg_num": 0,
      "title": "Montceau-les-Mines",
      "start": {
        "city": "France",
        "country": "46.67413,4.362979",
        "lat": "Le Creusot",
        "lng": null
      },
      "finish": {
        "city": "France",
        "country": "46.805351,4.4278",
        "lat": "52",
        "lng": null
      },
      "length": 0
    },
    {
      "id": "E-1998-21",
      "year": 1998,
      "leg": "21",
      "leg_num": 0,
      "title": "Melun",
      "start": {
        "city": "France",
        "country": "48.542105,2.6554",
        "lat": "Paris",
        "lng": null
      },
      "finish": {
        "city": "France",
        "country": "48.856614,2.352222",
        "lat": "147",
        "lng": "5"
      },
      "length": 0
    }
  ]
}