{
  "year": 2000,
  "edition": 87,
  "total_length": 3662,
  "nb_legs": 21,
  "has_prologue": false,
  "nb_concurrents": 177,
  "nb_finishers": 128,
  "pct_finishers": 72,
  "winner_first_name": "n.a.",
  "winner_last_name": "n.a.",
  "winner_id": "n.a.",
  "winner_total_time": "92h 33' 08''",
  "winner_age": null,
  "winner_country": "n.a.",
  "winner_avg_speed": "39,569",
  "ahead_of_2nd": "0h 06' 02\" ",
  "second_name": "J. Ullrich",
  "second_country": "Allemagne",
  "second_id": "jan-ullrich",
  "ahead_of_3rd": "0h 10' 26\"",
  "third_name": "J. Beloki",
  "third_country": "Espagne",
  "third_id": null,
  "legs": [
    {
      "id": "E-2000-01",
      "year": 2000,
      "leg": "1",
      "leg_num": 0,
      "title": "Futuroscope, Poitiers",
      "start": {
        "city": "France",
        "country": "46.66680,0.36762",
        "lat": "Futuroscope",
        "lng": " Poitiers"
      },
      "finish": {
        "city": "France",
        "country": "46.66680,0.36762",
        "lat": "16",
        "lng": "5"
      },
      "length": 0
    },
    {
      "id": "E-2000-02",
      "year": 2000,
      "leg": "2",
      "leg_num": 0,
      "title": "Futuroscope, Poitiers",
      "start": {
        "city": "France",
        "country": "\n46.66680,0.36762",
        "lat": "Loudun",
        "lng": null
      },
      "finish": {
        "city": "France",
        "country": "47.008967,0.083183",
        "lat": "194",
        "lng": null
      },
      "length": 0
    },
    {
      "id": "E-2000-03",
      "year": 2000,
      "leg": "3",
      "leg_num": 0,
      "title": "Loudun",
      "start": {
        "city": "France",
        "country": "47.008967,0.083183",
        "lat": "Nantes",
        "lng": null
      },
      "finish": {
        "city": "France",
        "country": "47.218371,-1.553621",
        "lat": "161",
        "lng": "5"
      },
      "length": 0
    },
    {
      "id": "E-2000-04",
      "year": 2000,
      "leg": "4",
      "leg_num": 0,
      "title": "Nantes",
      "start": {
        "city": "France",
        "country": "47.218371,-1.553621",
        "lat": "Saint-Nazaire",
        "lng": null
      },
      "finish": {
        "city": "France",
        "country": "47.273498,-2.213848",
        "lat": "70",
        "lng": null
      },
      "length": 0
    },
    {
      "id": "E-2000-05",
      "year": 2000,
      "leg": "5",
      "leg_num": 0,
      "title": "Vannes",
      "start": {
        "city": "France",
        "country": "47.658236,-2.760847",
        "lat": "Vitré",
        "lng": null
      },
      "finish": {
        "city": "France",
        "country": "48.124746,-1.21543",
        "lat": "202",
        "lng": null
      },
      "length": 0
    },
    {
      "id": "E-2000-06",
      "year": 2000,
      "leg": "6",
      "leg_num": 0,
      "title": "Vitré",
      "start": {
        "city": "France",
        "country": "48.124746,-1.21543",
        "lat": "Tours",
        "lng": null
      },
      "finish": {
        "city": "France",
        "country": "47.394144,0.68484",
        "lat": "198",
        "lng": "5"
      },
      "length": 0
    },
    {
      "id": "E-2000-07",
      "year": 2000,
      "leg": "7",
      "leg_num": 0,
      "title": "Tours",
      "start": {
        "city": "France",
        "country": "47.394144,0.68484",
        "lat": "Limoges",
        "lng": null
      },
      "finish": {
        "city": "France",
        "country": "45.833619,1.261105",
        "lat": "202",
        "lng": "5"
      },
      "length": 0
    },
    {
      "id": "E-2000-08",
      "year": 2000,
      "leg": "8",
      "leg_num": 0,
      "title": "Limoges",
      "start": {
        "city": "France",
        "country": "45.833619,1.261105",
        "lat": "Villeneuve-sur-Lot",
        "lng": null
      },
      "finish": {
        "city": "France",
        "country": "44.407126,0.703561",
        "lat": "203",
        "lng": "5"
      },
      "length": 0
    },
    {
      "id": "E-2000-09",
      "year": 2000,
      "leg": "9",
      "leg_num": 0,
      "title": "Agen",
      "start": {
        "city": "France",
        "country": "44.203142,0.616363",
        "lat": "Dax",
        "lng": null
      },
      "finish": {
        "city": "France",
        "country": "43.708608,-1.051945",
        "lat": "220",
        "lng": null
      },
      "length": 0
    },
    {
      "id": "E-2000-10",
      "year": 2000,
      "leg": "10",
      "leg_num": 0,
      "title": "Dax",
      "start": {
        "city": "France",
        "country": "43.708608,-1.051945",
        "lat": "Hautacam",
        "lng": " Préchac"
      },
      "finish": {
        "city": "France",
        "country": "42.972222,-0.0075",
        "lat": "205",
        "lng": null
      },
      "length": 0
    },
    {
      "id": "E-2000-11",
      "year": 2000,
      "leg": "11",
      "leg_num": 0,
      "title": "Bagnères-de-Bigorre",
      "start": {
        "city": "France",
        "country": "43.065093,0.149105",
        "lat": "Revel",
        "lng": null
      },
      "finish": {
        "city": "France",
        "country": "43.458611,2.004573",
        "lat": "218",
        "lng": "5"
      },
      "length": 0
    },
    {
      "id": "E-2000-12",
      "year": 2000,
      "leg": "12",
      "leg_num": 0,
      "title": "Carpentras",
      "start": {
        "city": "France",
        "country": "44.055564,5.048722",
        "lat": "Mont Ventoux",
        "lng": null
      },
      "finish": {
        "city": "France",
        "country": "44.173925,5.283795",
        "lat": "149",
        "lng": null
      },
      "length": 0
    },
    {
      "id": "E-2000-13",
      "year": 2000,
      "leg": "13",
      "leg_num": 0,
      "title": "Avignon",
      "start": {
        "city": "France",
        "country": "43.949317,4.805528",
        "lat": "Draguignan",
        "lng": null
      },
      "finish": {
        "city": "France",
        "country": "43.537727,6.464993",
        "lat": "185",
        "lng": "5"
      },
      "length": 0
    },
    {
      "id": "E-2000-14",
      "year": 2000,
      "leg": "14",
      "leg_num": 0,
      "title": "Draguignan",
      "start": {
        "city": "France",
        "country": "43.537727,6.464993",
        "lat": "Briançon",
        "lng": null
      },
      "finish": {
        "city": "France",
        "country": "44.899416,6.643179",
        "lat": "249",
        "lng": "5"
      },
      "length": 0
    },
    {
      "id": "E-2000-15",
      "year": 2000,
      "leg": "15",
      "leg_num": 0,
      "title": "Briançon",
      "start": {
        "city": "France",
        "country": "44.899416,6.643179",
        "lat": "Courchevel",
        "lng": null
      },
      "finish": {
        "city": "France",
        "country": "45.4203,6.61409",
        "lat": "173",
        "lng": "5"
      },
      "length": 0
    },
    {
      "id": "E-2000-16",
      "year": 2000,
      "leg": "16",
      "leg_num": 0,
      "title": "Courchevel",
      "start": {
        "city": "France",
        "country": "45.4203,6.61409",
        "lat": "Morzine-Avoriaz",
        "lng": null
      },
      "finish": {
        "city": "France",
        "country": "46.189683,6.776343",
        "lat": "196",
        "lng": "5"
      },
      "length": 0
    },
    {
      "id": "E-2000-17",
      "year": 2000,
      "leg": "17",
      "leg_num": 0,
      "title": "Évian-les-Bains",
      "start": {
        "city": "France",
        "country": "46.401488,6.590949",
        "lat": "Lausanne",
        "lng": null
      },
      "finish": {
        "city": "Suisse",
        "country": "46.519962,6.633597",
        "lat": "155",
        "lng": null
      },
      "length": 0
    },
    {
      "id": "E-2000-18",
      "year": 2000,
      "leg": "18",
      "leg_num": 0,
      "title": "Lausanne",
      "start": {
        "city": "Suisse",
        "country": "46.519962,6.633597",
        "lat": "Fribourg-en-Brisgau",
        "lng": null
      },
      "finish": {
        "city": "Allemagne",
        "country": "47.999008,7.842104",
        "lat": "246",
        "lng": "5"
      },
      "length": 0
    },
    {
      "id": "E-2000-19",
      "year": 2000,
      "leg": "19",
      "leg_num": 0,
      "title": "Fribourg-en-Brisgau",
      "start": {
        "city": "Allemagne",
        "country": "47.999008,7.842104",
        "lat": "Mulhouse",
        "lng": null
      },
      "finish": {
        "city": "France",
        "country": "47.750839,7.335888",
        "lat": "58",
        "lng": "5"
      },
      "length": 0
    },
    {
      "id": "E-2000-20",
      "year": 2000,
      "leg": "20",
      "leg_num": 0,
      "title": "Belfort",
      "start": {
        "city": "France",
        "country": "47.639674,6.863849",
        "lat": "Troyes",
        "lng": null
      },
      "finish": {
        "city": "France",
        "country": "48.296592,4.074735",
        "lat": "254",
        "lng": "5"
      },
      "length": 0
    },
    {
      "id": "E-2000-21",
      "year": 2000,
      "leg": "21",
      "leg_num": 0,
      "title": "Paris",
      "start": {
        "city": "France",
        "country": "\n48.856614,2.352222",
        "lat": "Paris",
        "lng": null
      },
      "finish": {
        "city": "France",
        "country": "48.856614,2.352222",
        "lat": "138",
        "lng": null
      },
      "length": 0
    }
  ]
}