{
  "year": 2000,
  "edition": 87,
  "total_length": 3662,
  "nb_legs": 21,
  "has_prologue": false,
  "nb_concurrents": 177,
  "nb_finishers": 128,
  "pct_finishers": 72,
  "winner_name": "n.a.",
  "winner_time": "92h 33’ 08’’",
  "ahead_of_2nd": "0h 06' 02\" ",
  "second_name": "J. Ullrich",
  "second_country": "Allemagne",
  "ahead_of_3rd": "0h 10' 26\"",
  "third_name": "J. Beloki",
  "third_country": "J. Beloki",
  "legs": [
    {
      "id": "E-2000-01",
      "year": 2000,
      "leg": 1,
      "title": "Futuroscope - Futuroscope",
      "start": {
        "city": "Futuroscope, Poitiers",
        "country": "France",
        "lng": "0.343334",
        "lat": "46.583258"
      },
      "finish": {
        "city": "Futuroscope, Poitiers",
        "country": "France",
        "lng": "0.343334",
        "lat": "46.583258"
      },
      "length": 16,
      "type": "(CLM)",
      "winner": {
        "name": "Drapeau : Royaume-UniDavid Millar",
        "nationality": null
      },
      "leader": {
        "name": "Drapeau : Royaume-UniDavid Millar",
        "nationality": null
      }
    },
    {
      "id": "E-2000-02",
      "year": 2000,
      "leg": 2,
      "title": "Futuroscope - Loudun",
      "start": {
        "city": "Futuroscope, Poitiers",
        "country": "France",
        "lng": "0.343334",
        "lat": "46.583258"
      },
      "finish": {
        "city": "Mont Ventoux",
        "country": "France",
        "lng": "5.283795",
        "lat": "44.173925"
      },
      "length": 70,
      "type": "(CLM par équipes)",
      "winner": {
        "name": "Drapeau : EspagneOnce",
        "nationality": null
      },
      "leader": {
        "name": "Drapeau : FranceLaurent Jalabert",
        "nationality": null
      }
    },
    {
      "id": "E-2000-03",
      "year": 2000,
      "leg": 3,
      "title": "Loudun - Nantes",
      "start": {
        "city": "Loudun",
        "country": "France",
        "lng": "0.083183",
        "lat": "47.008967"
      },
      "finish": {
        "city": "Courchevel",
        "country": "France",
        "lng": "6.61409",
        "lat": "45.4203"
      },
      "length": 202,
      "type": null,
      "winner": {
        "name": "Drapeau : FranceChristophe Agnolutto",
        "nationality": null
      },
      "leader": {
        "name": "Drapeau : ItalieAlberto Elli",
        "nationality": null
      }
    },
    {
      "id": "E-2000-04",
      "year": 2000,
      "leg": 4,
      "title": "Nantes - Saint-Nazaire",
      "start": {
        "city": "Nantes",
        "country": "France",
        "lng": "-1.553621",
        "lat": "47.218371"
      },
      "finish": {
        "city": "Morzine-Avoriaz",
        "country": "France",
        "lng": "6.776343",
        "lat": "46.189683"
      },
      "length": 203,
      "type": null,
      "winner": {
        "name": "Drapeau : Pays-BasErik Dekker",
        "nationality": null
      },
      "leader": {
        "name": "Drapeau : ItalieAlberto Elli",
        "nationality": null
      }
    },
    {
      "id": "E-2000-05",
      "year": 2000,
      "leg": 5,
      "title": "Vannes - Vitré",
      "start": {
        "city": "Vannes",
        "country": "France",
        "lng": "-2.760847",
        "lat": "47.658236"
      },
      "finish": {
        "city": "Lausanne",
        "country": "Suisse",
        "lng": "6.633597",
        "lat": "46.519962"
      },
      "length": 220,
      "type": null,
      "winner": {
        "name": "Drapeau : ItaliePaolo Bettini",
        "nationality": null
      },
      "leader": {
        "name": "Drapeau : ItalieAlberto Elli",
        "nationality": null
      }
    },
    {
      "id": "E-2000-06",
      "year": 2000,
      "leg": 6,
      "title": "Vitré - Tours",
      "start": {
        "city": "Vitré",
        "country": "France",
        "lng": "-1.21543",
        "lat": "48.124746"
      },
      "finish": {
        "city": "Fribourg-en-Brisgau",
        "country": "Allemagne",
        "lng": "7.842104",
        "lat": "47.999008"
      },
      "length": 205,
      "type": "Étape de montagne",
      "winner": {
        "name": "Drapeau : EspagneJavier Otxoa",
        "nationality": null
      },
      "leader": {
        "name": "Drapeau : États-UnisLance Armstrong",
        "nationality": null
      }
    },
    {
      "id": "E-2000-07",
      "year": 2000,
      "leg": 7,
      "title": "Tours - Limoges",
      "start": {
        "city": "Tours",
        "country": "France",
        "lng": "0.68484",
        "lat": "47.394144"
      },
      "finish": {
        "city": "Mulhouse",
        "country": "France",
        "lng": "7.335888",
        "lat": "47.750839"
      },
      "length": 218,
      "type": null,
      "winner": {
        "name": "Drapeau : Pays-BasErik Dekker",
        "nationality": null
      },
      "leader": {
        "name": "Drapeau : États-UnisLance Armstrong",
        "nationality": null
      }
    },
    {
      "id": "E-2000-08",
      "year": 2000,
      "leg": 8,
      "title": "Limoges - Villeneuve-sur-Lot",
      "start": {
        "city": "Limoges",
        "country": "France",
        "lng": "1.261105",
        "lat": "45.833619"
      },
      "finish": {
        "city": "Troyes",
        "country": "France",
        "lng": "4.074735",
        "lat": "48.296592"
      },
      "length": 185,
      "type": null,
      "winner": {
        "name": "Drapeau : EspagneJosé Vicente García Acosta",
        "nationality": null
      },
      "leader": {
        "name": "Drapeau : États-UnisLance Armstrong",
        "nationality": null
      }
    },
    {
      "id": "E-2000-09",
      "year": 2000,
      "leg": 9,
      "title": "Agen - Dax",
      "start": {
        "city": "Agen",
        "country": "France",
        "lng": "0.616363",
        "lat": "44.203142"
      },
      "finish": {
        "city": "Paris",
        "country": "France",
        "lng": "2.352222",
        "lat": "48.856614"
      },
      "length": 249,
      "type": "Étape de montagne",
      "winner": {
        "name": "Drapeau : ColombieSantiago Botero",
        "nationality": null
      },
      "leader": {
        "name": "Drapeau : États-UnisLance Armstrong",
        "nationality": null
      }
    },
    {
      "id": "E-2000-10",
      "year": 2000,
      "leg": 10,
      "title": "Dax - Lourdes-Hautacam",
      "start": {
        "city": "Dax",
        "country": "France",
        "lng": "-1.051945",
        "lat": "43.708608"
      },
      "finish": {
        "city": "Loudun",
        "country": "France",
        "lng": "0.083183",
        "lat": "47.008967"
      },
      "length": 149,
      "type": "Étape de montagne",
      "winner": {
        "name": "Drapeau : ItalieMarco Pantani",
        "nationality": null
      },
      "leader": {
        "name": "Drapeau : États-UnisLance Armstrong",
        "nationality": null
      }
    },
    {
      "id": "E-2000-11",
      "year": 2000,
      "leg": 11,
      "title": "Bagnères-de-Bigorre - Revel",
      "start": {
        "city": "Bagnères-de-Bigorre",
        "country": "France",
        "lng": "0.149105",
        "lat": "43.065093"
      },
      "finish": {
        "city": "Nantes",
        "country": "France",
        "lng": "-1.553621",
        "lat": "47.218371"
      },
      "length": 173,
      "type": "Étape de montagne",
      "winner": {
        "name": "Drapeau : ItalieMarco Pantani",
        "nationality": null
      },
      "leader": {
        "name": "Drapeau : États-UnisLance Armstrong",
        "nationality": null
      }
    },
    {
      "id": "E-2000-12",
      "year": 2000,
      "leg": 12,
      "title": "Carpentras - Mont Ventoux",
      "start": {
        "city": "Carpentras",
        "country": "France",
        "lng": "5.048722",
        "lat": "44.055564"
      },
      "finish": {
        "city": "Saint-Nazaire",
        "country": "France",
        "lng": "-2.213848",
        "lat": "47.273498"
      },
      "length": 196,
      "type": "Étape de montagne",
      "winner": {
        "name": "Drapeau : FranceRichard Virenque",
        "nationality": null
      },
      "leader": {
        "name": "Drapeau : États-UnisLance Armstrong",
        "nationality": null
      }
    },
    {
      "id": "E-2000-13",
      "year": 2000,
      "leg": 13,
      "title": "Avignon - Draguignan",
      "start": {
        "city": "Avignon",
        "country": "France",
        "lng": "4.805528",
        "lat": "43.949317"
      },
      "finish": {
        "city": "Vitré",
        "country": "France",
        "lng": "-1.21543",
        "lat": "48.124746"
      },
      "length": 155,
      "type": "Étape de montagne",
      "winner": {
        "name": "Drapeau : Pays-BasErik Dekker",
        "nationality": null
      },
      "leader": {
        "name": "Drapeau : États-UnisLance Armstrong",
        "nationality": null
      }
    },
    {
      "id": "E-2000-14",
      "year": 2000,
      "leg": 14,
      "title": "Draguignan - Briançon",
      "start": {
        "city": "Draguignan",
        "country": "France",
        "lng": "6.464993",
        "lat": "43.537727"
      },
      "finish": {
        "city": "Tours",
        "country": "France",
        "lng": "0.68484",
        "lat": "47.394144"
      },
      "length": 246,
      "type": null,
      "winner": {
        "name": "Drapeau : ItalieSalvatore Commesso",
        "nationality": null
      },
      "leader": {
        "name": "Drapeau : États-UnisLance Armstrong",
        "nationality": null
      }
    },
    {
      "id": "E-2000-15",
      "year": 2000,
      "leg": 15,
      "title": "Briançon - Courchevel",
      "start": {
        "city": "Briançon",
        "country": "France",
        "lng": "6.643179",
        "lat": "44.899416"
      },
      "finish": {
        "city": "Limoges",
        "country": "France",
        "lng": "1.261105",
        "lat": "45.833619"
      },
      "length": 58,
      "type": "(CLM)",
      "winner": {
        "name": "Drapeau : États-UnisLance Armstrong",
        "nationality": null
      },
      "leader": {
        "name": "Drapeau : États-UnisLance Armstrong",
        "nationality": null
      }
    },
    {
      "id": "E-2000-16",
      "year": 2000,
      "leg": 16,
      "title": "Courchevel - Morzine-Avoriaz",
      "start": {
        "city": "Courchevel",
        "country": "France",
        "lng": "6.61409",
        "lat": "45.4203"
      },
      "finish": {
        "city": "Villeneuve-sur-Lot",
        "country": "France",
        "lng": "0.703561",
        "lat": "44.407126"
      },
      "length": 254,
      "type": null,
      "winner": {
        "name": "Drapeau : AllemagneErik Zabel",
        "nationality": null
      },
      "leader": {
        "name": "Drapeau : États-UnisLance Armstrong",
        "nationality": null
      }
    },
    {
      "id": "E-2000-17",
      "year": 2000,
      "leg": 17,
      "title": "Évian-les-Bains - Lausanne",
      "start": {
        "city": "Évian-les-Bains",
        "country": "France",
        "lng": "6.590949",
        "lat": "46.401488"
      },
      "finish": {
        "city": "Dax",
        "country": "France",
        "lng": "-1.051945",
        "lat": "43.708608"
      },
      "length": 138,
      "type": null,
      "winner": {
        "name": "Drapeau : ItalieStefano Zanini",
        "nationality": null
      },
      "leader": {
        "name": "Drapeau : États-UnisLance Armstrong",
        "nationality": null
      }
    },
    {
      "id": "E-2000-18",
      "year": 2000,
      "leg": 18,
      "title": "Lausanne - Fribourg-en-Brisgau",
      "start": {
        "city": "Lausanne",
        "country": "Suisse",
        "lng": "6.633597",
        "lat": "46.519962"
      },
      "finish": {
        "city": "Hautacam, Préchac",
        "country": "France",
        "lng": "-0.072462",
        "lat": "42.961214"
      },
      "length": 194,
      "type": null,
      "winner": {
        "name": "Drapeau : BelgiqueTom Steels",
        "nationality": null
      },
      "leader": {
        "name": "Drapeau : Royaume-UniDavid Millar",
        "nationality": null
      }
    },
    {
      "id": "E-2000-19",
      "year": 2000,
      "leg": 19,
      "title": "Fribourg-en-Brisgau - Mulhouse",
      "start": {
        "city": "Fribourg-en-Brisgau",
        "country": "Allemagne",
        "lng": "7.842104",
        "lat": "47.999008"
      },
      "finish": {
        "city": "Revel",
        "country": "France",
        "lng": "2.004573",
        "lat": "43.458611"
      },
      "length": 161,
      "type": null,
      "winner": {
        "name": "Drapeau : BelgiqueTom Steels",
        "nationality": null
      },
      "leader": {
        "name": "Drapeau : Royaume-UniDavid Millar",
        "nationality": null
      }
    },
    {
      "id": "E-2000-20",
      "year": 2000,
      "leg": 20,
      "title": "Belfort - Troyes",
      "start": {
        "city": "Belfort",
        "country": "France",
        "lng": "6.863849",
        "lat": "47.639674"
      },
      "finish": {
        "city": "Draguignan",
        "country": "France",
        "lng": "6.464993",
        "lat": "43.537727"
      },
      "length": 202,
      "type": null,
      "winner": {
        "name": "Drapeau : AllemagneMarcel Wüst",
        "nationality": null
      },
      "leader": {
        "name": "Drapeau : FranceLaurent Jalabert",
        "nationality": null
      }
    },
    {
      "id": "E-2000-21",
      "year": 2000,
      "leg": 21,
      "title": "Paris - Paris",
      "start": {
        "city": "Paris",
        "country": "France",
        "lng": "2.352222",
        "lat": "48.856614"
      },
      "finish": {
        "city": "Briançon",
        "country": "France",
        "lng": "6.643179",
        "lat": "44.899416"
      },
      "length": 198,
      "type": null,
      "winner": {
        "name": "Drapeau : Pays-BasLéon van Bon",
        "nationality": null
      },
      "leader": {
        "name": "Drapeau : ItalieAlberto Elli",
        "nationality": null
      }
    }
  ]
}