{
  "year": 2001,
  "edition": 88,
  "total_length": 3458,
  "nb_legs": 20,
  "has_prologue": false,
  "nb_concurrents": 189,
  "nb_finishers": 144,
  "pct_finishers": 76,
  "winner_first_name": "n.a.",
  "winner_last_name": "n.a.",
  "winner_id": "n.a.",
  "winner_total_time": "86h 17' 28''",
  "winner_age": null,
  "winner_country": "n.a.",
  "winner_avg_speed": "40,070",
  "ahead_of_2nd": "0h 06' 44\" ",
  "second_name": "J. Ullrich",
  "second_country": "Allemagne",
  "second_id": "jan-ullrich",
  "ahead_of_3rd": "0h 09' 05\"",
  "third_name": "J. Beloki",
  "third_country": "Espagne",
  "third_id": null,
  "legs": [
    {
      "id": "E-2001-Prologue",
      "year": 2001,
      "leg": "Prologue",
      "leg_num": 0,
      "title": "Dunkerque",
      "start": {
        "city": "France",
        "country": "51.03456,2.375202",
        "lat": "Dunkerque",
        "lng": null
      },
      "finish": {
        "city": "France",
        "country": "51.03456,2.375202",
        "lat": "8",
        "lng": "2"
      },
      "length": 0
    },
    {
      "id": "E-2001-01",
      "year": 2001,
      "leg": "1",
      "leg_num": 0,
      "title": "Saint-Omer",
      "start": {
        "city": "France",
        "country": "50.750115,2.252208",
        "lat": "Boulogne-sur-Mer",
        "lng": null
      },
      "finish": {
        "city": "France",
        "country": "50.725231,1.613334",
        "lat": "198",
        "lng": null
      },
      "length": 0
    },
    {
      "id": "E-2001-02",
      "year": 2001,
      "leg": "2",
      "leg_num": 0,
      "title": "Calais",
      "start": {
        "city": "France",
        "country": "50.95129,1.858686",
        "lat": "Anvers",
        "lng": null
      },
      "finish": {
        "city": "Belgique",
        "country": "51.219216,4.402882",
        "lat": "200",
        "lng": null
      },
      "length": 0
    },
    {
      "id": "E-2001-03",
      "year": 2001,
      "leg": "3",
      "leg_num": 0,
      "title": "Anvers",
      "start": {
        "city": "Belgique",
        "country": "51.219216,4.402882",
        "lat": "Seraing",
        "lng": null
      },
      "finish": {
        "city": "Belgique",
        "country": "50.583333,5.5",
        "lat": "199",
        "lng": null
      },
      "length": 0
    },
    {
      "id": "E-2001-04",
      "year": 2001,
      "leg": "4",
      "leg_num": 0,
      "title": "Huy",
      "start": {
        "city": "Belgique",
        "country": "50.518715,5.239666",
        "lat": "Verdun",
        "lng": null
      },
      "finish": {
        "city": "France",
        "country": "49.15894,5.386757",
        "lat": "210",
        "lng": null
      },
      "length": 0
    },
    {
      "id": "E-2001-05",
      "year": 2001,
      "leg": "5",
      "leg_num": 0,
      "title": "Verdun",
      "start": {
        "city": "France",
        "country": "49.15894,5.386757",
        "lat": "Bar-le-Duc",
        "lng": null
      },
      "finish": {
        "city": "France",
        "country": "48.773605,5.158238",
        "lat": "67",
        "lng": null
      },
      "length": 0
    },
    {
      "id": "E-2001-06",
      "year": 2001,
      "leg": "6",
      "leg_num": 0,
      "title": "Commercy",
      "start": {
        "city": "France",
        "country": "48.763802,5.592348",
        "lat": "Strasbourg",
        "lng": null
      },
      "finish": {
        "city": "France",
        "country": "48.583148,7.747882",
        "lat": "220",
        "lng": null
      },
      "length": 0
    },
    {
      "id": "E-2001-07",
      "year": 2001,
      "leg": "7",
      "leg_num": 0,
      "title": "Strasbourg",
      "start": {
        "city": "France",
        "country": "48.583148,7.747882",
        "lat": "Colmar",
        "lng": null
      },
      "finish": {
        "city": "France",
        "country": "48.079359,7.358512",
        "lat": "162",
        "lng": null
      },
      "length": 0
    },
    {
      "id": "E-2001-08",
      "year": 2001,
      "leg": "8",
      "leg_num": 0,
      "title": "Colmar",
      "start": {
        "city": "France",
        "country": "48.079359,7.358512",
        "lat": "Pontarlier",
        "lng": null
      },
      "finish": {
        "city": "France",
        "country": "46.904104,6.354242",
        "lat": "220",
        "lng": null
      },
      "length": 0
    },
    {
      "id": "E-2001-09",
      "year": 2001,
      "leg": "9",
      "leg_num": 0,
      "title": "Pontarlier",
      "start": {
        "city": "France",
        "country": "46.904104,6.354242",
        "lat": "Aix-les-Bains",
        "lng": null
      },
      "finish": {
        "city": "France",
        "country": "45.692341,5.908998",
        "lat": "185",
        "lng": null
      },
      "length": 0
    },
    {
      "id": "E-2001-10",
      "year": 2001,
      "leg": "10",
      "leg_num": 0,
      "title": "Aix-les-Bains",
      "start": {
        "city": "France",
        "country": "45.692341,5.908998",
        "lat": "L'Alpe d'Huez",
        "lng": null
      },
      "finish": {
        "city": "France",
        "country": "45.092624,6.068348",
        "lat": "208",
        "lng": null
      },
      "length": 0
    },
    {
      "id": "E-2001-11",
      "year": 2001,
      "leg": "11",
      "leg_num": 0,
      "title": "Grenoble",
      "start": {
        "city": "France",
        "country": "45.188529,5.724524",
        "lat": "Chamrousse",
        "lng": null
      },
      "finish": {
        "city": "France",
        "country": "45.117225,5.877747",
        "lat": "32",
        "lng": null
      },
      "length": 0
    },
    {
      "id": "E-2001-12",
      "year": 2001,
      "leg": "12",
      "leg_num": 0,
      "title": "Perpignan",
      "start": {
        "city": "France",
        "country": "42.698684,2.895872",
        "lat": "Ax-les-Thermes",
        "lng": null
      },
      "finish": {
        "city": "France",
        "country": "42.720254,1.837545",
        "lat": "166",
        "lng": null
      },
      "length": 0
    },
    {
      "id": "E-2001-13",
      "year": 2001,
      "leg": "13",
      "leg_num": 0,
      "title": "Foix",
      "start": {
        "city": "France",
        "country": "42.964127,1.605232",
        "lat": "Saint-Lary-Soulan",
        "lng": null
      },
      "finish": {
        "city": "France",
        "country": "42.815835,0.320251",
        "lat": "194",
        "lng": null
      },
      "length": 0
    },
    {
      "id": "E-2001-14",
      "year": 2001,
      "leg": "14",
      "leg_num": 0,
      "title": "Tarbes",
      "start": {
        "city": "France",
        "country": "43.232951,0.078082",
        "lat": "Luz-Ardiden",
        "lng": null
      },
      "finish": {
        "city": "France",
        "country": "42.885105,-0.061335",
        "lat": "144",
        "lng": null
      },
      "length": 0
    },
    {
      "id": "E-2001-15",
      "year": 2001,
      "leg": "15",
      "leg_num": 0,
      "title": "Pau",
      "start": {
        "city": "France",
        "country": "43.2951,-0.370797",
        "lat": "Lavaur",
        "lng": null
      },
      "finish": {
        "city": "France",
        "country": "43.699185,1.820699",
        "lat": "226",
        "lng": null
      },
      "length": 0
    },
    {
      "id": "E-2001-16",
      "year": 2001,
      "leg": "16",
      "leg_num": 0,
      "title": "Castelsarrasin",
      "start": {
        "city": "France",
        "country": "44.039889,1.107132",
        "lat": "Sarran",
        "lng": null
      },
      "finish": {
        "city": "France",
        "country": "45.408167,1.935675",
        "lat": "224",
        "lng": null
      },
      "length": 0
    },
    {
      "id": "E-2001-17",
      "year": 2001,
      "leg": "17",
      "leg_num": 0,
      "title": "Brive-la-Gaillarde",
      "start": {
        "city": "France",
        "country": "45.159555,1.533937",
        "lat": "Montluçon",
        "lng": null
      },
      "finish": {
        "city": "France",
        "country": "46.339966,2.606645",
        "lat": "200",
        "lng": null
      },
      "length": 0
    },
    {
      "id": "E-2001-18",
      "year": 2001,
      "leg": "18",
      "leg_num": 0,
      "title": "Montluçon",
      "start": {
        "city": "France",
        "country": "46.339966,2.606645",
        "lat": "Saint-Amand-Montrond",
        "lng": null
      },
      "finish": {
        "city": "France",
        "country": "46.725486,2.505604",
        "lat": "61",
        "lng": null
      },
      "length": 0
    },
    {
      "id": "E-2001-19",
      "year": 2001,
      "leg": "19",
      "leg_num": 0,
      "title": "Orléans",
      "start": {
        "city": "France",
        "country": "47.902964,1.909251",
        "lat": "Evry",
        "lng": null
      },
      "finish": {
        "city": "France",
        "country": "48.629828,2.441782",
        "lat": "160",
        "lng": null
      },
      "length": 0
    },
    {
      "id": "E-2001-20",
      "year": 2001,
      "leg": "20",
      "leg_num": 0,
      "title": "Corbeil-Essonnes",
      "start": {
        "city": "France",
        "country": "48.61026,2.474805",
        "lat": "Paris",
        "lng": null
      },
      "finish": {
        "city": "France",
        "country": "48.856614,2.352222",
        "lat": "150",
        "lng": null
      },
      "length": 0
    }
  ]
}