{
  "year": 2002,
  "edition": 89,
  "total_length": 3278,
  "nb_legs": 20,
  "has_prologue": false,
  "nb_concurrents": 189,
  "nb_finishers": 153,
  "pct_finishers": 81,
  "winner_first_name": "n.a.",
  "winner_last_name": "n.a.",
  "winner_id": "n.a.",
  "winner_total_time": "82h 05' 12\"",
  "winner_age": null,
  "winner_country": "n.a.",
  "winner_avg_speed": "39,920",
  "ahead_of_2nd": "0h 07' 17\" ",
  "second_name": "J. Beloki",
  "second_country": "Espagne",
  "second_id": null,
  "ahead_of_3rd": "0h 08' 17\"",
  "third_name": "R. Rumsas",
  "third_country": "Lituanie",
  "third_id": null,
  "legs": [
    {
      "id": "E-2002-Prologue",
      "year": 2002,
      "leg": "Prologue",
      "leg_num": 0,
      "title": "Luxembourg",
      "start": {
        "city": "Luxembourg",
        "country": "49.61162,6.13193",
        "lat": "Luxembourg",
        "lng": null
      },
      "finish": {
        "city": "Luxembourg",
        "country": "49.61162,6.13193",
        "lat": "6",
        "lng": "5"
      },
      "length": 0
    },
    {
      "id": "E-2002-01",
      "year": 2002,
      "leg": "1",
      "leg_num": 0,
      "title": "Luxembourg",
      "start": {
        "city": "Luxembourg",
        "country": "49.61162,6.13193",
        "lat": "Luxembourg",
        "lng": null
      },
      "finish": {
        "city": "Luxembourg",
        "country": "49.61162,6.13193",
        "lat": "195",
        "lng": null
      },
      "length": 0
    },
    {
      "id": "E-2002-02",
      "year": 2002,
      "leg": "2",
      "leg_num": 0,
      "title": "Luxembourg",
      "start": {
        "city": "Luxembourg",
        "country": "49.61162,6.13193",
        "lat": "Sarrebruck",
        "lng": null
      },
      "finish": {
        "city": "Allemagne",
        "country": "49.240157,6.996933",
        "lat": "175",
        "lng": null
      },
      "length": 0
    },
    {
      "id": "E-2002-03",
      "year": 2002,
      "leg": "3",
      "leg_num": 0,
      "title": "Metz",
      "start": {
        "city": "France",
        "country": "49.119666,6.176905",
        "lat": "Reims",
        "lng": null
      },
      "finish": {
        "city": "France",
        "country": "49.258329,4.031696",
        "lat": "185",
        "lng": null
      },
      "length": 0
    },
    {
      "id": "E-2002-04",
      "year": 2002,
      "leg": "4",
      "leg_num": 0,
      "title": "Épernay",
      "start": {
        "city": "France",
        "country": "49.043411,3.956242",
        "lat": "Château-Thierry",
        "lng": null
      },
      "finish": {
        "city": "France",
        "country": "49.045987,3.40262",
        "lat": "68",
        "lng": null
      },
      "length": 0
    },
    {
      "id": "E-2002-05",
      "year": 2002,
      "leg": "5",
      "leg_num": 0,
      "title": "Soissons",
      "start": {
        "city": "France",
        "country": "49.376636,3.32342",
        "lat": "Rouen",
        "lng": null
      },
      "finish": {
        "city": "France",
        "country": "49.443232,1.099971",
        "lat": "198",
        "lng": null
      },
      "length": 0
    },
    {
      "id": "E-2002-06",
      "year": 2002,
      "leg": "6",
      "leg_num": 0,
      "title": "Forges-les-Eaux",
      "start": {
        "city": "France",
        "country": "49.613311,1.545886",
        "lat": "Alençon",
        "lng": null
      },
      "finish": {
        "city": "France",
        "country": "48.432856,0.091266",
        "lat": "198",
        "lng": null
      },
      "length": 0
    },
    {
      "id": "E-2002-07",
      "year": 2002,
      "leg": "7",
      "leg_num": 0,
      "title": "Bagnoles-de-l'Orne",
      "start": {
        "city": "France",
        "country": "48.558399,-0.415091",
        "lat": "Avranches",
        "lng": null
      },
      "finish": {
        "city": "France",
        "country": "48.686843,-1.36166",
        "lat": "162",
        "lng": null
      },
      "length": 0
    },
    {
      "id": "E-2002-08",
      "year": 2002,
      "leg": "8",
      "leg_num": 0,
      "title": "Saint-Martin-de-Landelles",
      "start": {
        "city": "France",
        "country": "48.546107,-1.172382",
        "lat": "Plouay",
        "lng": null
      },
      "finish": {
        "city": "France",
        "country": "47.915138,-3.334565",
        "lat": "214",
        "lng": null
      },
      "length": 0
    },
    {
      "id": "E-2002-09",
      "year": 2002,
      "leg": "9",
      "leg_num": 0,
      "title": "Lanester",
      "start": {
        "city": "France",
        "country": "47.763494,-3.347354",
        "lat": "Lorient",
        "lng": null
      },
      "finish": {
        "city": "France",
        "country": "47.748252,-3.370245",
        "lat": "55",
        "lng": null
      },
      "length": 0
    },
    {
      "id": "E-2002-10",
      "year": 2002,
      "leg": "10",
      "leg_num": 0,
      "title": "Bazas",
      "start": {
        "city": "France",
        "country": "44.430624,-0.211464",
        "lat": "Pau",
        "lng": null
      },
      "finish": {
        "city": "France",
        "country": "43.2951,-0.370797",
        "lat": "147",
        "lng": null
      },
      "length": 0
    },
    {
      "id": "E-2002-11",
      "year": 2002,
      "leg": "11",
      "leg_num": 0,
      "title": "Pau",
      "start": {
        "city": "France",
        "country": "43.2951,-0.370797",
        "lat": "La Mongie",
        "lng": null
      },
      "finish": {
        "city": "France",
        "country": "42.91,0.179167",
        "lat": "158",
        "lng": null
      },
      "length": 0
    },
    {
      "id": "E-2002-12",
      "year": 2002,
      "leg": "12",
      "leg_num": 0,
      "title": "Lannemezan",
      "start": {
        "city": "France",
        "country": "43.125519,0.38396",
        "lat": "Plateau de Beille",
        "lng": " Aston"
      },
      "finish": {
        "city": "France",
        "country": "42.709683,1.702387",
        "lat": "198",
        "lng": null
      },
      "length": 0
    },
    {
      "id": "E-2002-13",
      "year": 2002,
      "leg": "13",
      "leg_num": 0,
      "title": "Lavelanet",
      "start": {
        "city": "France",
        "country": "42.937653,1.851472",
        "lat": "Béziers",
        "lng": null
      },
      "finish": {
        "city": "France",
        "country": "43.344233,3.215795",
        "lat": "166",
        "lng": null
      },
      "length": 0
    },
    {
      "id": "E-2002-14",
      "year": 2002,
      "leg": "14",
      "leg_num": 0,
      "title": "Lodève",
      "start": {
        "city": "France",
        "country": "43.73366,3.313975",
        "lat": "Mont Ventoux",
        "lng": null
      },
      "finish": {
        "city": "France",
        "country": "44.173925,5.283795",
        "lat": "220",
        "lng": null
      },
      "length": 0
    },
    {
      "id": "E-2002-15",
      "year": 2002,
      "leg": "15",
      "leg_num": 0,
      "title": "Vaison-la-Romaine",
      "start": {
        "city": "France",
        "country": "44.240968,5.075198",
        "lat": "Les Deux Alpes",
        "lng": null
      },
      "finish": {
        "city": "France",
        "country": "45.010099,6.125578",
        "lat": "226",
        "lng": null
      },
      "length": 0
    },
    {
      "id": "E-2002-16",
      "year": 2002,
      "leg": "16",
      "leg_num": 0,
      "title": "Les Deux Alpes",
      "start": {
        "city": "France",
        "country": "45.010099,6.125578",
        "lat": "La Plagne",
        "lng": null
      },
      "finish": {
        "city": "France",
        "country": "45.509874,6.659294",
        "lat": "179",
        "lng": null
      },
      "length": 0
    },
    {
      "id": "E-2002-17",
      "year": 2002,
      "leg": "17",
      "leg_num": 0,
      "title": "Aime",
      "start": {
        "city": "France",
        "country": "45.555982,6.652126",
        "lat": "Cluses",
        "lng": null
      },
      "finish": {
        "city": "France",
        "country": "46.06039,6.580582",
        "lat": "141",
        "lng": null
      },
      "length": 0
    },
    {
      "id": "E-2002-18",
      "year": 2002,
      "leg": "18",
      "leg_num": 0,
      "title": "Cluses",
      "start": {
        "city": "France",
        "country": "46.06039,6.580582",
        "lat": "Bourg-en-Bresse",
        "lng": null
      },
      "finish": {
        "city": "France",
        "country": "46.20279,5.219246",
        "lat": "180",
        "lng": null
      },
      "length": 0
    },
    {
      "id": "E-2002-19",
      "year": 2002,
      "leg": "19",
      "leg_num": 0,
      "title": "Régnié-Durette",
      "start": {
        "city": "France",
        "country": "46.136803,4.64105",
        "lat": "Mâcon",
        "lng": null
      },
      "finish": {
        "city": "France",
        "country": "46.306884,4.828731",
        "lat": "52",
        "lng": "5"
      },
      "length": 0
    },
    {
      "id": "E-2002-20",
      "year": 2002,
      "leg": "20",
      "leg_num": 0,
      "title": "Melun",
      "start": {
        "city": "France",
        "country": "48.542105,2.6554",
        "lat": "Paris",
        "lng": null
      },
      "finish": {
        "city": "France",
        "country": "48.856614,2.352222",
        "lat": "147",
        "lng": null
      },
      "length": 0
    }
  ]
}