{
  "year": 2004,
  "edition": 91,
  "total_length": 3391,
  "nb_legs": 20,
  "has_prologue": false,
  "nb_concurrents": 188,
  "nb_finishers": 147,
  "pct_finishers": 78,
  "winner_first_name": "n.a.",
  "winner_last_name": "n.a.",
  "winner_id": "n.a.",
  "winner_total_time": "83h 36' 02\"",
  "winner_age": null,
  "winner_country": "n.a.",
  "winner_avg_speed": "40,553",
  "ahead_of_2nd": "0h 06' 19\" ",
  "second_name": "A. Kloden",
  "second_country": "Allemagne",
  "second_id": null,
  "ahead_of_3rd": "0h 06' 40\"",
  "third_name": "I. Basso",
  "third_country": "Italie",
  "third_id": null,
  "legs": [
    {
      "id": "E-2004-Prologue",
      "year": 2004,
      "leg": "Prologue",
      "leg_num": 0,
      "title": "Liège",
      "start": {
        "city": "Belgique",
        "country": "50.632557,5.579666",
        "lat": "Liège",
        "lng": null
      },
      "finish": {
        "city": "Belgique",
        "country": "50.632557,5.579666",
        "lat": "6",
        "lng": "1"
      },
      "length": 0
    },
    {
      "id": "E-2004-01",
      "year": 2004,
      "leg": "1",
      "leg_num": 0,
      "title": "Liège",
      "start": {
        "city": "Belgique",
        "country": "50.632557,5.579666",
        "lat": "Charleroi",
        "lng": null
      },
      "finish": {
        "city": "Belgique",
        "country": "50.41081,4.444643",
        "lat": "202",
        "lng": null
      },
      "length": 0
    },
    {
      "id": "E-2004-02",
      "year": 2004,
      "leg": "2",
      "leg_num": 0,
      "title": "Charleroi",
      "start": {
        "city": "Belgique",
        "country": "50.41081,4.444643",
        "lat": "Namur",
        "lng": null
      },
      "finish": {
        "city": "Belgique",
        "country": "50.465328,4.867665",
        "lat": "197",
        "lng": null
      },
      "length": 0
    },
    {
      "id": "E-2004-03",
      "year": 2004,
      "leg": "3",
      "leg_num": 0,
      "title": "Waterloo",
      "start": {
        "city": "Belgique",
        "country": "50.71543,4.395935",
        "lat": "Wasquehal",
        "lng": null
      },
      "finish": {
        "city": "France",
        "country": "50.669276,3.130782",
        "lat": "210",
        "lng": null
      },
      "length": 0
    },
    {
      "id": "E-2004-04",
      "year": 2004,
      "leg": "4",
      "leg_num": 0,
      "title": "Cambrai",
      "start": {
        "city": "France",
        "country": "50.173538,3.236633",
        "lat": "Arras",
        "lng": null
      },
      "finish": {
        "city": "France",
        "country": "50.291002,2.777535",
        "lat": "64",
        "lng": null
      },
      "length": 0
    },
    {
      "id": "E-2004-05",
      "year": 2004,
      "leg": "5",
      "leg_num": 0,
      "title": "Amiens",
      "start": {
        "city": "France",
        "country": "49.894067,2.295753",
        "lat": "Chartres",
        "lng": null
      },
      "finish": {
        "city": "France",
        "country": "48.443854,1.489012",
        "lat": "200",
        "lng": null
      },
      "length": 0
    },
    {
      "id": "E-2004-06",
      "year": 2004,
      "leg": "6",
      "leg_num": 0,
      "title": "Bonneval",
      "start": {
        "city": "France",
        "country": "48.181453,1.385289",
        "lat": "Angers",
        "lng": null
      },
      "finish": {
        "city": "France",
        "country": "47.478419,-0.563166",
        "lat": "196",
        "lng": null
      },
      "length": 0
    },
    {
      "id": "E-2004-07",
      "year": 2004,
      "leg": "7",
      "leg_num": 0,
      "title": "Châteaubriant",
      "start": {
        "city": "France",
        "country": "47.720948,-1.376224",
        "lat": "Saint-Brieuc",
        "lng": null
      },
      "finish": {
        "city": "France",
        "country": "48.51418,-2.765835",
        "lat": "204",
        "lng": null
      },
      "length": 0
    },
    {
      "id": "E-2004-08",
      "year": 2004,
      "leg": "8",
      "leg_num": 0,
      "title": "Lamballe",
      "start": {
        "city": "France",
        "country": "48.468637,-2.517322",
        "lat": "Quimper",
        "lng": null
      },
      "finish": {
        "city": "France",
        "country": "47.997542,-4.097899",
        "lat": "168",
        "lng": null
      },
      "length": 0
    },
    {
      "id": "E-2004-09",
      "year": 2004,
      "leg": "9",
      "leg_num": 0,
      "title": "St-Léonard de Noblat",
      "start": {
        "city": "France",
        "country": "45.83670,1.48621",
        "lat": "Guéret",
        "lng": null
      },
      "finish": {
        "city": "France",
        "country": "46.169599,1.871452",
        "lat": "160",
        "lng": null
      },
      "length": 0
    },
    {
      "id": "E-2004-10",
      "year": 2004,
      "leg": "10",
      "leg_num": 0,
      "title": "Limoges",
      "start": {
        "city": "France",
        "country": "45.833619,1.261105",
        "lat": "Saint-Flour",
        "lng": null
      },
      "finish": {
        "city": "France",
        "country": "45.033026,3.094862",
        "lat": "237",
        "lng": null
      },
      "length": 0
    },
    {
      "id": "E-2004-11",
      "year": 2004,
      "leg": "11",
      "leg_num": 0,
      "title": "Saint-Flour",
      "start": {
        "city": "France",
        "country": "45.033026,3.094862",
        "lat": "Figeac",
        "lng": null
      },
      "finish": {
        "city": "France",
        "country": "44.608288,2.032871",
        "lat": "164",
        "lng": null
      },
      "length": 0
    },
    {
      "id": "E-2004-12",
      "year": 2004,
      "leg": "12",
      "leg_num": 0,
      "title": "Castelsarrasin",
      "start": {
        "city": "France",
        "country": "44.039889,1.107132",
        "lat": "La Mongie",
        "lng": " Bagnères-de-Bigorre"
      },
      "finish": {
        "city": "France",
        "country": "42.91,0.179167",
        "lat": "197",
        "lng": null
      },
      "length": 0
    },
    {
      "id": "E-2004-13",
      "year": 2004,
      "leg": "13",
      "leg_num": 0,
      "title": "Lannemezan",
      "start": {
        "city": "France",
        "country": "43.125519,0.38396",
        "lat": "Plateau de Beille",
        "lng": " Aston"
      },
      "finish": {
        "city": "France",
        "country": "42.709683,1.702387",
        "lat": "205",
        "lng": null
      },
      "length": 0
    },
    {
      "id": "E-2004-14",
      "year": 2004,
      "leg": "14",
      "leg_num": 0,
      "title": "Carcassonne",
      "start": {
        "city": "France",
        "country": "43.212161,2.353663",
        "lat": "Nîmes",
        "lng": null
      },
      "finish": {
        "city": "France",
        "country": "43.836699,4.360054",
        "lat": "192",
        "lng": null
      },
      "length": 0
    },
    {
      "id": "E-2004-15",
      "year": 2004,
      "leg": "15",
      "leg_num": 0,
      "title": "Valréas",
      "start": {
        "city": "France",
        "country": "44.383724,4.989187",
        "lat": "Villard-de-Lans",
        "lng": null
      },
      "finish": {
        "city": "France",
        "country": "45.070641,5.55227",
        "lat": "180",
        "lng": null
      },
      "length": 0
    },
    {
      "id": "E-2004-16",
      "year": 2004,
      "leg": "16",
      "leg_num": 0,
      "title": "Le Bourg-d'Oisans",
      "start": {
        "city": "France",
        "country": "45.051951,6.030064",
        "lat": "Alpe d'Huez",
        "lng": null
      },
      "finish": {
        "city": "France",
        "country": "45.092624,6.068348",
        "lat": "15",
        "lng": null
      },
      "length": 0
    },
    {
      "id": "E-2004-17",
      "year": 2004,
      "leg": "17",
      "leg_num": 0,
      "title": "Le Bourg-d'Oisans",
      "start": {
        "city": "France",
        "country": "45.051951,6.030064",
        "lat": "Le Grand Bornand ",
        "lng": null
      },
      "finish": {
        "city": "France",
        "country": "45.942027,6.426699",
        "lat": "204",
        "lng": null
      },
      "length": 0
    },
    {
      "id": "E-2004-18",
      "year": 2004,
      "leg": "18",
      "leg_num": 0,
      "title": "Annemasse",
      "start": {
        "city": "France",
        "country": "46.193253,6.234158",
        "lat": "Lons-le-Saunier",
        "lng": null
      },
      "finish": {
        "city": "France",
        "country": "46.671361,5.550796",
        "lat": "166",
        "lng": null
      },
      "length": 0
    },
    {
      "id": "E-2004-19",
      "year": 2004,
      "leg": "19",
      "leg_num": 0,
      "title": "Besançon",
      "start": {
        "city": "France",
        "country": "47.237829,6.024054",
        "lat": "Besançon",
        "lng": null
      },
      "finish": {
        "city": "France",
        "country": "47.237829,6.024054",
        "lat": "55",
        "lng": null
      },
      "length": 0
    },
    {
      "id": "E-2004-20",
      "year": 2004,
      "leg": "20",
      "leg_num": 0,
      "title": "Montereau",
      "start": {
        "city": "France",
        "country": "48.384734,2.956193",
        "lat": "Paris",
        "lng": null
      },
      "finish": {
        "city": "France",
        "country": "48.856614,2.352222",
        "lat": "163",
        "lng": null
      },
      "length": 0
    }
  ]
}