{
  "year": 2006,
  "edition": 93,
  "total_length": 3657,
  "nb_legs": 21,
  "has_prologue": false,
  "nb_concurrents": 176,
  "nb_finishers": 139,
  "pct_finishers": 79,
  "winner_first_name": "Óscar",
  "winner_last_name": "Pereiro",
  "winner_id": "oscar-pereiro",
  "winner_total_time": "89h 39' 30\"",
  "winner_age": "28",
  "winner_country": "Espagne",
  "winner_avg_speed": "40,784",
  "ahead_of_2nd": "0h 00' 32\" ",
  "second_name": "A. Kloden",
  "second_country": "Allemagne",
  "second_id": null,
  "ahead_of_3rd": "0h 02' 16\"",
  "third_name": "C. Sastre",
  "third_country": "Espagne",
  "third_id": "carlos-sastre",
  "legs": [
    {
      "id": "E-2006-Prologue",
      "year": 2006,
      "leg": "Prologue",
      "leg_num": 0,
      "title": "Strasbourg - Strasbourg",
      "start": {
        "city": "Strasbourg",
        "country": "France",
        "lat": "48.583148",
        "lng": "7.747882"
      },
      "finish": {
        "city": "Strasbourg",
        "country": "France",
        "lat": "48.583148",
        "lng": "7.747882"
      },
      "length": 7
    },
    {
      "id": "E-2006-01",
      "year": 2006,
      "leg": "1",
      "leg_num": 1,
      "title": "Strasbourg - Strasbourg",
      "start": {
        "city": "Strasbourg",
        "country": "France",
        "lat": "48.583148",
        "lng": "7.747882"
      },
      "finish": {
        "city": "Strasbourg",
        "country": "France",
        "lat": "48.583148",
        "lng": "7.747882"
      },
      "length": 184
    },
    {
      "id": "E-2006-02",
      "year": 2006,
      "leg": "2",
      "leg_num": 2,
      "title": "Obernai - Esch-sur-Alzette (Lux.)",
      "start": {
        "city": "Obernai",
        "country": "France",
        "lat": "48.46226",
        "lng": "7.48168"
      },
      "finish": {
        "city": "Esch-sur-Alzette",
        "country": "Luxembourg",
        "lat": "49.50088",
        "lng": "5.986092"
      },
      "length": 228
    },
    {
      "id": "E-2006-03",
      "year": 2006,
      "leg": "3",
      "leg_num": 3,
      "title": "Esch-sur-Alzette (Lux.) - Valkenburg (P.-B.)",
      "start": {
        "city": "Esch-sur-Alzette",
        "country": "Luxembourg",
        "lat": "49.50088",
        "lng": "5.986092"
      },
      "finish": {
        "city": "Valkenburg",
        "country": "Pays-Bas",
        "lat": "50.863796",
        "lng": "5.833991"
      },
      "length": 216
    },
    {
      "id": "E-2006-04",
      "year": 2006,
      "leg": "4",
      "leg_num": 4,
      "title": "Huy (Bel.) - Saint-Quentin",
      "start": {
        "city": "Huy",
        "country": "Belgique",
        "lat": "50.518715",
        "lng": "5.239666"
      },
      "finish": {
        "city": "Saint-Quentin",
        "country": "France",
        "lat": "49.847066",
        "lng": "3.2874"
      },
      "length": 207
    },
    {
      "id": "E-2006-05",
      "year": 2006,
      "leg": "5",
      "leg_num": 5,
      "title": "Beauvais - Caen",
      "start": {
        "city": "Beauvais",
        "country": "France",
        "lat": "49.42964",
        "lng": "2.081875"
      },
      "finish": {
        "city": "Caen",
        "country": "France",
        "lat": "49.182863",
        "lng": "-0.370679"
      },
      "length": 225
    },
    {
      "id": "E-2006-06",
      "year": 2006,
      "leg": "6",
      "leg_num": 6,
      "title": "Lisieux - Vitré",
      "start": {
        "city": "Lisieux",
        "country": "France",
        "lat": "49.145922",
        "lng": "0.227849"
      },
      "finish": {
        "city": "Vitré",
        "country": "France",
        "lat": "48.124746",
        "lng": "-1.21543"
      },
      "length": 189
    },
    {
      "id": "E-2006-07",
      "year": 2006,
      "leg": "7",
      "leg_num": 7,
      "title": "Saint-Grégoire - Rennes",
      "start": {
        "city": "Saint-Grégoire",
        "country": "France",
        "lat": "48.153561",
        "lng": "-1.683146"
      },
      "finish": {
        "city": "Rennes",
        "country": "France",
        "lat": "48.113475",
        "lng": "-1.675708"
      },
      "length": 52
    },
    {
      "id": "E-2006-08",
      "year": 2006,
      "leg": "8",
      "leg_num": 8,
      "title": "Saint-Méen-le-Grand - Lorient",
      "start": {
        "city": "Saint-Méen-le-Grand",
        "country": "France",
        "lat": "48.189812",
        "lng": "-2.192985"
      },
      "finish": {
        "city": "Lorient",
        "country": "France",
        "lat": "47.748252",
        "lng": "-3.370245"
      },
      "length": 181
    },
    {
      "id": "E-2006-09",
      "year": 2006,
      "leg": "9",
      "leg_num": 9,
      "title": "Bordeaux - Dax",
      "start": {
        "city": "Bordeaux",
        "country": "France",
        "lat": "44.83779",
        "lng": "-0.57918"
      },
      "finish": {
        "city": "Dax",
        "country": "France",
        "lat": "43.708608",
        "lng": "-1.051945"
      },
      "length": 169
    },
    {
      "id": "E-2006-10",
      "year": 2006,
      "leg": "10",
      "leg_num": 10,
      "title": "Cambo-les-Bains Pau",
      "start": {
        "city": "Cambo-les-Bains",
        "country": "France",
        "lat": "43.361106",
        "lng": "-1.399376"
      },
      "finish": {
        "city": "Pau",
        "country": "France",
        "lat": "43.2951",
        "lng": "-0.370797"
      },
      "length": 190
    },
    {
      "id": "E-2006-11",
      "year": 2006,
      "leg": "11",
      "leg_num": 11,
      "title": "Tarbes - Val d'Aran-Pla-de-Beret",
      "start": {
        "city": "Tarbes",
        "country": "France",
        "lat": "43.232951",
        "lng": "0.078082"
      },
      "finish": {
        "city": "Val d'Aran-Pla-de-Beret",
        "country": "Espagne",
        "lat": "42.704592",
        "lng": "0.791991"
      },
      "length": 206
    },
    {
      "id": "E-2006-12",
      "year": 2006,
      "leg": "12",
      "leg_num": 12,
      "title": "Luchon - Carcassonne",
      "start": {
        "city": "Luchon",
        "country": "France",
        "lat": "42.788963",
        "lng": "0.592943"
      },
      "finish": {
        "city": "Carcassonne",
        "country": "France",
        "lat": "43.212161",
        "lng": "2.353663"
      },
      "length": 211
    },
    {
      "id": "E-2006-13",
      "year": 2006,
      "leg": "13",
      "leg_num": 13,
      "title": "Béziers - Montélimar",
      "start": {
        "city": "Béziers",
        "country": "France",
        "lat": "43.344233",
        "lng": "3.215795"
      },
      "finish": {
        "city": "Montélimar",
        "country": "France",
        "lat": "44.556944",
        "lng": "4.749496"
      },
      "length": 230
    },
    {
      "id": "E-2006-14",
      "year": 2006,
      "leg": "14",
      "leg_num": 14,
      "title": "Montélimar - Gap",
      "start": {
        "city": "Montélimar",
        "country": "France",
        "lat": "44.556944",
        "lng": "4.749496"
      },
      "finish": {
        "city": "Gap",
        "country": "France",
        "lat": "44.559638",
        "lng": "6.079758"
      },
      "length": 180
    },
    {
      "id": "E-2006-15",
      "year": 2006,
      "leg": "15",
      "leg_num": 15,
      "title": "Gap - L'Alpe d'Huez",
      "start": {
        "city": "Gap",
        "country": "France",
        "lat": "44.559638",
        "lng": "6.079758"
      },
      "finish": {
        "city": "L'Alpe d'Huez",
        "country": "France",
        "lat": "45.092624",
        "lng": "6.068348"
      },
      "length": 187
    },
    {
      "id": "E-2006-16",
      "year": 2006,
      "leg": "16",
      "leg_num": 16,
      "title": "Bourg-d'Oisans - La Toussuire",
      "start": {
        "city": "Bourg-d'Oisans",
        "country": "France",
        "lat": "45.051951",
        "lng": "6.030064"
      },
      "finish": {
        "city": "La Toussuire",
        "country": "France",
        "lat": "45.246608",
        "lng": "6.300579"
      },
      "length": 182
    },
    {
      "id": "E-2006-17",
      "year": 2006,
      "leg": "17",
      "leg_num": 17,
      "title": "Saint-Jean-de-Maurienne - Morzine",
      "start": {
        "city": "Saint-Jean-de-Maurienne",
        "country": "France",
        "lat": "45.275403",
        "lng": "6.344886"
      },
      "finish": {
        "city": "Morzine",
        "country": "France",
        "lat": "46.179192",
        "lng": "6.708877"
      },
      "length": 200
    },
    {
      "id": "E-2006-18",
      "year": 2006,
      "leg": "18",
      "leg_num": 18,
      "title": "Morzine - Mâcon",
      "start": {
        "city": "Morzine",
        "country": "France",
        "lat": "46.179192",
        "lng": "6.708877"
      },
      "finish": {
        "city": "Mâcon",
        "country": "France",
        "lat": "46.306884",
        "lng": "4.828731"
      },
      "length": 197
    },
    {
      "id": "E-2006-19",
      "year": 2006,
      "leg": "19",
      "leg_num": 19,
      "title": "Le Creusot - Montceau-les-Mines",
      "start": {
        "city": "Le Creusot",
        "country": "France",
        "lat": "46.805351",
        "lng": "4.4278"
      },
      "finish": {
        "city": "Montceau-les-Mines",
        "country": "France",
        "lat": "46.67413",
        "lng": "4.362979"
      },
      "length": 56
    },
    {
      "id": "E-2006-20",
      "year": 2006,
      "leg": "20",
      "leg_num": 20,
      "title": "Antony-Parc de Sceaux - Paris Champs-Élysées",
      "start": {
        "city": "Antony",
        "country": "France",
        "lat": "48.759255",
        "lng": "2.302553"
      },
      "finish": {
        "city": "Paris",
        "country": "France",
        "lat": "48.856614",
        "lng": "2.352222"
      },
      "length": 152
    }
  ]
}