{
  "year": 2007,
  "edition": 94,
  "total_length": 3570,
  "nb_legs": 21,
  "has_prologue": false,
  "nb_concurrents": 189,
  "nb_finishers": 141,
  "pct_finishers": 75,
  "winner_first_name": "Alberto",
  "winner_last_name": "Contador",
  "winner_id": "alberto-contador",
  "winner_total_time": "91h 00' 26\"",
  "winner_age": "24",
  "winner_country": "Espagne",
  "winner_avg_speed": "39,228",
  "ahead_of_2nd": "0h 00' 23\" ",
  "second_name": "C. Evans",
  "second_country": "Australie",
  "second_id": "cadel-evans",
  "ahead_of_3rd": "0h 00' 31\"",
  "third_name": "L. Leipheimer",
  "third_country": "États-Unis",
  "third_id": null,
  "legs": [
    {
      "id": "E-2007-Prologue",
      "year": 2007,
      "leg": "Prologue",
      "leg_num": 0,
      "title": "Londres (G.-B.) - Londres (G.-B.)",
      "start": {
        "city": "Londres",
        "country": "Grande-Bretagne",
        "lat": "51.511214",
        "lng": "-0.119824"
      },
      "finish": {
        "city": "Londres",
        "country": "Grande-Bretagne",
        "lat": "51.511214",
        "lng": "-0.119824"
      },
      "length": 7
    },
    {
      "id": "E-2007-01",
      "year": 2007,
      "leg": "1",
      "leg_num": 1,
      "title": "Londres (G.-B.) - Cantorbéry (G.-B.)",
      "start": {
        "city": "Londres",
        "country": "Grande-Bretagne",
        "lat": "51.511214",
        "lng": "-0.119824"
      },
      "finish": {
        "city": "Cantorbéry",
        "country": "Grande-Bretagne",
        "lat": "51.280233",
        "lng": "1.078909"
      },
      "length": 203
    },
    {
      "id": "E-2007-02",
      "year": 2007,
      "leg": "2",
      "leg_num": 2,
      "title": "Dunkerque - Gand (Bel.)",
      "start": {
        "city": "Dunkerque",
        "country": "France",
        "lat": "51.03456",
        "lng": "2.375202"
      },
      "finish": {
        "city": "Gand",
        "country": "Belgique",
        "lat": "51.053468",
        "lng": "3.73038"
      },
      "length": 167
    },
    {
      "id": "E-2007-03",
      "year": 2007,
      "leg": "3",
      "leg_num": 3,
      "title": "Waregem (Bel.) - Compiègne",
      "start": {
        "city": "Waregem",
        "country": "Belgique",
        "lat": "50.886895",
        "lng": "3.423168"
      },
      "finish": {
        "city": "Compiègne",
        "country": "France",
        "lat": "49.417816",
        "lng": "2.826145"
      },
      "length": 236
    },
    {
      "id": "E-2007-04",
      "year": 2007,
      "leg": "4",
      "leg_num": 4,
      "title": "Villers-Cotterêts - Joigny",
      "start": {
        "city": "Villers-Cotterêts",
        "country": "France",
        "lat": "49.255061",
        "lng": "3.090816"
      },
      "finish": {
        "city": "Joigny",
        "country": "France",
        "lat": "47.981432",
        "lng": "3.398961"
      },
      "length": 190
    },
    {
      "id": "E-2007-05",
      "year": 2007,
      "leg": "5",
      "leg_num": 5,
      "title": "Chablis - Autun",
      "start": {
        "city": "Chablis",
        "country": "France",
        "lat": "47.815269",
        "lng": "3.800451"
      },
      "finish": {
        "city": "Autun",
        "country": "France",
        "lat": "46.950914",
        "lng": "4.301565"
      },
      "length": 184
    },
    {
      "id": "E-2007-06",
      "year": 2007,
      "leg": "6",
      "leg_num": 6,
      "title": "Semur-en-Auxois - Bourg-en-Bresse",
      "start": {
        "city": "Semur-en-Auxois",
        "country": "France",
        "lat": "47.490238",
        "lng": "4.33234"
      },
      "finish": {
        "city": "Bourg-en-Bresse",
        "country": "France",
        "lat": "46.20279",
        "lng": "5.219246"
      },
      "length": 200
    },
    {
      "id": "E-2007-07",
      "year": 2007,
      "leg": "7",
      "leg_num": 7,
      "title": "Bourg-en-Bresse - Le Grand-Bornand",
      "start": {
        "city": "Bourg-en-Bresse",
        "country": "France",
        "lat": "46.20279",
        "lng": "5.219246"
      },
      "finish": {
        "city": "Le Grand-Bornand",
        "country": "France",
        "lat": "45.942027",
        "lng": "6.426699"
      },
      "length": 197
    },
    {
      "id": "E-2007-08",
      "year": 2007,
      "leg": "8",
      "leg_num": 8,
      "title": "Le Grand-Bornand - Tignes",
      "start": {
        "city": "Le Grand-Bornand",
        "country": "France",
        "lat": "45.942027",
        "lng": "6.426699"
      },
      "finish": {
        "city": "Tignes",
        "country": "France",
        "lat": "45.468323",
        "lng": "6.905578"
      },
      "length": 165
    },
    {
      "id": "E-2007-09",
      "year": 2007,
      "leg": "9",
      "leg_num": 9,
      "title": "Val d'Isère - Briançon",
      "start": {
        "city": "Val d'Isère",
        "country": "France",
        "lat": "45.448034",
        "lng": "6.980226"
      },
      "finish": {
        "city": "Briançon",
        "country": "France",
        "lat": "44.899416",
        "lng": "6.643179"
      },
      "length": 161
    },
    {
      "id": "E-2007-10",
      "year": 2007,
      "leg": "10",
      "leg_num": 10,
      "title": "Tallard - Marseille",
      "start": {
        "city": "Tallard",
        "country": "France",
        "lat": "44.461865",
        "lng": "6.055327"
      },
      "finish": {
        "city": "Marseille",
        "country": "France",
        "lat": "43.296482",
        "lng": "5.36978"
      },
      "length": 229
    },
    {
      "id": "E-2007-11",
      "year": 2007,
      "leg": "11",
      "leg_num": 11,
      "title": "Marseille - Montpellier",
      "start": {
        "city": "Marseille",
        "country": "France",
        "lat": "43.296482",
        "lng": "5.36978"
      },
      "finish": {
        "city": "Montpellier",
        "country": "France",
        "lat": "43.610769",
        "lng": "3.876716"
      },
      "length": 180
    },
    {
      "id": "E-2007-12",
      "year": 2007,
      "leg": "12",
      "leg_num": 12,
      "title": "Montpellier - Castres",
      "start": {
        "city": "Montpellier",
        "country": "France",
        "lat": "43.610769",
        "lng": "3.876716"
      },
      "finish": {
        "city": "Castres",
        "country": "France",
        "lat": "43.606214",
        "lng": "2.241295"
      },
      "length": 179
    },
    {
      "id": "E-2007-13",
      "year": 2007,
      "leg": "13",
      "leg_num": 13,
      "title": "Albi - Albi",
      "start": {
        "city": "Albi",
        "country": "France",
        "lat": "43.926896",
        "lng": "2.146343"
      },
      "finish": {
        "city": "Albi",
        "country": "France",
        "lat": "43.926896",
        "lng": "2.146343"
      },
      "length": 54
    },
    {
      "id": "E-2007-14",
      "year": 2007,
      "leg": "14",
      "leg_num": 14,
      "title": "Mazamet - Plateau de Beille",
      "start": {
        "city": "Mazamet",
        "country": "France",
        "lat": "43.490103",
        "lng": "2.376579"
      },
      "finish": {
        "city": "Plateau de Beille, Aston",
        "country": "France",
        "lat": "42.709683",
        "lng": "1.702387"
      },
      "length": 197
    },
    {
      "id": "E-2007-15",
      "year": 2007,
      "leg": "15",
      "leg_num": 15,
      "title": "Foix - Loudenvielle (Val-Louron)",
      "start": {
        "city": "Foix",
        "country": "France",
        "lat": "42.964127",
        "lng": "1.605232"
      },
      "finish": {
        "city": "Loudenvielle",
        "country": "France",
        "lat": "42.795702",
        "lng": "0.412744"
      },
      "length": 196
    },
    {
      "id": "E-2007-16",
      "year": 2007,
      "leg": "16",
      "leg_num": 16,
      "title": "Orthez - Gourette (Col d'Aubisque)",
      "start": {
        "city": "Orthez",
        "country": "France",
        "lat": "43.48756",
        "lng": "-0.773928"
      },
      "finish": {
        "city": "Gourette, Eaux-Bonnes",
        "country": "France",
        "lat": "42.958836",
        "lng": "-0.332111"
      },
      "length": 218
    },
    {
      "id": "E-2007-17",
      "year": 2007,
      "leg": "17",
      "leg_num": 17,
      "title": "Pau - Castelsarrasin",
      "start": {
        "city": "Pau",
        "country": "France",
        "lat": "43.2951",
        "lng": "-0.370797"
      },
      "finish": {
        "city": "Castelsarrasin",
        "country": "France",
        "lat": "44.039889",
        "lng": "1.107132"
      },
      "length": 188
    },
    {
      "id": "E-2007-18",
      "year": 2007,
      "leg": "18",
      "leg_num": 18,
      "title": "Cahors - Angoulême",
      "start": {
        "city": "Cahors",
        "country": "France",
        "lat": "44.447523",
        "lng": "1.441989"
      },
      "finish": {
        "city": "Angoulême",
        "country": "France",
        "lat": "45.648377",
        "lng": "0.156237"
      },
      "length": 211
    },
    {
      "id": "E-2007-19",
      "year": 2007,
      "leg": "19",
      "leg_num": 19,
      "title": "Cognac - Angoulême",
      "start": {
        "city": "Cognac",
        "country": "France",
        "lat": "45.691046",
        "lng": "-0.328744"
      },
      "finish": {
        "city": "Angoulême",
        "country": "France",
        "lat": "45.648377",
        "lng": "0.156237"
      },
      "length": 55
    },
    {
      "id": "E-2007-20",
      "year": 2007,
      "leg": "20",
      "leg_num": 20,
      "title": "Marcoussis - Paris-Champs-Élysées",
      "start": {
        "city": "Marcoussis",
        "country": "France",
        "lat": "48.642446",
        "lng": "2.229881"
      },
      "finish": {
        "city": "Paris",
        "country": "France",
        "lat": "48.856614",
        "lng": "2.352222"
      },
      "length": 130
    }
  ]
}