{
  "year": 2007,
  "edition": 94,
  "total_length": 3570,
  "nb_legs": 21,
  "has_prologue": false,
  "nb_concurrents": 189,
  "nb_finishers": 141,
  "pct_finishers": 75,
  "winner_first_name": "Alberto",
  "winner_last_name": "Contador",
  "winner_id": "alberto-contador",
  "winner_total_time": "91h 00' 26\"",
  "winner_age": "24",
  "winner_country": "Espagne",
  "winner_avg_speed": "39,228",
  "ahead_of_2nd": "0h 00' 23\" ",
  "second_name": "C. Evans",
  "second_country": "Australie",
  "second_id": "cadel-evans",
  "ahead_of_3rd": "0h 00' 31\"",
  "third_name": "L. Leipheimer",
  "third_country": "États-Unis",
  "third_id": null,
  "legs": [
    {
      "id": "E-2007-Prologue",
      "year": 2007,
      "leg": "Prologue",
      "leg_num": 0,
      "title": "Londres",
      "start": {
        "city": "Grande-Bretagne",
        "country": "51.511214,-0.119824",
        "lat": "Londres",
        "lng": null
      },
      "finish": {
        "city": "Grande-Bretagne",
        "country": "51.511214,-0.119824",
        "lat": "7",
        "lng": "9"
      },
      "length": 0
    },
    {
      "id": "E-2007-01",
      "year": 2007,
      "leg": "1",
      "leg_num": 0,
      "title": "Londres",
      "start": {
        "city": "Grande-Bretagne",
        "country": "51.511214,-0.119824",
        "lat": "Cantorbéry",
        "lng": null
      },
      "finish": {
        "city": "Grande-Bretagne",
        "country": "51.280233,1.078909",
        "lat": "203",
        "lng": null
      },
      "length": 0
    },
    {
      "id": "E-2007-02",
      "year": 2007,
      "leg": "2",
      "leg_num": 0,
      "title": "Dunkerque",
      "start": {
        "city": "France",
        "country": "51.03456,2.375202",
        "lat": "Gand",
        "lng": null
      },
      "finish": {
        "city": "Belgique",
        "country": "51.053468,3.73038",
        "lat": "167",
        "lng": null
      },
      "length": 0
    },
    {
      "id": "E-2007-03",
      "year": 2007,
      "leg": "3",
      "leg_num": 0,
      "title": "Waregem",
      "start": {
        "city": "Belgique",
        "country": "50.886895,3.423168",
        "lat": "Compiègne",
        "lng": null
      },
      "finish": {
        "city": "France",
        "country": "49.417816,2.826145",
        "lat": "236",
        "lng": null
      },
      "length": 0
    },
    {
      "id": "E-2007-04",
      "year": 2007,
      "leg": "4",
      "leg_num": 0,
      "title": "Villers-Cotterêts",
      "start": {
        "city": "France",
        "country": "49.255061,3.090816",
        "lat": "Joigny",
        "lng": null
      },
      "finish": {
        "city": "France",
        "country": "47.981432,3.398961",
        "lat": "190",
        "lng": null
      },
      "length": 0
    },
    {
      "id": "E-2007-05",
      "year": 2007,
      "leg": "5",
      "leg_num": 0,
      "title": "Chablis",
      "start": {
        "city": "France",
        "country": "47.815269,3.800451",
        "lat": "Autun",
        "lng": null
      },
      "finish": {
        "city": "France",
        "country": "46.950914,4.301565",
        "lat": "184",
        "lng": null
      },
      "length": 0
    },
    {
      "id": "E-2007-06",
      "year": 2007,
      "leg": "6",
      "leg_num": 0,
      "title": "Semur-en-Auxois",
      "start": {
        "city": "France",
        "country": "47.490238,4.33234",
        "lat": "Bourg-en-Bresse",
        "lng": null
      },
      "finish": {
        "city": "France",
        "country": "46.20279,5.219246",
        "lat": "200",
        "lng": null
      },
      "length": 0
    },
    {
      "id": "E-2007-07",
      "year": 2007,
      "leg": "7",
      "leg_num": 0,
      "title": "Bourg-en-Bresse",
      "start": {
        "city": "France",
        "country": "46.20279,5.219246",
        "lat": "Le Grand-Bornand",
        "lng": null
      },
      "finish": {
        "city": "France",
        "country": "45.942027,6.426699",
        "lat": "197",
        "lng": null
      },
      "length": 0
    },
    {
      "id": "E-2007-08",
      "year": 2007,
      "leg": "8",
      "leg_num": 0,
      "title": "Le Grand-Bornand",
      "start": {
        "city": "France",
        "country": "45.942027,6.426699",
        "lat": "Tignes",
        "lng": null
      },
      "finish": {
        "city": "France",
        "country": "45.468323,6.905578",
        "lat": "165",
        "lng": null
      },
      "length": 0
    },
    {
      "id": "E-2007-09",
      "year": 2007,
      "leg": "9",
      "leg_num": 0,
      "title": "Val d'Isère",
      "start": {
        "city": "France",
        "country": "45.448034,6.980226",
        "lat": "Briançon",
        "lng": null
      },
      "finish": {
        "city": "France",
        "country": "44.899416,6.643179",
        "lat": "161",
        "lng": null
      },
      "length": 0
    },
    {
      "id": "E-2007-10",
      "year": 2007,
      "leg": "10",
      "leg_num": 0,
      "title": "Tallard",
      "start": {
        "city": "France",
        "country": "44.461865,6.055327",
        "lat": "Marseille",
        "lng": null
      },
      "finish": {
        "city": "France",
        "country": "43.296482,5.36978",
        "lat": "229",
        "lng": null
      },
      "length": 0
    },
    {
      "id": "E-2007-11",
      "year": 2007,
      "leg": "11",
      "leg_num": 0,
      "title": "Marseille",
      "start": {
        "city": "France",
        "country": "43.296482,5.36978",
        "lat": "Montpellier",
        "lng": null
      },
      "finish": {
        "city": "France",
        "country": "43.610769,3.876716",
        "lat": "180",
        "lng": null
      },
      "length": 0
    },
    {
      "id": "E-2007-12",
      "year": 2007,
      "leg": "12",
      "leg_num": 0,
      "title": "Montpellier",
      "start": {
        "city": "France",
        "country": "43.610769,3.876716",
        "lat": "Castres",
        "lng": null
      },
      "finish": {
        "city": "France",
        "country": "43.606214,2.241295",
        "lat": "179",
        "lng": null
      },
      "length": 0
    },
    {
      "id": "E-2007-13",
      "year": 2007,
      "leg": "13",
      "leg_num": 0,
      "title": "Albi",
      "start": {
        "city": "France",
        "country": "43.926896,2.146343",
        "lat": "Albi",
        "lng": null
      },
      "finish": {
        "city": "France",
        "country": "43.926896,2.146343",
        "lat": "54",
        "lng": null
      },
      "length": 0
    },
    {
      "id": "E-2007-14",
      "year": 2007,
      "leg": "14",
      "leg_num": 0,
      "title": "Mazamet",
      "start": {
        "city": "France",
        "country": "43.490103,2.376579",
        "lat": "Plateau de Beille",
        "lng": " Aston"
      },
      "finish": {
        "city": "France",
        "country": "42.709683,1.702387",
        "lat": "197",
        "lng": null
      },
      "length": 0
    },
    {
      "id": "E-2007-15",
      "year": 2007,
      "leg": "15",
      "leg_num": 0,
      "title": "Foix",
      "start": {
        "city": "France",
        "country": "42.964127,1.605232",
        "lat": "Loudenvielle",
        "lng": null
      },
      "finish": {
        "city": "France",
        "country": "42.795702,0.412744",
        "lat": "196",
        "lng": null
      },
      "length": 0
    },
    {
      "id": "E-2007-16",
      "year": 2007,
      "leg": "16",
      "leg_num": 0,
      "title": "Orthez",
      "start": {
        "city": "France",
        "country": "43.48756,-0.773928",
        "lat": "Gourette",
        "lng": " Eaux-Bonnes"
      },
      "finish": {
        "city": "France",
        "country": "42.958836,-0.332111",
        "lat": "218",
        "lng": null
      },
      "length": 0
    },
    {
      "id": "E-2007-17",
      "year": 2007,
      "leg": "17",
      "leg_num": 0,
      "title": "Pau",
      "start": {
        "city": "France",
        "country": "43.2951,-0.370797",
        "lat": "Castelsarrasin",
        "lng": null
      },
      "finish": {
        "city": "France",
        "country": "44.039889,1.107132",
        "lat": "188",
        "lng": null
      },
      "length": 0
    },
    {
      "id": "E-2007-18",
      "year": 2007,
      "leg": "18",
      "leg_num": 0,
      "title": "Cahors",
      "start": {
        "city": "France",
        "country": "44.447523,1.441989",
        "lat": "Angoulême",
        "lng": null
      },
      "finish": {
        "city": "France",
        "country": "45.648377,0.156237",
        "lat": "211",
        "lng": null
      },
      "length": 0
    },
    {
      "id": "E-2007-19",
      "year": 2007,
      "leg": "19",
      "leg_num": 0,
      "title": "Cognac",
      "start": {
        "city": "France",
        "country": "45.691046,-0.328744",
        "lat": "Angoulême",
        "lng": null
      },
      "finish": {
        "city": "France",
        "country": "45.648377,0.156237",
        "lat": "55",
        "lng": "5"
      },
      "length": 0
    },
    {
      "id": "E-2007-20",
      "year": 2007,
      "leg": "20",
      "leg_num": 0,
      "title": "Marcoussis",
      "start": {
        "city": "France",
        "country": "48.642446,2.229881",
        "lat": "Paris",
        "lng": null
      },
      "finish": {
        "city": "France",
        "country": "48.856614,2.352222",
        "lat": "130",
        "lng": null
      },
      "length": 0
    }
  ]
}