{
  "year": 2007,
  "edition": 94,
  "total_length": 3570,
  "nb_legs": 21,
  "has_prologue": true,
  "nb_concurrents": 189,
  "nb_finishers": 141,
  "pct_finishers": 75,
  "winner_name": "Alberto Contador",
  "winner_time": "91h 00’ 26\"",
  "ahead_of_2nd": "0h 00' 23\" ",
  "second_name": "C. Evans",
  "second_country": "Australie",
  "ahead_of_3rd": "0h 00' 31\"",
  "third_name": "L. Leipheimer",
  "third_country": "L. Leipheimer",
  "legs": [
    {
      "id": "E-2007-Prologue",
      "year": 2007,
      "leg": 0,
      "title": "Londres (GBR) - Londres (GBR)",
      "start": {
        "city": "Londres",
        "country": "Grande-Bretagne",
        "lat": "51.511214",
        "lng": "-0.119824"
      },
      "finish": {
        "city": "Londres",
        "country": "Grande-Bretagne",
        "lat": "51.511214",
        "lng": "-0.119824"
      },
      "length": 7,
      "type": null,
      "winner": {
        "name": "Drapeau : SuisseFabian Cancellara",
        "nationality": null
      },
      "leader": {
        "name": "Drapeau : SuisseFabian Cancellara",
        "nationality": null
      }
    },
    {
      "id": "E-2007-01",
      "year": 2007,
      "leg": 1,
      "title": "Londres (GBR) - Cantorbéry (GBR)",
      "start": {
        "city": "Londres",
        "country": "Grande-Bretagne",
        "lat": "51.511214",
        "lng": "-0.119824"
      },
      "finish": {
        "city": "Cantorbéry",
        "country": "Grande-Bretagne",
        "lat": "51.280233",
        "lng": "1.078909"
      },
      "length": 203,
      "type": null,
      "winner": {
        "name": "Drapeau : AustralieRobbie McEwen",
        "nationality": null
      },
      "leader": {
        "name": "Drapeau : SuisseFabian Cancellara",
        "nationality": null
      }
    },
    {
      "id": "E-2007-02",
      "year": 2007,
      "leg": 2,
      "title": "Dunkerque - Gand (BEL)",
      "start": {
        "city": "Dunkerque",
        "country": "France",
        "lat": "51.03456",
        "lng": "2.375202"
      },
      "finish": {
        "city": "Gand",
        "country": "Belgique",
        "lat": "51.053468",
        "lng": "3.73038"
      },
      "length": 167,
      "type": null,
      "winner": {
        "name": "Drapeau : BelgiqueGert Steegmans",
        "nationality": null
      },
      "leader": {
        "name": "Drapeau : SuisseFabian Cancellara",
        "nationality": null
      }
    },
    {
      "id": "E-2007-03",
      "year": 2007,
      "leg": 3,
      "title": "Waregem (BEL) - Compiègne",
      "start": {
        "city": "Waregem",
        "country": "Belgique",
        "lat": "50.886895",
        "lng": "3.423168"
      },
      "finish": {
        "city": "Compiègne",
        "country": "France",
        "lat": "49.417816",
        "lng": "2.826145"
      },
      "length": 236,
      "type": null,
      "winner": {
        "name": "Drapeau : SuisseFabian Cancellara",
        "nationality": null
      },
      "leader": {
        "name": "Drapeau : SuisseFabian Cancellara",
        "nationality": null
      }
    },
    {
      "id": "E-2007-04",
      "year": 2007,
      "leg": 4,
      "title": "Villers-Cotterêts - Joigny",
      "start": {
        "city": "Villers-Cotterêts",
        "country": "France",
        "lat": "49.255061",
        "lng": "3.090816"
      },
      "finish": {
        "city": "Joigny",
        "country": "France",
        "lat": "47.981432",
        "lng": "3.398961"
      },
      "length": 190,
      "type": null,
      "winner": {
        "name": "Drapeau : NorvègeThor Hushovd",
        "nationality": null
      },
      "leader": {
        "name": "Drapeau : SuisseFabian Cancellara",
        "nationality": null
      }
    },
    {
      "id": "E-2007-05",
      "year": 2007,
      "leg": 5,
      "title": "Chablis - Autun",
      "start": {
        "city": "Chablis",
        "country": "France",
        "lat": "47.815269",
        "lng": "3.800451"
      },
      "finish": {
        "city": "Autun",
        "country": "France",
        "lat": "46.950914",
        "lng": "4.301565"
      },
      "length": 184,
      "type": null,
      "winner": {
        "name": "Drapeau : ItalieFilippo Pozzato",
        "nationality": null
      },
      "leader": {
        "name": "Drapeau : SuisseFabian Cancellara",
        "nationality": null
      }
    },
    {
      "id": "E-2007-06",
      "year": 2007,
      "leg": 6,
      "title": "Semur-en-Auxois - Bourg-en-Bresse",
      "start": {
        "city": "Semur-en-Auxois",
        "country": "France",
        "lat": "47.490238",
        "lng": "4.33234"
      },
      "finish": {
        "city": "Bourg-en-Bresse",
        "country": "France",
        "lat": "46.20279",
        "lng": "5.219246"
      },
      "length": 200,
      "type": null,
      "winner": {
        "name": "Drapeau : BelgiqueTom Boonen",
        "nationality": null
      },
      "leader": {
        "name": "Drapeau : SuisseFabian Cancellara",
        "nationality": null
      }
    },
    {
      "id": "E-2007-07",
      "year": 2007,
      "leg": 7,
      "title": "Bourg-en-Bresse - Le Grand-Bornand",
      "start": {
        "city": "Bourg-en-Bresse",
        "country": "France",
        "lat": "46.20279",
        "lng": "5.219246"
      },
      "finish": {
        "city": "Le Grand-Bornand",
        "country": "France",
        "lat": "45.942027",
        "lng": "6.426699"
      },
      "length": 197,
      "type": null,
      "winner": {
        "name": "Drapeau : AllemagneLinus Gerdemann",
        "nationality": null
      },
      "leader": {
        "name": "Drapeau : AllemagneLinus Gerdemann",
        "nationality": null
      }
    },
    {
      "id": "E-2007-08",
      "year": 2007,
      "leg": 8,
      "title": "Le Grand-Bornand - Tignes",
      "start": {
        "city": "Le Grand-Bornand",
        "country": "France",
        "lat": "45.942027",
        "lng": "6.426699"
      },
      "finish": {
        "city": "Tignes",
        "country": "France",
        "lat": "45.468323",
        "lng": "6.905578"
      },
      "length": 165,
      "type": null,
      "winner": {
        "name": "Drapeau : DanemarkMichael Rasmussen",
        "nationality": null
      },
      "leader": {
        "name": "Drapeau : DanemarkMichael Rasmussen",
        "nationality": null
      }
    },
    {
      "id": "E-2007-09",
      "year": 2007,
      "leg": 9,
      "title": "Val d'Isère - Briançon",
      "start": {
        "city": "Val d'Isère",
        "country": "France",
        "lat": "45.448034",
        "lng": "6.980226"
      },
      "finish": {
        "city": "Briançon",
        "country": "France",
        "lat": "44.899416",
        "lng": "6.643179"
      },
      "length": 161,
      "type": null,
      "winner": {
        "name": "Drapeau : ColombieMauricio Soler",
        "nationality": null
      },
      "leader": {
        "name": "Drapeau : DanemarkMichael Rasmussen",
        "nationality": null
      }
    },
    {
      "id": "E-2007-10",
      "year": 2007,
      "leg": 10,
      "title": "Tallard - Marseille",
      "start": {
        "city": "Tallard",
        "country": "France",
        "lat": "44.461865",
        "lng": "6.055327"
      },
      "finish": {
        "city": "Marseille",
        "country": "France",
        "lat": "43.296482",
        "lng": "5.36978"
      },
      "length": 229,
      "type": null,
      "winner": {
        "name": "Drapeau : FranceCédric Vasseur",
        "nationality": null
      },
      "leader": {
        "name": "Drapeau : DanemarkMichael Rasmussen",
        "nationality": null
      }
    },
    {
      "id": "E-2007-11",
      "year": 2007,
      "leg": 11,
      "title": "Marseille - Montpellier",
      "start": {
        "city": "Marseille",
        "country": "France",
        "lat": "43.296482",
        "lng": "5.36978"
      },
      "finish": {
        "city": "Montpellier",
        "country": "France",
        "lat": "43.610769",
        "lng": "3.876716"
      },
      "length": 180,
      "type": null,
      "winner": {
        "name": "Drapeau : Afrique du SudRobert Hunter",
        "nationality": null
      },
      "leader": {
        "name": "Drapeau : DanemarkMichael Rasmussen",
        "nationality": null
      }
    },
    {
      "id": "E-2007-12",
      "year": 2007,
      "leg": 12,
      "title": "Montpellier - Castres",
      "start": {
        "city": "Montpellier",
        "country": "France",
        "lat": "43.610769",
        "lng": "3.876716"
      },
      "finish": {
        "city": "Castres",
        "country": "France",
        "lat": "43.606214",
        "lng": "2.241295"
      },
      "length": 179,
      "type": null,
      "winner": {
        "name": "Drapeau : BelgiqueTom Boonen",
        "nationality": null
      },
      "leader": {
        "name": "Drapeau : DanemarkMichael Rasmussen",
        "nationality": null
      }
    },
    {
      "id": "E-2007-13",
      "year": 2007,
      "leg": 13,
      "title": "Albi - Albi",
      "start": {
        "city": "Albi",
        "country": "France",
        "lat": "43.926896",
        "lng": "2.146343"
      },
      "finish": {
        "city": "Albi",
        "country": "France",
        "lat": "43.926896",
        "lng": "2.146343"
      },
      "length": 54,
      "type": null,
      "winner": {
        "name": "Drapeau : AustralieCadel Evans",
        "nationality": null
      },
      "leader": {
        "name": "Drapeau : DanemarkMichael Rasmussen",
        "nationality": null
      }
    },
    {
      "id": "E-2007-14",
      "year": 2007,
      "leg": 14,
      "title": "Mazamet - Plateau de Beille",
      "start": {
        "city": "Mazamet",
        "country": "France",
        "lat": "43.490103",
        "lng": "2.376579"
      },
      "finish": {
        "city": "Plateau de Beille, Aston",
        "country": "France",
        "lat": "42.709683",
        "lng": "1.702387"
      },
      "length": 197,
      "type": null,
      "winner": {
        "name": "Drapeau : EspagneAlberto Contador",
        "nationality": null
      },
      "leader": {
        "name": "Drapeau : DanemarkMichael Rasmussen",
        "nationality": null
      }
    },
    {
      "id": "E-2007-15",
      "year": 2007,
      "leg": 15,
      "title": "Foix - Loudenvielle (Val-Louron)",
      "start": {
        "city": "Foix",
        "country": "France",
        "lat": "42.964127",
        "lng": "1.605232"
      },
      "finish": {
        "city": "Loudenvielle",
        "country": "France",
        "lat": "42.795702",
        "lng": "0.412744"
      },
      "length": 196,
      "type": null,
      "winner": {
        "name": "Drapeau : LuxembourgKim Kirchen",
        "nationality": null
      },
      "leader": {
        "name": "Drapeau : DanemarkMichael Rasmussen",
        "nationality": null
      }
    },
    {
      "id": "E-2007-16",
      "year": 2007,
      "leg": 16,
      "title": "Orthez - Gourette (Col d'Aubisque)",
      "start": {
        "city": "Orthez",
        "country": "France",
        "lat": "43.48756",
        "lng": "-0.773928"
      },
      "finish": {
        "city": "Gourette, Eaux-Bonnes",
        "country": "France",
        "lat": "42.958836",
        "lng": "-0.332111"
      },
      "length": 218,
      "type": null,
      "winner": {
        "name": "Drapeau : DanemarkMichael Rasmussen",
        "nationality": null
      },
      "leader": {
        "name": "Drapeau : DanemarkMichael Rasmussen[18]",
        "nationality": null
      }
    },
    {
      "id": "E-2007-17",
      "year": 2007,
      "leg": 17,
      "title": "Pau - Castelsarrasin",
      "start": {
        "city": "Pau",
        "country": "France",
        "lat": "43.2951",
        "lng": "-0.370797"
      },
      "finish": {
        "city": "Castelsarrasin",
        "country": "France",
        "lat": "44.039889",
        "lng": "1.107132"
      },
      "length": 188,
      "type": null,
      "winner": {
        "name": "Drapeau : ItalieDaniele Bennati",
        "nationality": null
      },
      "leader": {
        "name": "Drapeau : EspagneAlberto Contador",
        "nationality": null
      }
    },
    {
      "id": "E-2007-18",
      "year": 2007,
      "leg": 18,
      "title": "Cahors - Angoulême",
      "start": {
        "city": "Cahors",
        "country": "France",
        "lat": "44.447523",
        "lng": "1.441989"
      },
      "finish": {
        "city": "Angoulême",
        "country": "France",
        "lat": "45.648377",
        "lng": "0.156237"
      },
      "length": 211,
      "type": null,
      "winner": {
        "name": "Drapeau : FranceSandy Casar",
        "nationality": null
      },
      "leader": {
        "name": "Drapeau : EspagneAlberto Contador",
        "nationality": null
      }
    },
    {
      "id": "E-2007-19",
      "year": 2007,
      "leg": 19,
      "title": "Cognac - Angoulême",
      "start": {
        "city": "Cognac",
        "country": "France",
        "lat": "45.691046",
        "lng": "-0.328744"
      },
      "finish": {
        "city": "Angoulême",
        "country": "France",
        "lat": "45.648377",
        "lng": "0.156237"
      },
      "length": 55,
      "type": null,
      "winner": {
        "name": "Drapeau : États-UnisLevi Leipheimer",
        "nationality": null
      },
      "leader": {
        "name": "Drapeau : EspagneAlberto Contador",
        "nationality": null
      }
    },
    {
      "id": "E-2007-20",
      "year": 2007,
      "leg": 20,
      "title": "Marcoussis - Paris-Champs-Élysées",
      "start": {
        "city": "Marcoussis",
        "country": "France",
        "lat": "48.642446",
        "lng": "2.229881"
      },
      "finish": {
        "city": "Paris",
        "country": "France",
        "lat": "48.856614",
        "lng": "2.352222"
      },
      "length": 130,
      "type": null,
      "winner": {
        "name": "Drapeau : ItalieDaniele Bennati",
        "nationality": null
      },
      "leader": {
        "name": "Drapeau : EspagneAlberto Contador",
        "nationality": null
      }
    }
  ]
}