{
  "year": 2008,
  "edition": 95,
  "total_length": 3559,
  "nb_legs": 21,
  "has_prologue": false,
  "nb_concurrents": 180,
  "nb_finishers": 145,
  "pct_finishers": 81,
  "winner_first_name": "Carlos",
  "winner_last_name": "Sastre",
  "winner_id": "carlos-sastre",
  "winner_total_time": "87h 52' 52''",
  "winner_age": "33",
  "winner_country": "Espagne",
  "winner_avg_speed": "40,492",
  "ahead_of_2nd": "0h 00' 58\" ",
  "second_name": "C. Evans",
  "second_country": "Australie",
  "second_id": "cadel-evans",
  "ahead_of_3rd": "0h 02' 10\"",
  "third_name": "D. Menchov",
  "third_country": "Russie",
  "third_id": null,
  "legs": [
    {
      "id": "E-2008-01",
      "year": 2008,
      "leg": "1",
      "leg_num": 0,
      "title": "Brest",
      "start": {
        "city": "France",
        "country": "48.390394,-4.486076",
        "lat": "Plumelec",
        "lng": null
      },
      "finish": {
        "city": "France",
        "country": "47.837699,-2.639409",
        "lat": "197",
        "lng": "5"
      },
      "length": 0
    },
    {
      "id": "E-2008-02",
      "year": 2008,
      "leg": "2",
      "leg_num": 0,
      "title": "Auray",
      "start": {
        "city": "France",
        "country": "47.666491,-2.983767",
        "lat": "Saint-Brieuc",
        "lng": null
      },
      "finish": {
        "city": "France",
        "country": "48.51418,-2.765835",
        "lat": "164",
        "lng": "5"
      },
      "length": 0
    },
    {
      "id": "E-2008-03",
      "year": 2008,
      "leg": "3",
      "leg_num": 0,
      "title": "Saint-Malo",
      "start": {
        "city": "France",
        "country": "48.649337,-2.025674",
        "lat": "Nantes",
        "lng": null
      },
      "finish": {
        "city": "France",
        "country": "47.218371,-1.553621",
        "lat": "208",
        "lng": null
      },
      "length": 0
    },
    {
      "id": "E-2008-04",
      "year": 2008,
      "leg": "4",
      "leg_num": 0,
      "title": "Cholet",
      "start": {
        "city": "France",
        "country": "47.059407,-0.879787",
        "lat": "Cholet",
        "lng": null
      },
      "finish": {
        "city": "France",
        "country": "47.059407,-0.879787",
        "lat": "29",
        "lng": "5"
      },
      "length": 0
    },
    {
      "id": "E-2008-05",
      "year": 2008,
      "leg": "5",
      "leg_num": 0,
      "title": "Cholet",
      "start": {
        "city": "France",
        "country": "47.059407,-0.879787",
        "lat": "Châteauroux",
        "lng": null
      },
      "finish": {
        "city": "France",
        "country": "46.811434,1.686779",
        "lat": "232",
        "lng": null
      },
      "length": 0
    },
    {
      "id": "E-2008-06",
      "year": 2008,
      "leg": "6",
      "leg_num": 0,
      "title": "Aigurande",
      "start": {
        "city": "France",
        "country": "46.434011,1.828597",
        "lat": "Super-Besse",
        "lng": null
      },
      "finish": {
        "city": "France",
        "country": "45.508022,2.861518",
        "lat": "195",
        "lng": "5"
      },
      "length": 0
    },
    {
      "id": "E-2008-07",
      "year": 2008,
      "leg": "7",
      "leg_num": 0,
      "title": "Brioude",
      "start": {
        "city": "France",
        "country": "45.295564,3.386482",
        "lat": "Aurillac",
        "lng": null
      },
      "finish": {
        "city": "France",
        "country": "44.930953,2.444997",
        "lat": "159",
        "lng": null
      },
      "length": 0
    },
    {
      "id": "E-2008-08",
      "year": 2008,
      "leg": "8",
      "leg_num": 0,
      "title": "Figeac",
      "start": {
        "city": "France",
        "country": "44.608288,2.032871",
        "lat": "Toulouse",
        "lng": null
      },
      "finish": {
        "city": "France",
        "country": "43.604652,1.444209",
        "lat": "172",
        "lng": "5"
      },
      "length": 0
    },
    {
      "id": "E-2008-09",
      "year": 2008,
      "leg": "9",
      "leg_num": 0,
      "title": "Toulouse",
      "start": {
        "city": "France",
        "country": "43.604652,1.444209",
        "lat": "Bagnères-de-Bigorre",
        "lng": null
      },
      "finish": {
        "city": "France",
        "country": "43.065093,0.149105",
        "lat": "224",
        "lng": null
      },
      "length": 0
    },
    {
      "id": "E-2008-10",
      "year": 2008,
      "leg": "10",
      "leg_num": 0,
      "title": "Pau",
      "start": {
        "city": "France",
        "country": "43.2951,-0.370797",
        "lat": "Hautacam",
        "lng": null
      },
      "finish": {
        "city": "France",
        "country": "42.972222,-0.0075",
        "lat": "194",
        "lng": "5"
      },
      "length": 0
    },
    {
      "id": "E-2008-11",
      "year": 2008,
      "leg": "11",
      "leg_num": 0,
      "title": "Lannemezan",
      "start": {
        "city": "France",
        "country": "43.125519,0.38396",
        "lat": "Foix",
        "lng": null
      },
      "finish": {
        "city": "France",
        "country": "42.964127,1.605232",
        "lat": "167",
        "lng": "5"
      },
      "length": 0
    },
    {
      "id": "E-2008-12",
      "year": 2008,
      "leg": "12",
      "leg_num": 0,
      "title": "Lavelanet",
      "start": {
        "city": "France",
        "country": "42.937653,1.851472",
        "lat": "Narbonne",
        "lng": null
      },
      "finish": {
        "city": "France",
        "country": "43.184277,3.003078",
        "lat": "168",
        "lng": "5"
      },
      "length": 0
    },
    {
      "id": "E-2008-13",
      "year": 2008,
      "leg": "13",
      "leg_num": 0,
      "title": "Narbonne",
      "start": {
        "city": "France",
        "country": "43.184277,3.003078",
        "lat": "Nîmes",
        "lng": null
      },
      "finish": {
        "city": "France",
        "country": "43.836699,4.360054",
        "lat": "182",
        "lng": null
      },
      "length": 0
    },
    {
      "id": "E-2008-14",
      "year": 2008,
      "leg": "14",
      "leg_num": 0,
      "title": "Nîmes",
      "start": {
        "city": "France",
        "country": "43.836699,4.360054",
        "lat": "Digne-les-Bains",
        "lng": null
      },
      "finish": {
        "city": "France",
        "country": "44.092193,6.235976",
        "lat": "194",
        "lng": "5"
      },
      "length": 0
    },
    {
      "id": "E-2008-15",
      "year": 2008,
      "leg": "15",
      "leg_num": 0,
      "title": "Embrun",
      "start": {
        "city": "France",
        "country": "44.564164,6.495865",
        "lat": "Prato Nevoso",
        "lng": null
      },
      "finish": {
        "city": "Italie",
        "country": "44.254618,7.784652",
        "lat": "183",
        "lng": null
      },
      "length": 0
    },
    {
      "id": "E-2008-16",
      "year": 2008,
      "leg": "16",
      "leg_num": 0,
      "title": "Cuneo",
      "start": {
        "city": "Italie",
        "country": "44.384477,7.542671",
        "lat": "Jausiers",
        "lng": null
      },
      "finish": {
        "city": "France",
        "country": "44.419576,6.733329",
        "lat": "157",
        "lng": null
      },
      "length": 0
    },
    {
      "id": "E-2008-17",
      "year": 2008,
      "leg": "17",
      "leg_num": 0,
      "title": "Embrun",
      "start": {
        "city": "France",
        "country": "44.564164,6.495865",
        "lat": "L'Alpe d'Huez",
        "lng": null
      },
      "finish": {
        "city": "France",
        "country": "45.092624,6.068348",
        "lat": "210",
        "lng": "5"
      },
      "length": 0
    },
    {
      "id": "E-2008-18",
      "year": 2008,
      "leg": "18",
      "leg_num": 0,
      "title": "Le Bourg-d'Oisans",
      "start": {
        "city": "France",
        "country": "45.051951,6.030064",
        "lat": "Saint-Étienne",
        "lng": null
      },
      "finish": {
        "city": "France",
        "country": "45.439695,4.387178",
        "lat": "196",
        "lng": "5"
      },
      "length": 0
    },
    {
      "id": "E-2008-19",
      "year": 2008,
      "leg": "19",
      "leg_num": 0,
      "title": "Roanne",
      "start": {
        "city": "France",
        "country": "46.034432,4.072695",
        "lat": "Montluçon",
        "lng": null
      },
      "finish": {
        "city": "France",
        "country": "46.339966,2.606645",
        "lat": "165",
        "lng": "5"
      },
      "length": 0
    },
    {
      "id": "E-2008-20",
      "year": 2008,
      "leg": "20",
      "leg_num": 0,
      "title": "Cérilly",
      "start": {
        "city": "France",
        "country": "46.6176,2.822083",
        "lat": "Saint-Amand-Montrond",
        "lng": null
      },
      "finish": {
        "city": "France",
        "country": "46.725486,2.505604",
        "lat": "53",
        "lng": null
      },
      "length": 0
    },
    {
      "id": "E-2008-21",
      "year": 2008,
      "leg": "21",
      "leg_num": 0,
      "title": "Étampes",
      "start": {
        "city": "France",
        "country": "48.434416,2.16142",
        "lat": "Paris",
        "lng": null
      },
      "finish": {
        "city": "France",
        "country": "48.856614,2.352222",
        "lat": "143",
        "lng": null
      },
      "length": 0
    }
  ]
}