{
  "year": 2009,
  "edition": 96,
  "total_length": 3459,
  "nb_legs": 21,
  "has_prologue": false,
  "nb_concurrents": 180,
  "nb_finishers": 156,
  "pct_finishers": 87,
  "winner_name": "Alberto Contador",
  "winner_time": "85h 48’ 35\"",
  "ahead_of_2nd": "0h 04' 11\" ",
  "second_name": "A. Schleck",
  "second_country": "Luxembourg",
  "ahead_of_3rd": "0h 05' 24\"",
  "third_name": "L. Armstrong",
  "third_country": "L. Armstrong",
  "legs": [
    {
      "id": "E-2009-01",
      "year": 2009,
      "leg": 1,
      "title": "Monaco - Monaco",
      "start": {
        "city": "Monaco",
        "country": "Monaco",
        "lng": "7.424616",
        "lat": "43.738418"
      },
      "finish": {
        "city": "Monaco",
        "country": "Monaco",
        "lng": "7.424616",
        "lat": "43.738418"
      },
      "length": 15,
      "type": null,
      "winner": {
        "name": "Drapeau : SuisseFabian Cancellara",
        "nationality": null
      },
      "leader": {
        "name": "Drapeau : SuisseFabian Cancellara",
        "nationality": null
      }
    },
    {
      "id": "E-2009-02",
      "year": 2009,
      "leg": 2,
      "title": "Monaco - Brignoles",
      "start": {
        "city": "Monaco",
        "country": "Monaco",
        "lng": "7.424616",
        "lat": "43.738418"
      },
      "finish": {
        "city": "Vittel",
        "country": "France",
        "lng": "5.943496",
        "lat": "48.202541"
      },
      "length": 39,
      "type": null,
      "winner": {
        "name": "Drapeau : KazakhstanAstana",
        "nationality": null
      },
      "leader": {
        "name": "Drapeau : SuisseFabian Cancellara",
        "nationality": null
      }
    },
    {
      "id": "E-2009-03",
      "year": 2009,
      "leg": 3,
      "title": "Marseille - La Grande-Motte",
      "start": {
        "city": "Marseille",
        "country": "France",
        "lng": "5.36978",
        "lat": "43.296482"
      },
      "finish": {
        "city": "Verbier",
        "country": "Suisse",
        "lng": "7.228875",
        "lat": "46.096076"
      },
      "length": 224,
      "type": null,
      "winner": {
        "name": "Drapeau : FranceBrice Feillu",
        "nationality": null
      },
      "leader": {
        "name": "Drapeau : ItalieRinaldo Nocentini",
        "nationality": null
      }
    },
    {
      "id": "E-2009-04",
      "year": 2009,
      "leg": 4,
      "title": "Montpellier - Montpellier",
      "start": {
        "city": "Montpellier",
        "country": "France",
        "lng": "3.876716",
        "lat": "43.610769"
      },
      "finish": {
        "city": "Bourg-Saint-Maurice",
        "country": "France",
        "lng": "6.769548",
        "lat": "45.618598"
      },
      "length": 176,
      "type": null,
      "winner": {
        "name": "Drapeau : EspagneLuis León Sánchez",
        "nationality": null
      },
      "leader": {
        "name": "Drapeau : ItalieRinaldo Nocentini",
        "nationality": null
      }
    },
    {
      "id": "E-2009-05",
      "year": 2009,
      "leg": 5,
      "title": "Cap d'Agde - Perpignan",
      "start": {
        "city": "Cap d'Agde",
        "country": "France",
        "lng": "3.505399",
        "lat": "43.280739"
      },
      "finish": {
        "city": "Le Grand-Bornand",
        "country": "France",
        "lng": "6.426699",
        "lat": "45.942027"
      },
      "length": 160,
      "type": null,
      "winner": {
        "name": "Drapeau : FrancePierrick Fédrigo",
        "nationality": null
      },
      "leader": {
        "name": "Drapeau : ItalieRinaldo Nocentini",
        "nationality": null
      }
    },
    {
      "id": "E-2009-06",
      "year": 2009,
      "leg": 6,
      "title": "Gérone (ESP) - Barcelone (ESP)",
      "start": {
        "city": "Gérone",
        "country": "Espagne",
        "lng": "2.819875",
        "lat": "41.972208"
      },
      "finish": {
        "city": "Annecy",
        "country": "France",
        "lng": "6.129384",
        "lat": "45.899247"
      },
      "length": 194,
      "type": null,
      "winner": {
        "name": "Drapeau : Royaume-UniMark Cavendish",
        "nationality": null
      },
      "leader": {
        "name": "Drapeau : ItalieRinaldo Nocentini",
        "nationality": null
      }
    },
    {
      "id": "E-2009-07",
      "year": 2009,
      "leg": 7,
      "title": "Barcelone (ESP) - Andorre-Arcalis (AND)",
      "start": {
        "city": "Barcelone",
        "country": "Espagne",
        "lng": "2.173404",
        "lat": "41.385064"
      },
      "finish": {
        "city": "Aubenas",
        "country": "France",
        "lng": "4.389863",
        "lat": "44.620909"
      },
      "length": 192,
      "type": null,
      "winner": {
        "name": "Drapeau : Royaume-UniMark Cavendish",
        "nationality": null
      },
      "leader": {
        "name": "Drapeau : ItalieRinaldo Nocentini",
        "nationality": null
      }
    },
    {
      "id": "E-2009-08",
      "year": 2009,
      "leg": 8,
      "title": "Andorre-la-Vieille (AND) - Saint-Girons",
      "start": {
        "city": "Andorre-la-Vieille",
        "country": "Andorre",
        "lng": "1.521836",
        "lat": "42.506317"
      },
      "finish": {
        "city": "Mont Ventoux",
        "country": "France",
        "lng": "5.283795",
        "lat": "44.173925"
      },
      "length": 200,
      "type": null,
      "winner": {
        "name": "Drapeau : AllemagneHeinrich Haussler",
        "nationality": null
      },
      "leader": {
        "name": "Drapeau : ItalieRinaldo Nocentini",
        "nationality": null
      }
    },
    {
      "id": "E-2009-09",
      "year": 2009,
      "leg": 9,
      "title": "Saint-Gaudens - Tarbes",
      "start": {
        "city": "Saint-Gaudens",
        "country": "France",
        "lng": "0.723763",
        "lat": "43.106895"
      },
      "finish": {
        "city": "Paris-Champs-Élysées",
        "country": "France",
        "lng": "2.307314",
        "lat": "48.865784"
      },
      "length": 199,
      "type": null,
      "winner": {
        "name": "Drapeau : RussieSerguei Ivanov",
        "nationality": null
      },
      "leader": {
        "name": "Drapeau : ItalieRinaldo Nocentini",
        "nationality": null
      }
    },
    {
      "id": "E-2009-10",
      "year": 2009,
      "leg": 10,
      "title": "Limoges - Issoudun",
      "start": {
        "city": "Limoges",
        "country": "France",
        "lng": "1.261105",
        "lat": "45.833619"
      },
      "finish": {
        "city": "Brignoles",
        "country": "France",
        "lng": "6.061187",
        "lat": "43.40655"
      },
      "length": 211,
      "type": null,
      "winner": {
        "name": "Drapeau : DanemarkNicki Sørensen",
        "nationality": null
      },
      "leader": {
        "name": "Drapeau : ItalieRinaldo Nocentini",
        "nationality": null
      }
    },
    {
      "id": "E-2009-11",
      "year": 2009,
      "leg": 11,
      "title": "Vatan - Saint-Fargeau",
      "start": {
        "city": "Vatan",
        "country": "France",
        "lng": "1.808678",
        "lat": "47.071754"
      },
      "finish": {
        "city": "La Grande-Motte",
        "country": "France",
        "lng": "4.086072",
        "lat": "43.560704"
      },
      "length": 207,
      "type": null,
      "winner": {
        "name": "Drapeau : EspagneAlberto Contador",
        "nationality": null
      },
      "leader": {
        "name": "Drapeau : EspagneAlberto Contador",
        "nationality": null
      }
    },
    {
      "id": "E-2009-12",
      "year": 2009,
      "leg": 12,
      "title": "Tonnerre - Vittel",
      "start": {
        "city": "Tonnerre",
        "country": "France",
        "lng": "3.973527",
        "lat": "47.856724"
      },
      "finish": {
        "city": "Montpellier",
        "country": "France",
        "lng": "3.876716",
        "lat": "43.610769"
      },
      "length": 159,
      "type": null,
      "winner": {
        "name": "Drapeau : FranceSandy Casar[11]",
        "nationality": null
      },
      "leader": {
        "name": "Drapeau : EspagneAlberto Contador",
        "nationality": null
      }
    },
    {
      "id": "E-2009-13",
      "year": 2009,
      "leg": 13,
      "title": "Vittel - Colmar",
      "start": {
        "city": "Vittel",
        "country": "France",
        "lng": "5.943496",
        "lat": "48.202541"
      },
      "finish": {
        "city": "Perpignan",
        "country": "France",
        "lng": "2.895872",
        "lat": "42.698684"
      },
      "length": 169,
      "type": null,
      "winner": {
        "name": "Drapeau : LuxembourgFränk Schleck",
        "nationality": null
      },
      "leader": {
        "name": "Drapeau : EspagneAlberto Contador",
        "nationality": null
      }
    },
    {
      "id": "E-2009-14",
      "year": 2009,
      "leg": 14,
      "title": "Colmar - Besançon",
      "start": {
        "city": "Colmar",
        "country": "France",
        "lng": "7.358512",
        "lat": "48.079359"
      },
      "finish": {
        "city": "Barcelone",
        "country": "Espagne",
        "lng": "2.173404",
        "lat": "41.385064"
      },
      "length": 40,
      "type": null,
      "winner": {
        "name": "Drapeau : EspagneAlberto Contador",
        "nationality": null
      },
      "leader": {
        "name": "Drapeau : EspagneAlberto Contador",
        "nationality": null
      }
    },
    {
      "id": "E-2009-15",
      "year": 2009,
      "leg": 15,
      "title": "Pontarlier - Verbier (SUI)",
      "start": {
        "city": "Pontarlier",
        "country": "France",
        "lng": "6.354242",
        "lat": "46.904104"
      },
      "finish": {
        "city": "Arcalis",
        "country": "Andorre",
        "lng": "1.084061",
        "lat": "42.35399"
      },
      "length": 178,
      "type": null,
      "winner": {
        "name": "Drapeau : Royaume-UniMark Cavendish",
        "nationality": null
      },
      "leader": {
        "name": "Drapeau : EspagneAlberto Contador",
        "nationality": null
      }
    },
    {
      "id": "E-2009-16",
      "year": 2009,
      "leg": 16,
      "title": "Martigny (SUI) - Bourg-Saint-Maurice",
      "start": {
        "city": "Martigny",
        "country": "Suisse",
        "lng": "7.07238",
        "lat": "46.10097"
      },
      "finish": {
        "city": "Saint-Girons",
        "country": "France",
        "lng": "1.146088",
        "lat": "42.982876"
      },
      "length": 167,
      "type": null,
      "winner": {
        "name": "Drapeau : EspagneJuan Manuel Gárate",
        "nationality": null
      },
      "leader": {
        "name": "Drapeau : EspagneAlberto Contador",
        "nationality": null
      }
    },
    {
      "id": "E-2009-17",
      "year": 2009,
      "leg": 17,
      "title": "Bourg-Saint-Maurice - Le Grand-Bornand",
      "start": {
        "city": "Bourg-Saint-Maurice",
        "country": "France",
        "lng": "6.769548",
        "lat": "45.618598"
      },
      "finish": {
        "city": "Tarbes",
        "country": "France",
        "lng": "0.078082",
        "lat": "43.232951"
      },
      "length": 164,
      "type": null,
      "winner": {
        "name": "Drapeau : Royaume-UniMark Cavendish",
        "nationality": null
      },
      "leader": {
        "name": "Drapeau : EspagneAlberto Contador",
        "nationality": null
      }
    },
    {
      "id": "E-2009-18",
      "year": 2009,
      "leg": 18,
      "title": "Annecy - Annecy",
      "start": {
        "city": "Annecy",
        "country": "France",
        "lng": "6.129384",
        "lat": "45.899247"
      },
      "finish": {
        "city": "Issoudun",
        "country": "France",
        "lng": "1.988654",
        "lat": "46.947535"
      },
      "length": 187,
      "type": null,
      "winner": {
        "name": "Drapeau : Royaume-UniMark Cavendish",
        "nationality": null
      },
      "leader": {
        "name": "Drapeau : SuisseFabian Cancellara",
        "nationality": null
      }
    },
    {
      "id": "E-2009-19",
      "year": 2009,
      "leg": 19,
      "title": "Bourgoin-Jallieu - Aubenas",
      "start": {
        "city": "Bourgoin-Jallieu",
        "country": "France",
        "lng": "5.27212",
        "lat": "45.597108"
      },
      "finish": {
        "city": "Saint-Fargeau",
        "country": "France",
        "lng": "3.070853",
        "lat": "47.641578"
      },
      "length": 196,
      "type": null,
      "winner": {
        "name": "Drapeau : Royaume-UniMark Cavendish",
        "nationality": null
      },
      "leader": {
        "name": "Drapeau : SuisseFabian Cancellara",
        "nationality": null
      }
    },
    {
      "id": "E-2009-20",
      "year": 2009,
      "leg": 20,
      "title": "Montélimar - Mont Ventoux",
      "start": {
        "city": "Montélimar",
        "country": "France",
        "lng": "4.749496",
        "lat": "44.556944"
      },
      "finish": {
        "city": "Colmar",
        "country": "France",
        "lng": "7.358512",
        "lat": "48.079359"
      },
      "length": 196,
      "type": null,
      "winner": {
        "name": "Drapeau : FranceThomas Voeckler",
        "nationality": null
      },
      "leader": {
        "name": "Drapeau : SuisseFabian Cancellara",
        "nationality": null
      }
    },
    {
      "id": "E-2009-21",
      "year": 2009,
      "leg": 21,
      "title": "Montereau - Paris-Champs-Élysées",
      "start": {
        "city": "Montereau",
        "country": "France",
        "lng": "2.956193",
        "lat": "48.384734"
      },
      "finish": {
        "city": "Besançon",
        "country": "France",
        "lng": "6.024054",
        "lat": "47.237829"
      },
      "length": 181,
      "type": null,
      "winner": {
        "name": "Drapeau : NorvègeThor Hushovd",
        "nationality": null
      },
      "leader": {
        "name": "Drapeau : SuisseFabian Cancellara",
        "nationality": null
      }
    }
  ]
}