{
  "year": 2010,
  "edition": 97,
  "total_length": 3642,
  "nb_legs": 20,
  "has_prologue": false,
  "nb_concurrents": 198,
  "nb_finishers": 170,
  "pct_finishers": 86,
  "winner_first_name": "Andy",
  "winner_last_name": "Schleck",
  "winner_id": "andy-schleck",
  "winner_total_time": "91h 58' 48\"",
  "winner_age": "25",
  "winner_country": "Luxembourg",
  "winner_avg_speed": "39,594",
  "ahead_of_2nd": "0h 01' 22\" ",
  "second_name": "D. Menchov",
  "second_country": "Russie",
  "second_id": null,
  "ahead_of_3rd": "0h 03' 01\"",
  "third_name": "S. Sanchez",
  "third_country": "Espagne",
  "third_id": null,
  "legs": [
    {
      "id": "E-2010-Prologue",
      "year": 2010,
      "leg": "Prologue",
      "leg_num": 0,
      "title": "Rotterdam",
      "start": {
        "city": "Pays-Bas",
        "country": "51.924216,4.481776",
        "lat": "Rotterdam",
        "lng": null
      },
      "finish": {
        "city": "Pays-Bas",
        "country": "51.924216,4.481776",
        "lat": "8",
        "lng": "9"
      },
      "length": 0
    },
    {
      "id": "E-2010-01",
      "year": 2010,
      "leg": "1",
      "leg_num": 0,
      "title": "Rotterdam",
      "start": {
        "city": "Pays-Bas",
        "country": "51.924216,4.481776",
        "lat": "Bruxelles",
        "lng": null
      },
      "finish": {
        "city": "Belgique",
        "country": "50.85034,4.35171",
        "lat": "223",
        "lng": "5"
      },
      "length": 0
    },
    {
      "id": "E-2010-02",
      "year": 2010,
      "leg": "2",
      "leg_num": 0,
      "title": "Bruxelles",
      "start": {
        "city": "Belgique",
        "country": "50.85034,4.35171",
        "lat": "Spa",
        "lng": null
      },
      "finish": {
        "city": "Belgique",
        "country": "50.49243,5.86432",
        "lat": "201",
        "lng": null
      },
      "length": 0
    },
    {
      "id": "E-2010-03",
      "year": 2010,
      "leg": "3",
      "leg_num": 0,
      "title": "Wanze",
      "start": {
        "city": "Belgique",
        "country": "50.534466,5.21413",
        "lat": "Arenberg",
        "lng": null
      },
      "finish": {
        "city": "France",
        "country": "50.378854,3.422829",
        "lat": "213",
        "lng": null
      },
      "length": 0
    },
    {
      "id": "E-2010-04",
      "year": 2010,
      "leg": "4",
      "leg_num": 0,
      "title": "Cambrai",
      "start": {
        "city": "France",
        "country": "50.173538,3.236633",
        "lat": "Reims",
        "lng": null
      },
      "finish": {
        "city": "France",
        "country": "49.258329,4.031696",
        "lat": "153",
        "lng": "5"
      },
      "length": 0
    },
    {
      "id": "E-2010-05",
      "year": 2010,
      "leg": "5",
      "leg_num": 0,
      "title": "Épernay",
      "start": {
        "city": "France",
        "country": "49.043411,3.956242",
        "lat": "Montargis",
        "lng": null
      },
      "finish": {
        "city": "France",
        "country": "47.99729,2.736291",
        "lat": "187",
        "lng": "5"
      },
      "length": 0
    },
    {
      "id": "E-2010-06",
      "year": 2010,
      "leg": "6",
      "leg_num": 0,
      "title": "Montargis",
      "start": {
        "city": "France",
        "country": "47.99729,2.736291",
        "lat": "Gueugnon",
        "lng": null
      },
      "finish": {
        "city": "France",
        "country": "46.601313,4.064993",
        "lat": "227",
        "lng": "5"
      },
      "length": 0
    },
    {
      "id": "E-2010-07",
      "year": 2010,
      "leg": "7",
      "leg_num": 0,
      "title": "Tournus",
      "start": {
        "city": "France",
        "country": "46.561816,4.911953",
        "lat": "Les Rousses",
        "lng": null
      },
      "finish": {
        "city": "France",
        "country": "46.48434,6.061806",
        "lat": "165",
        "lng": "5"
      },
      "length": 0
    },
    {
      "id": "E-2010-08",
      "year": 2010,
      "leg": "8",
      "leg_num": 0,
      "title": "Les Rousses",
      "start": {
        "city": "France",
        "country": "46.48434,6.061806",
        "lat": "Morzine-Avoriaz",
        "lng": null
      },
      "finish": {
        "city": "France",
        "country": "46.189683,6.776343",
        "lat": "189",
        "lng": null
      },
      "length": 0
    },
    {
      "id": "E-2010-09",
      "year": 2010,
      "leg": "9",
      "leg_num": 0,
      "title": "Morzine-Avoriaz",
      "start": {
        "city": "France",
        "country": "46.189683,6.776343",
        "lat": "Saint-Jean-de-Maurienne",
        "lng": null
      },
      "finish": {
        "city": "France",
        "country": "45.275403,6.344886",
        "lat": "204",
        "lng": "5"
      },
      "length": 0
    },
    {
      "id": "E-2010-10",
      "year": 2010,
      "leg": "10",
      "leg_num": 0,
      "title": "Chambéry",
      "start": {
        "city": "France",
        "country": "45.564601,5.917781",
        "lat": "Gap",
        "lng": null
      },
      "finish": {
        "city": "France",
        "country": "44.559638,6.079758",
        "lat": "179",
        "lng": null
      },
      "length": 0
    },
    {
      "id": "E-2010-11",
      "year": 2010,
      "leg": "11",
      "leg_num": 0,
      "title": "Sisteron",
      "start": {
        "city": "France",
        "country": "44.194713,5.943191",
        "lat": "Bourg-lès-Valence",
        "lng": null
      },
      "finish": {
        "city": "France",
        "country": "44.947037,4.894633",
        "lat": "184",
        "lng": "5"
      },
      "length": 0
    },
    {
      "id": "E-2010-12",
      "year": 2010,
      "leg": "12",
      "leg_num": 0,
      "title": "Bourg-de-Péage",
      "start": {
        "city": "France",
        "country": "45.040419,5.050948",
        "lat": "Mende",
        "lng": null
      },
      "finish": {
        "city": "France",
        "country": "44.517611,3.501873",
        "lat": "210",
        "lng": "5"
      },
      "length": 0
    },
    {
      "id": "E-2010-13",
      "year": 2010,
      "leg": "13",
      "leg_num": 0,
      "title": "Rodez",
      "start": {
        "city": "France",
        "country": "44.349389,2.575986",
        "lat": "Revel",
        "lng": null
      },
      "finish": {
        "city": "France",
        "country": "43.458611,2.004573",
        "lat": "196",
        "lng": null
      },
      "length": 0
    },
    {
      "id": "E-2010-14",
      "year": 2010,
      "leg": "14",
      "leg_num": 0,
      "title": "Revel",
      "start": {
        "city": "France",
        "country": "43.458611,2.004573",
        "lat": "Ax 3 Domaines",
        "lng": null
      },
      "finish": {
        "city": "France",
        "country": "42.699657,1.81283",
        "lat": "184",
        "lng": "5"
      },
      "length": 0
    },
    {
      "id": "E-2010-15",
      "year": 2010,
      "leg": "15",
      "leg_num": 0,
      "title": "Pamiers",
      "start": {
        "city": "France",
        "country": "43.114753,1.607953",
        "lat": "Bagnères-de-Luchon",
        "lng": null
      },
      "finish": {
        "city": "France",
        "country": "42.788963,0.592943",
        "lat": "187",
        "lng": "5"
      },
      "length": 0
    },
    {
      "id": "E-2010-16",
      "year": 2010,
      "leg": "16",
      "leg_num": 0,
      "title": "Bagnères-de-Luchon",
      "start": {
        "city": "France",
        "country": "42.788963,0.592943",
        "lat": "Pau",
        "lng": null
      },
      "finish": {
        "city": "France",
        "country": "43.2951,-0.370797",
        "lat": "199",
        "lng": "5"
      },
      "length": 0
    },
    {
      "id": "E-2010-17",
      "year": 2010,
      "leg": "17",
      "leg_num": 0,
      "title": "Pau",
      "start": {
        "city": "France",
        "country": "43.2951,-0.370797",
        "lat": "Col du Tourmalet",
        "lng": null
      },
      "finish": {
        "city": "France",
        "country": "42.908192,0.145",
        "lat": "174",
        "lng": null
      },
      "length": 0
    },
    {
      "id": "E-2010-18",
      "year": 2010,
      "leg": "18",
      "leg_num": 0,
      "title": "Salies-de-Béarn",
      "start": {
        "city": "France",
        "country": "43.470556,-0.924854",
        "lat": "Bordeaux",
        "lng": null
      },
      "finish": {
        "city": "France",
        "country": "44.837789,-0.57918",
        "lat": "109",
        "lng": "5"
      },
      "length": 0
    },
    {
      "id": "E-2010-19",
      "year": 2010,
      "leg": "19",
      "leg_num": 0,
      "title": "Bordeaux",
      "start": {
        "city": "France",
        "country": "44.837789,-0.57918",
        "lat": "Pauillac",
        "lng": null
      },
      "finish": {
        "city": "France",
        "country": "45.199585,-0.746212",
        "lat": "52",
        "lng": null
      },
      "length": 0
    },
    {
      "id": "E-2010-20",
      "year": 2010,
      "leg": "20",
      "leg_num": 0,
      "title": "Longjumeau",
      "start": {
        "city": "France",
        "country": "48.692252,2.305675",
        "lat": "Paris",
        "lng": null
      },
      "finish": {
        "city": "France",
        "country": "48.856614,2.352222",
        "lat": "102",
        "lng": "5"
      },
      "length": 0
    }
  ]
}