{
  "year": 2011,
  "edition": 98,
  "total_length": 3430,
  "nb_legs": 21,
  "has_prologue": false,
  "nb_concurrents": 198,
  "nb_finishers": 167,
  "pct_finishers": 84,
  "winner_first_name": "Cadel",
  "winner_last_name": "Evans",
  "winner_id": "cadel-evans",
  "winner_total_time": "86h 12' 22\"",
  "winner_age": "34",
  "winner_country": "Australie",
  "winner_avg_speed": "39,788",
  "ahead_of_2nd": "0h 01' 34\" ",
  "second_name": "A. Schleck",
  "second_country": "Luxembourg",
  "second_id": "andy-schleck",
  "ahead_of_3rd": "0h 02' 30\"",
  "third_name": "F. Schleck",
  "third_country": "Luxembourg",
  "third_id": null,
  "legs": [
    {
      "id": "E-2011-01",
      "year": 2011,
      "leg": "1",
      "leg_num": 0,
      "title": "Noirmoutier",
      "start": {
        "city": "France",
        "country": "47.001143,-2.247107",
        "lat": "Les Herbiers",
        "lng": null
      },
      "finish": {
        "city": "France",
        "country": "46.86919,-1.013388",
        "lat": "191",
        "lng": "5"
      },
      "length": 0
    },
    {
      "id": "E-2011-02",
      "year": 2011,
      "leg": "2",
      "leg_num": 0,
      "title": "Les Essarts",
      "start": {
        "city": "France",
        "country": "46.774141,-1.23052",
        "lat": "Les Essarts",
        "lng": null
      },
      "finish": {
        "city": "France",
        "country": "46.774141,-1.23052",
        "lat": "23",
        "lng": null
      },
      "length": 0
    },
    {
      "id": "E-2011-03",
      "year": 2011,
      "leg": "3",
      "leg_num": 0,
      "title": "Olonne-sur-Mer",
      "start": {
        "city": "France",
        "country": "46.536402,-1.772826",
        "lat": "Redon",
        "lng": null
      },
      "finish": {
        "city": "France",
        "country": "47.650742,-2.083938",
        "lat": "198",
        "lng": null
      },
      "length": 0
    },
    {
      "id": "E-2011-04",
      "year": 2011,
      "leg": "4",
      "leg_num": 0,
      "title": "Lorient",
      "start": {
        "city": "France",
        "country": "47.748252,-3.370245",
        "lat": "Mûr-de-Bretagne",
        "lng": null
      },
      "finish": {
        "city": "France",
        "country": "48.201707,-2.987594",
        "lat": "172",
        "lng": "5"
      },
      "length": 0
    },
    {
      "id": "E-2011-05",
      "year": 2011,
      "leg": "5",
      "leg_num": 0,
      "title": "Carhaix-Plouguer",
      "start": {
        "city": "France",
        "country": "48.275584,-3.574188",
        "lat": "Cap Fréhel",
        "lng": " Fréhel"
      },
      "finish": {
        "city": "France",
        "country": "48.683475,-2.318914",
        "lat": "164",
        "lng": "5"
      },
      "length": 0
    },
    {
      "id": "E-2011-06",
      "year": 2011,
      "leg": "6",
      "leg_num": 0,
      "title": "Dinan",
      "start": {
        "city": "France",
        "country": "48.454366,-2.047327",
        "lat": "Lisieux",
        "lng": null
      },
      "finish": {
        "city": "France",
        "country": "49.145922,0.227849",
        "lat": "226",
        "lng": "5"
      },
      "length": 0
    },
    {
      "id": "E-2011-07",
      "year": 2011,
      "leg": "7",
      "leg_num": 0,
      "title": "Le Mans",
      "start": {
        "city": "France",
        "country": "48.00611,0.199556",
        "lat": "Châteauroux",
        "lng": null
      },
      "finish": {
        "city": "France",
        "country": "46.811434,1.686779",
        "lat": "218",
        "lng": null
      },
      "length": 0
    },
    {
      "id": "E-2011-08",
      "year": 2011,
      "leg": "8",
      "leg_num": 0,
      "title": "Aigurande",
      "start": {
        "city": "France",
        "country": "46.434011,1.828597",
        "lat": "Super-Besse",
        "lng": null
      },
      "finish": {
        "city": "France",
        "country": "45.508022,2.861518",
        "lat": "189",
        "lng": null
      },
      "length": 0
    },
    {
      "id": "E-2011-09",
      "year": 2011,
      "leg": "9",
      "leg_num": 0,
      "title": "Issoire",
      "start": {
        "city": "France",
        "country": "45.54151,3.248128",
        "lat": "Saint-Flour",
        "lng": null
      },
      "finish": {
        "city": "France",
        "country": "45.033026,3.094862",
        "lat": "208",
        "lng": null
      },
      "length": 0
    },
    {
      "id": "E-2011-10",
      "year": 2011,
      "leg": "10",
      "leg_num": 0,
      "title": "Aurillac",
      "start": {
        "city": "France",
        "country": "44.930953,2.444997",
        "lat": "Carmaux",
        "lng": null
      },
      "finish": {
        "city": "France",
        "country": "44.050034,2.16075",
        "lat": "158",
        "lng": null
      },
      "length": 0
    },
    {
      "id": "E-2011-11",
      "year": 2011,
      "leg": "11",
      "leg_num": 0,
      "title": "Blaye-les-Mines",
      "start": {
        "city": "France",
        "country": "44.030913,2.1316",
        "lat": "Lavaur",
        "lng": null
      },
      "finish": {
        "city": "France",
        "country": "43.699185,1.820699",
        "lat": "167",
        "lng": "5"
      },
      "length": 0
    },
    {
      "id": "E-2011-12",
      "year": 2011,
      "leg": "12",
      "leg_num": 0,
      "title": "Cugnaux",
      "start": {
        "city": "France",
        "country": "43.537141,1.344995",
        "lat": "Luz-Ardiden",
        "lng": null
      },
      "finish": {
        "city": "France",
        "country": "42.885105,-0.061335",
        "lat": "211",
        "lng": null
      },
      "length": 0
    },
    {
      "id": "E-2011-13",
      "year": 2011,
      "leg": "13",
      "leg_num": 0,
      "title": "Pau",
      "start": {
        "city": "France",
        "country": "43.2951,-0.370797",
        "lat": "Lourdes",
        "lng": null
      },
      "finish": {
        "city": "France",
        "country": "43.091463,-0.045726",
        "lat": "152",
        "lng": "5"
      },
      "length": 0
    },
    {
      "id": "E-2011-14",
      "year": 2011,
      "leg": "14",
      "leg_num": 0,
      "title": "Saint-Gaudens",
      "start": {
        "city": "France",
        "country": "43.106895,0.723763",
        "lat": "Plateau de Beille",
        "lng": " Aston"
      },
      "finish": {
        "city": "France",
        "country": "42.709683,1.702387",
        "lat": "168",
        "lng": "5"
      },
      "length": 0
    },
    {
      "id": "E-2011-15",
      "year": 2011,
      "leg": "15",
      "leg_num": 0,
      "title": "Limoux",
      "start": {
        "city": "France",
        "country": "43.053289,2.218142",
        "lat": "Montpellier",
        "lng": null
      },
      "finish": {
        "city": "France",
        "country": "43.610769,3.876716",
        "lat": "192",
        "lng": "5"
      },
      "length": 0
    },
    {
      "id": "E-2011-16",
      "year": 2011,
      "leg": "16",
      "leg_num": 0,
      "title": "Saint-Paul-Trois-Châteaux",
      "start": {
        "city": "France",
        "country": "44.348678,4.768295",
        "lat": "Gap",
        "lng": null
      },
      "finish": {
        "city": "France",
        "country": "44.559638,6.079758",
        "lat": "162",
        "lng": "5"
      },
      "length": 0
    },
    {
      "id": "E-2011-17",
      "year": 2011,
      "leg": "17",
      "leg_num": 0,
      "title": "Gap",
      "start": {
        "city": "France",
        "country": "44.559638,6.079758",
        "lat": "Pignerol",
        "lng": null
      },
      "finish": {
        "city": "Italie",
        "country": "44.885026,7.349995",
        "lat": "179",
        "lng": null
      },
      "length": 0
    },
    {
      "id": "E-2011-18",
      "year": 2011,
      "leg": "18",
      "leg_num": 0,
      "title": "Pignerol",
      "start": {
        "city": "Italie",
        "country": "44.885026,7.349995",
        "lat": "Col du galibier",
        "lng": " Serre-Chevalier"
      },
      "finish": {
        "city": "France",
        "country": "45.06411,6.40782",
        "lat": "200",
        "lng": "5"
      },
      "length": 0
    },
    {
      "id": "E-2011-19",
      "year": 2011,
      "leg": "19",
      "leg_num": 0,
      "title": "Modane",
      "start": {
        "city": "France",
        "country": "45.201491,6.67292",
        "lat": "L'Alpe d'Huez",
        "lng": null
      },
      "finish": {
        "city": "France",
        "country": "45.092624,6.068348",
        "lat": "109",
        "lng": "5"
      },
      "length": 0
    },
    {
      "id": "E-2011-20",
      "year": 2011,
      "leg": "20",
      "leg_num": 0,
      "title": "Grenoble",
      "start": {
        "city": "France",
        "country": "45.188529,5.724524",
        "lat": "Grenoble",
        "lng": null
      },
      "finish": {
        "city": "France",
        "country": "45.188529,5.724524",
        "lat": "42",
        "lng": "5"
      },
      "length": 0
    },
    {
      "id": "E-2011-21",
      "year": 2011,
      "leg": "21",
      "leg_num": 0,
      "title": "Créteil",
      "start": {
        "city": "France",
        "country": "48.790367,2.455572",
        "lat": "Paris",
        "lng": null
      },
      "finish": {
        "city": "France",
        "country": "48.856614,2.352222",
        "lat": "95",
        "lng": null
      },
      "length": 0
    }
  ]
}