{
  "year": 2013,
  "edition": 100,
  "total_length": 3360,
  "nb_legs": 21,
  "has_prologue": false,
  "nb_concurrents": 0,
  "nb_finishers": 0,
  "pct_finishers": 0,
  "winner_first_name": "n.a.",
  "winner_last_name": "n.a.",
  "winner_id": "n.a.",
  "winner_total_time": "n.a.",
  "winner_age": "n.a.",
  "winner_country": "n.a.",
  "winner_avg_speed": "n.a.",
  "ahead_of_2nd": null,
  "second_name": "n.a.",
  "second_country": "n.a.",
  "second_id": null,
  "ahead_of_3rd": "n.a.",
  "third_name": "n.a.",
  "third_country": "n.a.",
  "third_id": null,
  "legs": [
    {
      "id": "E-2013-01",
      "year": 2013,
      "leg": "1",
      "leg_num": 0,
      "title": "Porto-Vecchio",
      "start": {
        "city": "France",
        "country": "41.591369,9.278311",
        "lat": "Bastia",
        "lng": null
      },
      "finish": {
        "city": "France",
        "country": "42.697283,9.450881",
        "lat": "212",
        "lng": null
      },
      "length": 0
    },
    {
      "id": "E-2013-02",
      "year": 2013,
      "leg": "2",
      "leg_num": 0,
      "title": "Bastia",
      "start": {
        "city": "France",
        "country": "42.697283,9.450881",
        "lat": "Ajaccio",
        "lng": null
      },
      "finish": {
        "city": "France",
        "country": "41.919229,8.738635",
        "lat": "154",
        "lng": null
      },
      "length": 0
    },
    {
      "id": "E-2013-03",
      "year": 2013,
      "leg": "3",
      "leg_num": 0,
      "title": "Ajaccio",
      "start": {
        "city": "France",
        "country": "41.919229,8.738635",
        "lat": "Calvi",
        "lng": null
      },
      "finish": {
        "city": "France",
        "country": "42.567651,8.757222",
        "lat": "145",
        "lng": null
      },
      "length": 0
    },
    {
      "id": "E-2013-04",
      "year": 2013,
      "leg": "4",
      "leg_num": 0,
      "title": "Nice",
      "start": {
        "city": "France",
        "country": "43.696036,7.265592",
        "lat": "Nice",
        "lng": null
      },
      "finish": {
        "city": "France",
        "country": "43.696036,7.265592",
        "lat": "25",
        "lng": null
      },
      "length": 0
    },
    {
      "id": "E-2013-05",
      "year": 2013,
      "leg": "5",
      "leg_num": 0,
      "title": "Cagnes-sur-Mer",
      "start": {
        "city": "France",
        "country": "43.663739,7.14882",
        "lat": "Marseille",
        "lng": null
      },
      "finish": {
        "city": "France",
        "country": "43.296482,5.36978",
        "lat": "219",
        "lng": null
      },
      "length": 0
    },
    {
      "id": "E-2013-06",
      "year": 2013,
      "leg": "6",
      "leg_num": 0,
      "title": "Aix-en-Provence",
      "start": {
        "city": "France",
        "country": "43.529742,5.447427",
        "lat": "Montpellier",
        "lng": null
      },
      "finish": {
        "city": "France",
        "country": "43.610769,3.876716",
        "lat": "176",
        "lng": null
      },
      "length": 0
    },
    {
      "id": "E-2013-07",
      "year": 2013,
      "leg": "7",
      "leg_num": 0,
      "title": "Montpellier",
      "start": {
        "city": "France",
        "country": "43.610769,3.876716",
        "lat": "Albi",
        "lng": null
      },
      "finish": {
        "city": "France",
        "country": "43.926896,2.146343",
        "lat": "205",
        "lng": null
      },
      "length": 0
    },
    {
      "id": "E-2013-08",
      "year": 2013,
      "leg": "8",
      "leg_num": 0,
      "title": "Castres",
      "start": {
        "city": "France",
        "country": "43.606214,2.241295",
        "lat": "Ax 3 Domaines",
        "lng": null
      },
      "finish": {
        "city": "France",
        "country": "42.699657,1.81283",
        "lat": "194",
        "lng": null
      },
      "length": 0
    },
    {
      "id": "E-2013-09",
      "year": 2013,
      "leg": "9",
      "leg_num": 0,
      "title": "Saint-Girons",
      "start": {
        "city": "France",
        "country": "42.982876,1.146088",
        "lat": "Bagnères-de-Bigorre",
        "lng": null
      },
      "finish": {
        "city": "France",
        "country": "43.065093,0.149105",
        "lat": "165",
        "lng": null
      },
      "length": 0
    },
    {
      "id": "E-2013-10",
      "year": 2013,
      "leg": "10",
      "leg_num": 0,
      "title": "Saint-Gildas-des-Bois",
      "start": {
        "city": "France",
        "country": "47.517319,-2.037288",
        "lat": "Saint-Malo",
        "lng": null
      },
      "finish": {
        "city": "France",
        "country": "48.649337,-2.025674",
        "lat": "193",
        "lng": null
      },
      "length": 0
    },
    {
      "id": "E-2013-11",
      "year": 2013,
      "leg": "11",
      "leg_num": 0,
      "title": "Avranches",
      "start": {
        "city": "France",
        "country": "48.686843,-1.36166",
        "lat": "Mont-Saint-Michel",
        "lng": null
      },
      "finish": {
        "city": "France",
        "country": "48.636063,-1.511457",
        "lat": "33",
        "lng": null
      },
      "length": 0
    },
    {
      "id": "E-2013-12",
      "year": 2013,
      "leg": "12",
      "leg_num": 0,
      "title": "Fougères",
      "start": {
        "city": "France",
        "country": "48.351561,-1.204626",
        "lat": "Tours",
        "lng": null
      },
      "finish": {
        "city": "France",
        "country": "47.394144,0.68484",
        "lat": "218",
        "lng": null
      },
      "length": 0
    },
    {
      "id": "E-2013-13",
      "year": 2013,
      "leg": "13",
      "leg_num": 0,
      "title": "Tours",
      "start": {
        "city": "France",
        "country": "47.394144,0.68484",
        "lat": "Saint-Amand-Montrond",
        "lng": null
      },
      "finish": {
        "city": "France",
        "country": "46.725486,2.505604",
        "lat": "173",
        "lng": null
      },
      "length": 0
    },
    {
      "id": "E-2013-14",
      "year": 2013,
      "leg": "14",
      "leg_num": 0,
      "title": "Saint-Pourçain-sur-Sioule",
      "start": {
        "city": "France",
        "country": "46.307204,3.288997",
        "lat": "Lyon",
        "lng": null
      },
      "finish": {
        "city": "France",
        "country": "45.764043,4.835659",
        "lat": "191",
        "lng": null
      },
      "length": 0
    },
    {
      "id": "E-2013-15",
      "year": 2013,
      "leg": "15",
      "leg_num": 0,
      "title": "Givors",
      "start": {
        "city": "France",
        "country": "45.58329,4.772829",
        "lat": "Mont Ventoux",
        "lng": null
      },
      "finish": {
        "city": "France",
        "country": "44.173925,5.283795",
        "lat": "242",
        "lng": null
      },
      "length": 0
    },
    {
      "id": "E-2013-16",
      "year": 2013,
      "leg": "16",
      "leg_num": 0,
      "title": "Vaison-la-Romaine",
      "start": {
        "city": "France",
        "country": "44.240968,5.075198",
        "lat": "Gap",
        "lng": null
      },
      "finish": {
        "city": "France",
        "country": "44.559638,6.079758",
        "lat": "168",
        "lng": null
      },
      "length": 0
    },
    {
      "id": "E-2013-17",
      "year": 2013,
      "leg": "17",
      "leg_num": 0,
      "title": "Embrun",
      "start": {
        "city": "France",
        "country": "44.564164,6.495865",
        "lat": "Chorges",
        "lng": null
      },
      "finish": {
        "city": "France",
        "country": "44.545716,6.275548",
        "lat": "32",
        "lng": null
      },
      "length": 0
    },
    {
      "id": "E-2013-18",
      "year": 2013,
      "leg": "18",
      "leg_num": 0,
      "title": "Gap",
      "start": {
        "city": "France",
        "country": "44.559638,6.079758",
        "lat": "Alpe d'Huez",
        "lng": null
      },
      "finish": {
        "city": "France",
        "country": "45.092624,6.068348",
        "lat": "168",
        "lng": null
      },
      "length": 0
    },
    {
      "id": "E-2013-19",
      "year": 2013,
      "leg": "19",
      "leg_num": 0,
      "title": "Bourg-d'Oisans",
      "start": {
        "city": "France",
        "country": "45.051951,6.030064",
        "lat": "Le Grand-Bornand",
        "lng": null
      },
      "finish": {
        "city": "France",
        "country": "45.942027,6.426699",
        "lat": "204",
        "lng": null
      },
      "length": 0
    },
    {
      "id": "E-2013-20",
      "year": 2013,
      "leg": "20",
      "leg_num": 0,
      "title": "Annecy",
      "start": {
        "city": "France",
        "country": "45.899247,6.129384",
        "lat": "Semnoz",
        "lng": null
      },
      "finish": {
        "city": "France",
        "country": "45.797222,6.104722",
        "lat": "125",
        "lng": null
      },
      "length": 0
    },
    {
      "id": "E-2013-21",
      "year": 2013,
      "leg": "21",
      "leg_num": 0,
      "title": "Versailles",
      "start": {
        "city": "France",
        "country": "48.801408,2.130122",
        "lat": "Paris",
        "lng": null
      },
      "finish": {
        "city": "France",
        "country": "48.856614,2.352222",
        "lat": "118",
        "lng": null
      },
      "length": 0
    }
  ]
}